time,drone0_roll,drone0_pitch,drone0_yaw,drone0_des_qw,drone0_des_qx,drone0_des_qy,drone0_des_qz,drone0_err_x,drone0_err_y,drone0_err_z,drone1_roll,drone1_pitch,drone1_yaw,drone1_des_qw,drone1_des_qx,drone1_des_qy,drone1_des_qz,drone1_err_x,drone1_err_y,drone1_err_z,drone2_roll,drone2_pitch,drone2_yaw,drone2_des_qw,drone2_des_qx,drone2_des_qy,drone2_des_qz,drone2_err_x,drone2_err_y,drone2_err_z
0.000000,0.000000,0.000000,0.000000,1,0,0,0,0,0,0,0.000000,0.000000,0.000000,1,0,0,0,0,0,0,0.000000,0.000000,0.000000,1,0,0,0,0,0,0
0.010000,0.000001,-0.000001,-0.000000,1,0,0,0,0,0,0,0.000001,-0.000001,-0.000000,1,0,0,0,0,0,0,0.000001,-0.000001,-0.000000,1,0,0,0,0,0,0
0.020000,0.000003,-0.000006,-0.000000,1,0,0,0,0,0,0,-0.000030,-0.000024,0.000000,1,0,0,0,0,0,0,0.000003,-0.000006,-0.000000,1,0,0,0,0,0,0
0.030000,0.000008,-0.000016,-0.000000,1,0,0,0,0,0,0,-0.000155,-0.000107,0.000000,1,0,0,0,0,0,0,0.000008,-0.000016,-0.000000,1,0,0,0,0,0,0
0.040000,0.000015,-0.000030,-0.000000,1,0,0,0,0,0,0,-0.000399,-0.000264,0.000000,1,0,0,0,0,0,0,0.000015,-0.000030,-0.000000,1,0,0,0,0,0,0
0.050000,0.000025,0.000002,0.000000,1,0,0,0,0,0,0,-0.000774,-0.000503,0.000000,1,0,0,0,0,0,0,0.000125,-0.000104,-0.000000,1,0,0,0,0,0,0
0.060000,0.000037,0.000187,0.000000,1,0,0,0,0,0,0,-0.001286,-0.000826,0.000001,1,0,0,0,0,0,0,0.000291,-0.000217,-0.000000,1,0,0,0,0,0,0
0.070000,0.000050,0.000342,0.000000,1,0,0,0,0,0,0,-0.001941,-0.001237,0.000001,1,0,0,0,0,0,0,0.000529,-0.000371,-0.000000,1,0,0,0,0,0,0
0.080000,0.000066,0.000711,0.000000,1,0,0,0,0,0,0,-0.002736,-0.001734,0.000002,1,0,0,0,0,0,0,0.000878,-0.000594,-0.000000,1,0,0,0,0,0,0
0.090000,0.000084,0.001100,0.000000,1,0,0,0,0,0,0,-0.003647,-0.002303,0.000004,1,0,0,0,0,0,0,0.001334,-0.000880,-0.000001,1,0,0,0,0,0,0
0.100000,0.000103,0.001641,0.000000,1,0,0,0,0,0,0,-0.004650,-0.002930,0.000007,1,0,0,0,0,0,0,0.001871,-0.001217,-0.000001,1,0,0,0,0,0,0
0.110000,0.000123,0.002285,0.000000,1,0,0,0,0,0,0,-0.005728,-0.003605,0.000010,1,0,0,0,0,0,0,0.002534,-0.001627,-0.000002,1,0,0,0,0,0,0
0.120000,0.000145,0.003035,0.000000,1,0,0,0,0,0,0,-0.006867,-0.004318,0.000015,1,0,0,0,0,0,0,0.003304,-0.002101,-0.000003,1,0,0,0,0,0,0
0.130000,0.000167,0.003921,0.000000,1,0,0,0,0,0,0,-0.008054,-0.005063,0.000020,1,0,0,0,0,0,0,0.004184,-0.002641,-0.000005,1,0,0,0,0,0,0
0.140000,0.000191,0.004938,0.000001,1,0,0,0,0,0,0,-0.009275,-0.005831,0.000027,1,0,0,0,0,0,0,0.005191,-0.003255,-0.000008,1,0,0,0,0,0,0
0.150000,0.000216,0.006094,0.000001,1,0,0,0,0,0,0,-0.010520,-0.006614,0.000035,1,0,0,0,0,0,0,0.006330,-0.003946,-0.000012,1,0,0,0,0,0,0
0.160000,0.000241,0.007400,0.000001,1,0,0,0,0,0,0,-0.011778,-0.007407,0.000043,1,0,0,0,0,0,0,0.007604,-0.004717,-0.000018,1,0,0,0,0,0,0
0.170000,0.000267,0.008859,0.000001,1,0,0,0,0,0,0,-0.013039,-0.008204,0.000053,1,0,0,0,0,0,0,0.008989,-0.005552,-0.000024,1,0,0,0,0,0,0
0.180000,0.000293,0.010423,0.000002,1,0,0,0,0,0,0,-0.014327,-0.009016,0.000064,1,0,0,0,0,0,0,0.010435,-0.006426,-0.000033,1,0,0,0,0,0,0
0.190000,0.000320,0.012044,0.000002,1,0,0,0,0,0,0,-0.015645,-0.009846,0.000077,1,0,0,0,0,0,0,0.011919,-0.007321,-0.000043,1,0,0,0,0,0,0
0.200000,0.000347,0.013702,0.000003,1,0,0,0,0,0,0,-0.016978,-0.010685,0.000090,1,0,0,0,0,0,0,0.013433,-0.008235,-0.000055,1,0,0,0,0,0,0
0.210000,0.000374,0.015390,0.000003,1,0,0,0,0,0,0,-0.018313,-0.011526,0.000105,1,0,0,0,0,0,0,0.014965,-0.009159,-0.000068,1,0,0,0,0,0,0
0.220000,0.000401,0.017088,0.000004,1,0,0,0,0,0,0,-0.019646,-0.012365,0.000121,1,0,0,0,0,0,0,0.016490,-0.010080,-0.000082,1,0,0,0,0,0,0
0.230000,0.000428,0.018761,0.000005,1,0,0,0,0,0,0,-0.020975,-0.013202,0.000138,1,0,0,0,0,0,0,0.017971,-0.010976,-0.000098,1,0,0,0,0,0,0
0.240000,0.000455,0.020366,0.000005,1,0,0,0,0,0,0,-0.022299,-0.014034,0.000156,1,0,0,0,0,0,0,0.019385,-0.011832,-0.000114,1,0,0,0,0,0,0
0.250000,0.000481,0.021886,0.000006,1,0,0,0,0,0,0,-0.023612,-0.014858,0.000175,1,0,0,0,0,0,0,0.020741,-0.012654,-0.000130,1,0,0,0,0,0,0
0.260000,0.000506,0.023341,0.000007,1,0,0,0,0,0,0,-0.024902,-0.015669,0.000195,1,0,0,0,0,0,0,0.022047,-0.013447,-0.000147,1,0,0,0,0,0,0
0.270000,0.000531,0.024736,0.000007,1,0,0,0,0,0,0,-0.026155,-0.016456,0.000215,1,0,0,0,0,0,0,0.023310,-0.014212,-0.000164,1,0,0,0,0,0,0
0.280000,0.000555,0.026079,0.000008,1,0,0,0,0,0,0,-0.027352,-0.017209,0.000235,1,0,0,0,0,0,0,0.024531,-0.014952,-0.000182,1,0,0,0,0,0,0
0.290000,0.000578,0.027373,0.000009,1,0,0,0,0,0,0,-0.028485,-0.017922,0.000255,1,0,0,0,0,0,0,0.025710,-0.015666,-0.000200,1,0,0,0,0,0,0
0.300000,0.000600,0.028615,0.000009,1,0,0,0,0,0,0,-0.029546,-0.018592,0.000274,1,0,0,0,0,0,0,0.026839,-0.016350,-0.000218,1,0,0,0,0,0,0
0.310000,0.000620,0.029792,0.000010,1,0,0,0,0,0,0,-0.030527,-0.019212,0.000293,1,0,0,0,0,0,0,0.027900,-0.016993,-0.000236,1,0,0,0,0,0,0
0.320000,0.000640,0.030880,0.000011,1,0,0,0,0,0,0,-0.031412,-0.019775,0.000310,1,0,0,0,0,0,0,0.028871,-0.017584,-0.000253,1,0,0,0,0,0,0
0.330000,0.000659,0.031858,0.000011,1,0,0,0,0,0,0,-0.032179,-0.020266,0.000326,1,0,0,0,0,0,0,0.029739,-0.018113,-0.000268,1,0,0,0,0,0,0
0.340000,0.000677,0.032711,0.000012,1,0,0,0,0,0,0,-0.032819,-0.020682,0.000339,1,0,0,0,0,0,0,0.030492,-0.018575,-0.000282,1,0,0,0,0,0,0
0.350000,0.000693,0.033431,0.000012,1,0,0,0,0,0,0,-0.033328,-0.021018,0.000351,1,0,0,0,0,0,0,0.031126,-0.018966,-0.000294,1,0,0,0,0,0,0
0.360000,0.000709,0.034013,0.000013,1,0,0,0,0,0,0,-0.033707,-0.021276,0.000359,1,0,0,0,0,0,0,0.031634,-0.019282,-0.000304,1,0,0,0,0,0,0
0.370000,0.000722,0.034446,0.000013,1,0,0,0,0,0,0,-0.033954,-0.021454,0.000365,1,0,0,0,0,0,0,0.032002,-0.019516,-0.000312,1,0,0,0,0,0,0
0.380000,0.000735,0.034716,0.000013,1,0,0,0,0,0,0,-0.034068,-0.021551,0.000368,1,0,0,0,0,0,0,0.032222,-0.019663,-0.000316,1,0,0,0,0,0,0
0.390000,0.000747,0.034818,0.000013,1,0,0,0,0,0,0,-0.034054,-0.021571,0.000369,1,0,0,0,0,0,0,0.032293,-0.019721,-0.000318,1,0,0,0,0,0,0
0.400000,0.000757,0.034753,0.000013,1,0,0,0,0,0,0,-0.033921,-0.021519,0.000367,1,0,0,0,0,0,0,0.032218,-0.019693,-0.000318,1,0,0,0,0,0,0
0.410000,0.000766,0.034525,0.000013,1,0,0,0,0,0,0,-0.033674,-0.021398,0.000363,1,0,0,0,0,0,0,0.032001,-0.019580,-0.000314,1,0,0,0,0,0,0
0.420000,0.000774,0.034140,0.000013,1,0,0,0,0,0,0,-0.033321,-0.021211,0.000357,1,0,0,0,0,0,0,0.031648,-0.019387,-0.000308,1,0,0,0,0,0,0
0.430000,0.000781,0.033604,0.000012,1,0,0,0,0,0,0,-0.032868,-0.020964,0.000348,1,0,0,0,0,0,0,0.031166,-0.019117,-0.000299,1,0,0,0,0,0,0
0.440000,0.000786,0.032922,0.000012,1,0,0,0,0,0,0,-0.032325,-0.020662,0.000338,1,0,0,0,0,0,0,0.030561,-0.018774,-0.000289,1,0,0,0,0,0,0
0.450000,0.000790,0.032102,0.000011,1,0,0,0,0,0,0,-0.031705,-0.020312,0.000327,1,0,0,0,0,0,0,0.029840,-0.018362,-0.000276,1,0,0,0,0,0,0
0.460000,0.000793,0.031153,0.000010,1,0,0,0,0,0,0,-0.031026,-0.019925,0.000314,1,0,0,0,0,0,0,0.029012,-0.017886,-0.000262,1,0,0,0,0,0,0
0.470000,0.000795,0.030085,0.000010,1,0,0,0,0,0,0,-0.030309,-0.019513,0.000301,1,0,0,0,0,0,0,0.028085,-0.017351,-0.000246,1,0,0,0,0,0,0
0.480000,0.000797,0.028908,0.000009,1,0,0,0,0,0,0,-0.029575,-0.019089,0.000288,1,0,0,0,0,0,0,0.027066,-0.016761,-0.000230,1,0,0,0,0,0,0
0.490000,0.000797,0.027632,0.000008,1,0,0,0,0,0,0,-0.028850,-0.018667,0.000276,1,0,0,0,0,0,0,0.025965,-0.016121,-0.000213,1,0,0,0,0,0,0
0.500000,0.000797,0.026266,0.000007,1,0,0,0,0,0,0,-0.028160,-0.018263,0.000264,1,0,0,0,0,0,0,0.024791,-0.015439,-0.000195,1,0,0,0,0,0,0
0.510000,0.000796,0.024823,0.000006,1,0,0,0,0,0,0,-0.027536,-0.017894,0.000253,1,0,0,0,0,0,0,0.023555,-0.014718,-0.000178,1,0,0,0,0,0,0
0.520000,0.000795,0.023316,0.000005,1,0,0,0,0,0,0,-0.027004,-0.017577,0.000244,1,0,0,0,0,0,0,0.022266,-0.013965,-0.000160,1,0,0,0,0,0,0
0.530000,0.000793,0.021756,0.000004,1,0,0,0,0,0,0,-0.026583,-0.017323,0.000237,1,0,0,0,0,0,0,0.020935,-0.013187,-0.000143,1,0,0,0,0,0,0
0.540000,0.000792,0.020153,0.000003,1,0,0,0,0,0,0,-0.026279,-0.017136,0.000231,1,0,0,0,0,0,0,0.019574,-0.012389,-0.000126,1,0,0,0,0,0,0
0.550000,0.000790,0.018522,0.000002,1,0,0,0,0,0,0,-0.026083,-0.017010,0.000228,1,0,0,0,0,0,0,0.018199,-0.011581,-0.000111,1,0,0,0,0,0,0
0.560000,0.000788,0.016880,0.000001,1,0,0,0,0,0,0,-0.025987,-0.016940,0.000226,1,0,0,0,0,0,0,0.016828,-0.010772,-0.000096,1,0,0,0,0,0,0
0.570000,0.000788,0.015246,0.000000,1,0,0,0,0,0,0,-0.025980,-0.016922,0.000225,1,0,0,0,0,0,0,0.015480,-0.009975,-0.000083,1,0,0,0,0,0,0
0.580000,0.000788,0.013642,-0.000001,1,0,0,0,0,0,0,-0.026035,-0.016940,0.000225,1,0,0,0,0,0,0,0.014181,-0.009202,-0.000071,1,0,0,0,0,0,0
0.590000,0.000791,0.012096,-0.000002,1,0,0,0,0,0,0,-0.026122,-0.016975,0.000226,1,0,0,0,0,0,0,0.012961,-0.008471,-0.000061,1,0,0,0,0,0,0
0.600000,0.000797,0.010643,-0.000002,1,0,0,0,0,0,0,-0.026218,-0.017014,0.000226,1,0,0,0,0,0,0,0.011859,-0.007802,-0.000052,1,0,0,0,0,0,0
0.610000,0.000806,0.009324,-0.000003,1,0,0,0,0,0,0,-0.026312,-0.017051,0.000227,1,0,0,0,0,0,0,0.010916,-0.007218,-0.000045,1,0,0,0,0,0,0
0.620000,0.000821,0.008190,-0.000004,1,0,0,0,0,0,0,-0.026410,-0.017090,0.000228,1,0,0,0,0,0,0,0.010178,-0.006744,-0.000040,1,0,0,0,0,0,0
0.630000,0.000844,0.007290,-0.000004,1,0,0,0,0,0,0,-0.026514,-0.017130,0.000229,1,0,0,0,0,0,0,0.009682,-0.006399,-0.000036,1,0,0,0,0,0,0
0.640000,0.000874,0.006668,-0.000004,1,0,0,0,0,0,0,-0.026612,-0.017167,0.000230,1,0,0,0,0,0,0,0.009440,-0.006192,-0.000034,1,0,0,0,0,0,0
0.650000,0.000914,0.006342,-0.000004,1,0,0,0,0,0,0,-0.026687,-0.017189,0.000230,1,0,0,0,0,0,0,0.009441,-0.006115,-0.000033,1,0,0,0,0,0,0
0.660000,0.000963,0.006302,-0.000004,1,0,0,0,0,0,0,-0.026718,-0.017185,0.000230,1,0,0,0,0,0,0,0.009686,-0.006169,-0.000033,1,0,0,0,0,0,0
0.670000,0.001021,0.006550,-0.000003,1,0,0,0,0,0,0,-0.026696,-0.017150,0.000229,1,0,0,0,0,0,0,0.010135,-0.006333,-0.000034,1,0,0,0,0,0,0
0.680000,0.001087,0.007051,-0.000002,1,0,0,0,0,0,0,-0.026620,-0.017084,0.000227,1,0,0,0,0,0,0,0.010702,-0.006561,-0.000037,1,0,0,0,0,0,0
0.690000,0.001158,0.007704,-0.000001,1,0,0,0,0,0,0,-0.026495,-0.016989,0.000225,1,0,0,0,0,0,0,0.011287,-0.006802,-0.000039,1,0,0,0,0,0,0
0.700000,0.001229,0.008393,0.000000,1,0,0,0,0,0,0,-0.026335,-0.016872,0.000222,1,0,0,0,0,0,0,0.011829,-0.007022,-0.000042,1,0,0,0,0,0,0
0.710000,0.001296,0.009041,0.000001,1,0,0,0,0,0,0,-0.026157,-0.016744,0.000218,1,0,0,0,0,0,0,0.012305,-0.007210,-0.000044,1,0,0,0,0,0,0
0.720000,0.001359,0.009617,0.000002,1,0,0,0,0,0,0,-0.025980,-0.016617,0.000215,1,0,0,0,0,0,0,0.012719,-0.007367,-0.000046,1,0,0,0,0,0,0
0.730000,0.001416,0.010124,0.000003,1,0,0,0,0,0,0,-0.025819,-0.016499,0.000212,1,0,0,0,0,0,0,0.013103,-0.007508,-0.000048,1,0,0,0,0,0,0
0.740000,0.001470,0.010591,0.000004,1,0,0,0,0,0,0,-0.025684,-0.016395,0.000209,1,0,0,0,0,0,0,0.013512,-0.007662,-0.000050,1,0,0,0,0,0,0
0.750000,0.001523,0.011089,0.000005,1,0,0,0,0,0,0,-0.025576,-0.016308,0.000207,1,0,0,0,0,0,0,0.013977,-0.007844,-0.000052,1,0,0,0,0,0,0
0.760000,0.001579,0.011649,0.000006,1,0,0,0,0,0,0,-0.025492,-0.016237,0.000205,1,0,0,0,0,0,0,0.014495,-0.008053,-0.000056,1,0,0,0,0,0,0
0.770000,0.001636,0.012277,0.000008,1,0,0,0,0,0,0,-0.025434,-0.016181,0.000204,1,0,0,0,0,0,0,0.015059,-0.008286,-0.000059,1,0,0,0,0,0,0
0.780000,0.001695,0.012970,0.000009,1,0,0,0,0,0,0,-0.025407,-0.016144,0.000203,1,0,0,0,0,0,0,0.015653,-0.008535,-0.000063,1,0,0,0,0,0,0
0.790000,0.001756,0.013714,0.000010,1,0,0,0,0,0,0,-0.025423,-0.016132,0.000203,1,0,0,0,0,0,0,0.016254,-0.008790,-0.000067,1,0,0,0,0,0,0
0.800000,0.001817,0.014492,0.000012,1,0,0,0,0,0,0,-0.025491,-0.016152,0.000204,1,0,0,0,0,0,0,0.016834,-0.009038,-0.000072,1,0,0,0,0,0,0
0.810000,0.001875,0.015277,0.000013,1,0,0,0,0,0,0,-0.025621,-0.016208,0.000205,1,0,0,0,0,0,0,0.017366,-0.009266,-0.000076,1,0,0,0,0,0,0
0.820000,0.001927,0.016030,0.000015,1,0,0,0,0,0,0,-0.025815,-0.016302,0.000208,1,0,0,0,0,0,0,0.017838,-0.009470,-0.000080,1,0,0,0,0,0,0
0.830000,0.001973,0.016726,0.000016,1,0,0,0,0,0,0,-0.026076,-0.016435,0.000211,1,0,0,0,0,0,0,0.018251,-0.009650,-0.000083,1,0,0,0,0,0,0
0.840000,0.002011,0.017355,0.000018,1,0,0,0,0,0,0,-0.026414,-0.016614,0.000216,1,0,0,0,0,0,0,0.018608,-0.009808,-0.000086,1,0,0,0,0,0,0
0.850000,0.002040,0.017922,0.000019,1,0,0,0,0,0,0,-0.026851,-0.016851,0.000223,1,0,0,0,0,0,0,0.018915,-0.009948,-0.000089,1,0,0,0,0,0,0
0.860000,0.002060,0.018430,0.000020,1,0,0,0,0,0,0,-0.027424,-0.017166,0.000232,1,0,0,0,0,0,0,0.019180,-0.010074,-0.000092,1,0,0,0,0,0,0
0.870000,0.002073,0.018882,0.000021,1,0,0,0,0,0,0,-0.028171,-0.017582,0.000243,1,0,0,0,0,0,0,0.019415,-0.010192,-0.000095,1,0,0,0,0,0,0
0.880000,0.002078,0.019287,0.000021,1,0,0,0,0,0,0,-0.029116,-0.018112,0.000259,1,0,0,0,0,0,0,0.019634,-0.010311,-0.000097,1,0,0,0,0,0,0
0.890000,0.002076,0.019660,0.000022,1,0,0,0,0,0,0,-0.030251,-0.018752,0.000278,1,0,0,0,0,0,0,0.019859,-0.010440,-0.000100,1,0,0,0,0,0,0
0.900000,0.002067,0.020017,0.000023,1,0,0,0,0,0,0,-0.031538,-0.019482,0.000301,1,0,0,0,0,0,0,0.020113,-0.010592,-0.000103,1,0,0,0,0,0,0
0.910000,0.002054,0.020383,0.000023,1,0,0,0,0,0,0,-0.032940,-0.020280,0.000327,1,0,0,0,0,0,0,0.020422,-0.010781,-0.000107,1,0,0,0,0,0,0
0.920000,0.002036,0.020789,0.000024,1,0,0,0,0,0,0,-0.034428,-0.021130,0.000356,1,0,0,0,0,0,0,0.020808,-0.011016,-0.000112,1,0,0,0,0,0,0
0.930000,0.002016,0.021263,0.000025,1,0,0,0,0,0,0,-0.035976,-0.022016,0.000388,1,0,0,0,0,0,0,0.021285,-0.011306,-0.000119,1,0,0,0,0,0,0
0.940000,0.001995,0.021823,0.000026,1,0,0,0,0,0,0,-0.037555,-0.022920,0.000421,1,0,0,0,0,0,0,0.021854,-0.011649,-0.000126,1,0,0,0,0,0,0
0.950000,0.001974,0.022481,0.000027,1,0,0,0,0,0,0,-0.039133,-0.023825,0.000456,1,0,0,0,0,0,0,0.022505,-0.012039,-0.000135,1,0,0,0,0,0,0
0.960000,0.001954,0.023235,0.000028,1,0,0,0,0,0,0,-0.040699,-0.024724,0.000493,1,0,0,0,0,0,0,0.023216,-0.012463,-0.000145,1,0,0,0,0,0,0
0.970000,0.001936,0.024068,0.000029,1,0,0,0,0,0,0,-0.042284,-0.025634,0.000531,1,0,0,0,0,0,0,0.023959,-0.012907,-0.000155,1,0,0,0,0,0,0
0.980000,0.001918,0.024956,0.000031,1,0,0,0,0,0,0,-0.043901,-0.026563,0.000572,1,0,0,0,0,0,0,0.024700,-0.013352,-0.000166,1,0,0,0,0,0,0
0.990000,0.001901,0.025858,0.000032,1,0,0,0,0,0,0,-0.045562,-0.027519,0.000615,1,0,0,0,0,0,0,0.025415,-0.013784,-0.000177,1,0,0,0,0,0,0
1.000000,0.001884,0.026734,0.000033,1,0,0,0,0,0,0,-0.047271,-0.028505,0.000662,1,0,0,0,0,0,0,0.026104,-0.014203,-0.000187,1,0,0,0,0,0,0
1.010000,0.001865,0.027553,0.000034,1,0,0,0,0,0,0,-0.049021,-0.029518,0.000711,1,0,0,0,0,0,0,0.026772,-0.014611,-0.000198,1,0,0,0,0,0,0
1.020000,0.001846,0.028318,0.000035,1,0,0,0,0,0,0,-0.050790,-0.030546,0.000763,1,0,0,0,0,0,0,0.027425,-0.015010,-0.000209,1,0,0,0,0,0,0
1.030000,0.001826,0.029038,0.000036,1,0,0,0,0,0,0,-0.052572,-0.031587,0.000818,1,0,0,0,0,0,0,0.028120,-0.015431,-0.000220,1,0,0,0,0,0,0
1.040000,0.001807,0.029717,0.000037,1,0,0,0,0,0,0,-0.054370,-0.032642,0.000875,1,0,0,0,0,0,0,0.028915,-0.015902,-0.000233,1,0,0,0,0,0,0
1.050000,0.001790,0.030408,0.000037,1,0,0,0,0,0,0,-0.056166,-0.033701,0.000934,1,0,0,0,0,0,0,0.029825,-0.016433,-0.000249,1,0,0,0,0,0,0
1.060000,0.001779,0.031179,0.000038,1,0,0,0,0,0,0,-0.057938,-0.034751,0.000995,1,0,0,0,0,0,0,0.030845,-0.017021,-0.000266,1,0,0,0,0,0,0
1.070000,0.001776,0.032068,0.000039,1,0,0,0,0,0,0,-0.059674,-0.035785,0.001057,1,0,0,0,0,0,0,0.031975,-0.017666,-0.000286,1,0,0,0,0,0,0
1.080000,0.001782,0.033074,0.000040,1,0,0,0,0,0,0,-0.061380,-0.036803,0.001119,1,0,0,0,0,0,0,0.033214,-0.018366,-0.000309,1,0,0,0,0,0,0
1.090000,0.001796,0.034189,0.000042,1,0,0,0,0,0,0,-0.063078,-0.037816,0.001183,1,0,0,0,0,0,0,0.034540,-0.019110,-0.000334,1,0,0,0,0,0,0
1.100000,0.001819,0.035407,0.000043,1,0,0,0,0,0,0,-0.064789,-0.038838,0.001249,1,0,0,0,0,0,0,0.035914,-0.019875,-0.000361,1,0,0,0,0,0,0
1.110000,0.001851,0.036717,0.000045,1,0,0,0,0,0,0,-0.066539,-0.039879,0.001318,1,0,0,0,0,0,0,0.037280,-0.020633,-0.000388,1,0,0,0,0,0,0
1.120000,0.001892,0.038081,0.000047,1,0,0,0,0,0,0,-0.068339,-0.040947,0.001390,1,0,0,0,0,0,0,0.038585,-0.021355,-0.000415,1,0,0,0,0,0,0
1.130000,0.001937,0.039424,0.000049,1,0,0,0,0,0,0,-0.070178,-0.042034,0.001466,1,0,0,0,0,0,0,0.039834,-0.022042,-0.000442,1,0,0,0,0,0,0
1.140000,0.001984,0.040677,0.000051,1,0,0,0,0,0,0,-0.072028,-0.043124,0.001545,1,0,0,0,0,0,0,0.041083,-0.022718,-0.000469,1,0,0,0,0,0,0
1.150000,0.002032,0.041828,0.000052,1,0,0,0,0,0,0,-0.073860,-0.044201,0.001624,1,0,0,0,0,0,0,0.042336,-0.023384,-0.000497,1,0,0,0,0,0,0
1.160000,0.002085,0.042924,0.000054,1,0,0,0,0,0,0,-0.075630,-0.045237,0.001702,1,0,0,0,0,0,0,0.043588,-0.024037,-0.000525,1,0,0,0,0,0,0
1.170000,0.002148,0.044001,0.000056,1,0,0,0,0,0,0,-0.077278,-0.046200,0.001776,1,0,0,0,0,0,0,0.044841,-0.024674,-0.000553,1,0,0,0,0,0,0
1.180000,0.002221,0.045052,0.000057,1,0,0,0,0,0,0,-0.078752,-0.047058,0.001844,1,0,0,0,0,0,0,0.046100,-0.025297,-0.000581,1,0,0,0,0,0,0
1.190000,0.002304,0.046066,0.000059,1,0,0,0,0,0,0,-0.080005,-0.047786,0.001903,1,0,0,0,0,0,0,0.047368,-0.025905,-0.000610,1,0,0,0,0,0,0
1.200000,0.002397,0.047037,0.000061,1,0,0,0,0,0,0,-0.081004,-0.048363,0.001950,1,0,0,0,0,0,0,0.048634,-0.026493,-0.000638,1,0,0,0,0,0,0
1.210000,0.002501,0.047964,0.000063,1,0,0,0,0,0,0,-0.081727,-0.048777,0.001984,1,0,0,0,0,0,0,0.049877,-0.027051,-0.000666,1,0,0,0,0,0,0
1.220000,0.002616,0.048844,0.000065,1,0,0,0,0,0,0,-0.082166,-0.049024,0.002005,1,0,0,0,0,0,0,0.051082,-0.027571,-0.000693,1,0,0,0,0,0,0
1.230000,0.002742,0.049673,0.000067,1,0,0,0,0,0,0,-0.082323,-0.049105,0.002012,1,0,0,0,0,0,0,0.052210,-0.028039,-0.000717,1,0,0,0,0,0,0
1.240000,0.002878,0.050445,0.000069,1,0,0,0,0,0,0,-0.082211,-0.049029,0.002007,1,0,0,0,0,0,0,0.053176,-0.028420,-0.000738,1,0,0,0,0,0,0
1.250000,0.003022,0.051140,0.000072,1,0,0,0,0,0,0,-0.081852,-0.048809,0.001989,1,0,0,0,0,0,0,0.053967,-0.028708,-0.000755,1,0,0,0,0,0,0
1.260000,0.003168,0.051732,0.000074,1,0,0,0,0,0,0,-0.081269,-0.048458,0.001961,1,0,0,0,0,0,0,0.054610,-0.028913,-0.000767,1,0,0,0,0,0,0
1.270000,0.003318,0.052230,0.000076,1,0,0,0,0,0,0,-0.080491,-0.047992,0.001924,1,0,0,0,0,0,0,0.055107,-0.029039,-0.000775,1,0,0,0,0,0,0
1.280000,0.003473,0.052642,0.000078,1,0,0,0,0,0,0,-0.079559,-0.047433,0.001880,1,0,0,0,0,0,0,0.055452,-0.029082,-0.000779,1,0,0,0,0,0,0
1.290000,0.003631,0.052969,0.000080,1,0,0,0,0,0,0,-0.078507,-0.046802,0.001830,1,0,0,0,0,0,0,0.055636,-0.029041,-0.000778,1,0,0,0,0,0,0
1.300000,0.003794,0.053215,0.000081,1,0,0,0,0,0,0,-0.077357,-0.046111,0.001776,1,0,0,0,0,0,0,0.055656,-0.028915,-0.000773,1,0,0,0,0,0,0
1.310000,0.003958,0.053375,0.000083,1,0,0,0,0,0,0,-0.076120,-0.045366,0.001720,1,0,0,0,0,0,0,0.055508,-0.028705,-0.000763,1,0,0,0,0,0,0
1.320000,0.004122,0.053438,0.000085,1,0,0,0,0,0,0,-0.074805,-0.044574,0.001660,1,0,0,0,0,0,0,0.055190,-0.028410,-0.000749,1,0,0,0,0,0,0
1.330000,0.004281,0.053383,0.000086,1,0,0,0,0,0,0,-0.073417,-0.043737,0.001598,1,0,0,0,0,0,0,0.054700,-0.028034,-0.000730,1,0,0,0,0,0,0
1.340000,0.004429,0.053191,0.000087,1,0,0,0,0,0,0,-0.071948,-0.042853,0.001534,1,0,0,0,0,0,0,0.054046,-0.027581,-0.000708,1,0,0,0,0,0,0
1.350000,0.004565,0.052850,0.000087,1,0,0,0,0,0,0,-0.070386,-0.041916,0.001468,1,0,0,0,0,0,0,0.053237,-0.027056,-0.000682,1,0,0,0,0,0,0
1.360000,0.004684,0.052359,0.000086,1,0,0,0,0,0,0,-0.068722,-0.040922,0.001399,1,0,0,0,0,0,0,0.052286,-0.026469,-0.000653,1,0,0,0,0,0,0
1.370000,0.004786,0.051720,0.000086,1,0,0,0,0,0,0,-0.066961,-0.039874,0.001328,1,0,0,0,0,0,0,0.051211,-0.025829,-0.000622,1,0,0,0,0,0,0
1.380000,0.004868,0.050933,0.000084,1,0,0,0,0,0,0,-0.065131,-0.038788,0.001257,1,0,0,0,0,0,0,0.050029,-0.025147,-0.000590,1,0,0,0,0,0,0
1.390000,0.004930,0.050006,0.000082,1,0,0,0,0,0,0,-0.063243,-0.037671,0.001185,1,0,0,0,0,0,0,0.048759,-0.024433,-0.000557,1,0,0,0,0,0,0
1.400000,0.004971,0.048953,0.000079,1,0,0,0,0,0,0,-0.061308,-0.036530,0.001114,1,0,0,0,0,0,0,0.047426,-0.023701,-0.000524,1,0,0,0,0,0,0
1.410000,0.004991,0.047795,0.000076,1,0,0,0,0,0,0,-0.059337,-0.035372,0.001045,1,0,0,0,0,0,0,0.046054,-0.022966,-0.000492,1,0,0,0,0,0,0
1.420000,0.004990,0.046550,0.000072,1,0,0,0,0,0,0,-0.057343,-0.034202,0.000977,1,0,0,0,0,0,0,0.044657,-0.022234,-0.000461,1,0,0,0,0,0,0
1.430000,0.004966,0.045231,0.000068,1,0,0,0,0,0,0,-0.055340,-0.033029,0.000911,1,0,0,0,0,0,0,0.043247,-0.021512,-0.000431,1,0,0,0,0,0,0
1.440000,0.004921,0.043855,0.000064,1,0,0,0,0,0,0,-0.053341,-0.031860,0.000847,1,0,0,0,0,0,0,0.041841,-0.020808,-0.000403,1,0,0,0,0,0,0
1.450000,0.004853,0.042451,0.000060,1,0,0,0,0,0,0,-0.051353,-0.030699,0.000786,1,0,0,0,0,0,0,0.040453,-0.020131,-0.000377,1,0,0,0,0,0,0
1.460000,0.004761,0.041040,0.000056,1,0,0,0,0,0,0,-0.049379,-0.029548,0.000728,1,0,0,0,0,0,0,0.039089,-0.019482,-0.000353,1,0,0,0,0,0,0
1.470000,0.004647,0.039627,0.000051,1,0,0,0,0,0,0,-0.047418,-0.028407,0.000673,1,0,0,0,0,0,0,0.037748,-0.018859,-0.000331,1,0,0,0,0,0,0
1.480000,0.004510,0.038219,0.000047,1,0,0,0,0,0,0,-0.045465,-0.027273,0.000620,1,0,0,0,0,0,0,0.036437,-0.018265,-0.000310,1,0,0,0,0,0,0
1.490000,0.004352,0.036822,0.000044,1,0,0,0,0,0,0,-0.043506,-0.026138,0.000570,1,0,0,0,0,0,0,0.035174,-0.017707,-0.000292,1,0,0,0,0,0,0
1.500000,0.004174,0.035442,0.000040,1,0,0,0,0,0,0,-0.041536,-0.025000,0.000521,1,0,0,0,0,0,0,0.033976,-0.017193,-0.000275,1,0,0,0,0,0,0
1.510000,0.003977,0.034084,0.000037,1,0,0,0,0,0,0,-0.039552,-0.023859,0.000475,1,0,0,0,0,0,0,0.032842,-0.016720,-0.000261,1,0,0,0,0,0,0
1.520000,0.003764,0.032761,0.000033,1,0,0,0,0,0,0,-0.037550,-0.022709,0.000430,1,0,0,0,0,0,0,0.031750,-0.016274,-0.000247,1,0,0,0,0,0,0
1.530000,0.003538,0.031488,0.000030,1,0,0,0,0,0,0,-0.035524,-0.021551,0.000387,1,0,0,0,0,0,0,0.030677,-0.015842,-0.000234,1,0,0,0,0,0,0
1.540000,0.003305,0.030268,0.000028,1,0,0,0,0,0,0,-0.033471,-0.020380,0.000347,1,0,0,0,0,0,0,0.029613,-0.015415,-0.000222,1,0,0,0,0,0,0
1.550000,0.003068,0.029093,0.000026,1,0,0,0,0,0,0,-0.031392,-0.019198,0.000308,1,0,0,0,0,0,0,0.028537,-0.014982,-0.000210,1,0,0,0,0,0,0
1.560000,0.002832,0.027944,0.000023,1,0,0,0,0,0,0,-0.029304,-0.018013,0.000271,1,0,0,0,0,0,0,0.027415,-0.014524,-0.000197,1,0,0,0,0,0,0
1.570000,0.002599,0.026814,0.000021,1,0,0,0,0,0,0,-0.027224,-0.016835,0.000238,1,0,0,0,0,0,0,0.026218,-0.014024,-0.000184,1,0,0,0,0,0,0
1.580000,0.002371,0.025687,0.000019,1,0,0,0,0,0,0,-0.025168,-0.015675,0.000207,1,0,0,0,0,0,0,0.024945,-0.013482,-0.000170,1,0,0,0,0,0,0
1.590000,0.002150,0.024531,0.000018,1,0,0,0,0,0,0,-0.023152,-0.014540,0.000179,1,0,0,0,0,0,0,0.023607,-0.012902,-0.000156,1,0,0,0,0,0,0
1.600000,0.001934,0.023309,0.000016,1,0,0,0,0,0,0,-0.021191,-0.013438,0.000153,1,0,0,0,0,0,0,0.022216,-0.012289,-0.000142,1,0,0,0,0,0,0
1.610000,0.001723,0.022015,0.000014,1,0,0,0,0,0,0,-0.019295,-0.012377,0.000131,1,0,0,0,0,0,0,0.020783,-0.011650,-0.000128,1,0,0,0,0,0,0
1.620000,0.001517,0.020662,0.000012,1,0,0,0,0,0,0,-0.017473,-0.011359,0.000112,1,0,0,0,0,0,0,0.019317,-0.010987,-0.000114,1,0,0,0,0,0,0
1.630000,0.001319,0.019269,0.000010,1,0,0,0,0,0,0,-0.015732,-0.010390,0.000095,1,0,0,0,0,0,0,0.017832,-0.010307,-0.000101,1,0,0,0,0,0,0
1.640000,0.001129,0.017844,0.000009,1,0,0,0,0,0,0,-0.014081,-0.009476,0.000080,1,0,0,0,0,0,0,0.016340,-0.009616,-0.000089,1,0,0,0,0,0,0
1.650000,0.000949,0.016398,0.000007,1,0,0,0,0,0,0,-0.012532,-0.008622,0.000068,1,0,0,0,0,0,0,0.014856,-0.008921,-0.000077,1,0,0,0,0,0,0
1.660000,0.000781,0.014944,0.000006,1,0,0,0,0,0,0,-0.011092,-0.007834,0.000058,1,0,0,0,0,0,0,0.013389,-0.008228,-0.000067,1,0,0,0,0,0,0
1.670000,0.000626,0.013497,0.000005,1,0,0,0,0,0,0,-0.009765,-0.007113,0.000050,1,0,0,0,0,0,0,0.011947,-0.007541,-0.000057,1,0,0,0,0,0,0
1.680000,0.000486,0.012075,0.000004,1,0,0,0,0,0,0,-0.008547,-0.006457,0.000043,1,0,0,0,0,0,0,0.010537,-0.006863,-0.000049,1,0,0,0,0,0,0
1.690000,0.000361,0.010690,0.000004,1,0,0,0,0,0,0,-0.007439,-0.005866,0.000037,1,0,0,0,0,0,0,0.009155,-0.006195,-0.000042,1,0,0,0,0,0,0
1.700000,0.000251,0.009350,0.000003,1,0,0,0,0,0,0,-0.006443,-0.005339,0.000032,1,0,0,0,0,0,0,0.007791,-0.005531,-0.000035,1,0,0,0,0,0,0
1.710000,0.000154,0.008054,0.000003,1,0,0,0,0,0,0,-0.005562,-0.004879,0.000029,1,0,0,0,0,0,0,0.006445,-0.004874,-0.000030,1,0,0,0,0,0,0
1.720000,0.000069,0.006806,0.000002,1,0,0,0,0,0,0,-0.004804,-0.004488,0.000026,1,0,0,0,0,0,0,0.005124,-0.004225,-0.000025,1,0,0,0,0,0,0
1.730000,-0.000004,0.005607,0.000002,1,0,0,0,0,0,0,-0.004173,-0.004167,0.000023,1,0,0,0,0,0,0,0.003845,-0.003593,-0.000021,1,0,0,0,0,0,0
1.740000,-0.000067,0.004452,0.000002,1,0,0,0,0,0,0,-0.003670,-0.003917,0.000022,1,0,0,0,0,0,0,0.002626,-0.002988,-0.000018,1,0,0,0,0,0,0
1.750000,-0.000121,0.003334,0.000002,1,0,0,0,0,0,0,-0.003283,-0.003729,0.000020,1,0,0,0,0,0,0,0.001482,-0.002418,-0.000016,1,0,0,0,0,0,0
1.760000,-0.000169,0.002247,0.000002,1,0,0,0,0,0,0,-0.003007,-0.003598,0.000019,1,0,0,0,0,0,0,0.000428,-0.001892,-0.000015,1,0,0,0,0,0,0
1.770000,-0.000209,0.001207,0.000002,1,0,0,0,0,0,0,-0.002846,-0.003527,0.000018,1,0,0,0,0,0,0,-0.000517,-0.001422,-0.000014,1,0,0,0,0,0,0
1.780000,-0.000240,0.000234,0.000002,1,0,0,0,0,0,0,-0.002795,-0.003512,0.000017,1,0,0,0,0,0,0,-0.001333,-0.001017,-0.000014,1,0,0,0,0,0,0
1.790000,-0.000264,-0.000662,0.000002,1,0,0,0,0,0,0,-0.002845,-0.003547,0.000016,1,0,0,0,0,0,0,-0.001999,-0.000693,-0.000013,1,0,0,0,0,0,0
1.800000,-0.000280,-0.001467,0.000002,1,0,0,0,0,0,0,-0.002984,-0.003626,0.000016,1,0,0,0,0,0,0,-0.002491,-0.000460,-0.000013,1,0,0,0,0,0,0
1.810000,-0.000291,-0.002162,0.000003,1,0,0,0,0,0,0,-0.003204,-0.003744,0.000016,1,0,0,0,0,0,0,-0.002796,-0.000327,-0.000012,1,0,0,0,0,0,0
1.820000,-0.000296,-0.002724,0.000003,1,0,0,0,0,0,0,-0.003501,-0.003899,0.000015,1,0,0,0,0,0,0,-0.002909,-0.000297,-0.000012,1,0,0,0,0,0,0
1.830000,-0.000295,-0.003128,0.000003,1,0,0,0,0,0,0,-0.003870,-0.004088,0.000016,1,0,0,0,0,0,0,-0.002834,-0.000365,-0.000011,1,0,0,0,0,0,0
1.840000,-0.000289,-0.003351,0.000002,1,0,0,0,0,0,0,-0.004303,-0.004307,0.000016,1,0,0,0,0,0,0,-0.002583,-0.000524,-0.000010,1,0,0,0,0,0,0
1.850000,-0.000277,-0.003379,0.000002,1,0,0,0,0,0,0,-0.004805,-0.004558,0.000017,1,0,0,0,0,0,0,-0.002171,-0.000764,-0.000008,1,0,0,0,0,0,0
1.860000,-0.000258,-0.003206,0.000002,1,0,0,0,0,0,0,-0.005379,-0.004845,0.000018,1,0,0,0,0,0,0,-0.001606,-0.001079,-0.000007,1,0,0,0,0,0,0
1.870000,-0.000234,-0.002830,0.000002,1,0,0,0,0,0,0,-0.006019,-0.005162,0.000019,1,0,0,0,0,0,0,-0.000901,-0.001460,-0.000006,1,0,0,0,0,0,0
1.880000,-0.000203,-0.002258,0.000002,1,0,0,0,0,0,0,-0.006714,-0.005507,0.000021,1,0,0,0,0,0,0,-0.000076,-0.001895,-0.000006,1,0,0,0,0,0,0
1.890000,-0.000166,-0.001504,0.000002,1,0,0,0,0,0,0,-0.007454,-0.005873,0.000024,1,0,0,0,0,0,0,0.000835,-0.002367,-0.000005,1,0,0,0,0,0,0
1.900000,-0.000125,-0.000587,0.000001,1,0,0,0,0,0,0,-0.008225,-0.006254,0.000026,1,0,0,0,0,0,0,0.001805,-0.002862,-0.000006,1,0,0,0,0,0,0
1.910000,-0.000079,0.000468,0.000001,1,0,0,0,0,0,0,-0.009017,-0.006645,0.000030,1,0,0,0,0,0,0,0.002821,-0.003370,-0.000007,1,0,0,0,0,0,0
1.920000,-0.000031,0.001623,0.000001,1,0,0,0,0,0,0,-0.009811,-0.007037,0.000033,1,0,0,0,0,0,0,0.003869,-0.003888,-0.000008,1,0,0,0,0,0,0
1.930000,0.000019,0.002836,0.000001,1,0,0,0,0,0,0,-0.010602,-0.007428,0.000037,1,0,0,0,0,0,0,0.004937,-0.004407,-0.000010,1,0,0,0,0,0,0
1.940000,0.000070,0.004070,0.000001,1,0,0,0,0,0,0,-0.011389,-0.007818,0.000042,1,0,0,0,0,0,0,0.006006,-0.004920,-0.000013,1,0,0,0,0,0,0
1.950000,0.000121,0.005307,0.000001,1,0,0,0,0,0,0,-0.012167,-0.008204,0.000046,1,0,0,0,0,0,0,0.007060,-0.005419,-0.000016,1,0,0,0,0,0,0
1.960000,0.000171,0.006537,0.000001,1,0,0,0,0,0,0,-0.012928,-0.008583,0.000051,1,0,0,0,0,0,0,0.008083,-0.005898,-0.000020,1,0,0,0,0,0,0
1.970000,0.000220,0.007750,0.000001,1,0,0,0,0,0,0,-0.013670,-0.008955,0.000057,1,0,0,0,0,0,0,0.009069,-0.006355,-0.000024,1,0,0,0,0,0,0
1.980000,0.000267,0.008940,0.000002,1,0,0,0,0,0,0,-0.014389,-0.009318,0.000062,1,0,0,0,0,0,0,0.010026,-0.006793,-0.000029,1,0,0,0,0,0,0
1.990000,0.000310,0.010101,0.000002,1,0,0,0,0,0,0,-0.015088,-0.009673,0.000067,1,0,0,0,0,0,0,0.010943,-0.007208,-0.000033,1,0,0,0,0,0,0
2.000000,0.000349,0.011227,0.000002,1,0,0,0,0,0,0,-0.015769,-0.010024,0.000073,1,0,0,0,0,0,0,0.011806,-0.007597,-0.000038,1,0,0,0,0,0,0
2.010000,0.000381,0.012306,0.000003,1,0,0,0,0,0,0,-0.016443,-0.010374,0.000079,1,0,0,0,0,0,0,0.012600,-0.007953,-0.000043,1,0,0,0,0,0,0
2.020000,0.000400,0.013308,0.000003,1,0,0,0,0,0,0,-0.017115,-0.010725,0.000085,1,0,0,0,0,0,0,0.013289,-0.008259,-0.000047,1,0,0,0,0,0,0
2.030000,0.000406,0.014202,0.000003,1,0,0,0,0,0,0,-0.017797,-0.011083,0.000092,1,0,0,0,0,0,0,0.013859,-0.008513,-0.000051,1,0,0,0,0,0,0
2.040000,0.000395,0.014971,0.000004,1,0,0,0,0,0,0,-0.018514,-0.011464,0.000099,1,0,0,0,0,0,0,0.014317,-0.008721,-0.000054,1,0,0,0,0,0,0
2.050000,0.000370,0.015612,0.000004,1,0,0,0,0,0,0,-0.019294,-0.011882,0.000108,1,0,0,0,0,0,0,0.014682,-0.008897,-0.000057,1,0,0,0,0,0,0
2.060000,0.000332,0.016136,0.000004,1,0,0,0,0,0,0,-0.020157,-0.012350,0.000117,1,0,0,0,0,0,0,0.014978,-0.009056,-0.000060,1,0,0,0,0,0,0
2.070000,0.000284,0.016567,0.000004,1,0,0,0,0,0,0,-0.021113,-0.012875,0.000128,1,0,0,0,0,0,0,0.015229,-0.009210,-0.000063,1,0,0,0,0,0,0
2.080000,0.000229,0.016930,0.000004,1,0,0,0,0,0,0,-0.022154,-0.013453,0.000141,1,0,0,0,0,0,0,0.015453,-0.009365,-0.000066,1,0,0,0,0,0,0
2.090000,0.000168,0.017250,0.000004,1,0,0,0,0,0,0,-0.023262,-0.014076,0.000156,1,0,0,0,0,0,0,0.015663,-0.009523,-0.000069,1,0,0,0,0,0,0
2.100000,0.000104,0.017548,0.000004,1,0,0,0,0,0,0,-0.024411,-0.014730,0.000172,1,0,0,0,0,0,0,0.015871,-0.009688,-0.000072,1,0,0,0,0,0,0
2.110000,0.000043,0.017829,0.000004,1,0,0,0,0,0,0,-0.025578,-0.015402,0.000189,1,0,0,0,0,0,0,0.016090,-0.009862,-0.000075,1,0,0,0,0,0,0
2.120000,-0.000013,0.018096,0.000004,1,0,0,0,0,0,0,-0.026742,-0.016081,0.000207,1,0,0,0,0,0,0,0.016337,-0.010050,-0.000078,1,0,0,0,0,0,0
2.130000,-0.000059,0.018357,0.000003,1,0,0,0,0,0,0,-0.027892,-0.016760,0.000226,1,0,0,0,0,0,0,0.016632,-0.010259,-0.000082,1,0,0,0,0,0,0
2.140000,-0.000093,0.018622,0.000003,1,0,0,0,0,0,0,-0.029029,-0.017439,0.000246,1,0,0,0,0,0,0,0.016989,-0.010491,-0.000086,1,0,0,0,0,0,0
2.150000,-0.000111,0.018913,0.000003,1,0,0,0,0,0,0,-0.030171,-0.018126,0.000267,1,0,0,0,0,0,0,0.017412,-0.010745,-0.000091,1,0,0,0,0,0,0
2.160000,-0.000107,0.019257,0.000003,1,0,0,0,0,0,0,-0.031344,-0.018836,0.000289,1,0,0,0,0,0,0,0.017889,-0.011011,-0.000095,1,0,0,0,0,0,0
2.170000,-0.000078,0.019668,0.000002,1,0,0,0,0,0,0,-0.032591,-0.019592,0.000314,1,0,0,0,0,0,0,0.018404,-0.011279,-0.000100,1,0,0,0,0,0,0
2.180000,-0.000020,0.020143,0.000002,1,0,0,0,0,0,0,-0.033964,-0.020423,0.000342,1,0,0,0,0,0,0,0.018951,-0.011544,-0.000106,1,0,0,0,0,0,0
2.190000,0.000066,0.020670,0.000002,1,0,0,0,0,0,0,-0.035532,-0.021371,0.000375,1,0,0,0,0,0,0,0.019541,-0.011810,-0.000111,1,0,0,0,0,0,0
2.200000,0.000182,0.021235,0.000002,1,0,0,0,0,0,0,-0.037387,-0.022488,0.000416,1,0,0,0,0,0,0,0.020218,-0.012096,-0.000117,1,0,0,0,0,0,0
2.210000,0.000329,0.021845,0.000002,1,0,0,0,0,0,0,-0.039636,-0.023839,0.000468,1,0,0,0,0,0,0,0.021053,-0.012435,-0.000124,1,0,0,0,0,0,0
2.220000,0.000513,0.022539,0.000002,1,0,0,0,0,0,0,-0.042387,-0.025490,0.000536,1,0,0,0,0,0,0,0.022137,-0.012875,-0.000134,1,0,0,0,0,0,0
2.230000,0.000741,0.023391,0.000003,1,0,0,0,0,0,0,-0.045721,-0.027491,0.000624,1,0,0,0,0,0,0,0.023544,-0.013464,-0.000148,1,0,0,0,0,0,0
2.240000,0.001012,0.024514,0.000004,1,0,0,0,0,0,0,-0.049675,-0.029867,0.000738,1,0,0,0,0,0,0,0.025302,-0.014236,-0.000167,1,0,0,0,0,0,0
2.250000,0.001320,0.026054,0.000007,1,0,0,0,0,0,0,-0.054250,-0.032621,0.000881,1,0,0,0,0,0,0,0.027400,-0.015214,-0.000194,1,0,0,0,0,0,0
2.260000,0.001642,0.028154,0.000010,1,0,0,0,0,0,0,-0.059425,-0.035733,0.001058,1,0,0,0,0,0,0,0.029861,-0.016443,-0.000230,1,0,0,0,0,0,0
2.270000,0.001942,0.030884,0.000016,1,0,0,0,0,0,0,-0.065161,-0.039165,0.001272,1,0,0,0,0,0,0,0.032743,-0.017993,-0.000279,1,0,0,0,0,0,0
2.280000,0.002174,0.034292,0.000024,1,0,0,0,0,0,0,-0.071398,-0.042867,0.001525,1,0,0,0,0,0,0,0.036090,-0.019913,-0.000346,1,0,0,0,0,0,0
2.290000,0.002286,0.038475,0.000034,1,0,0,0,0,0,0,-0.078064,-0.046781,0.001817,1,0,0,0,0,0,0,0.039985,-0.022233,-0.000435,1,0,0,0,0,0,0
2.300000,0.002254,0.043443,0.000046,1,0,0,0,0,0,0,-0.085070,-0.050847,0.002150,1,0,0,0,0,0,0,0.044610,-0.025003,-0.000552,1,0,0,0,0,0,0
2.310000,0.002117,0.049117,0.000059,1,0,0,0,0,0,0,-0.092319,-0.055009,0.002520,1,0,0,0,0,0,0,0.050092,-0.028222,-0.000705,1,0,0,0,0,0,0
2.320000,0.001960,0.055567,0.000072,1,0,0,0,0,0,0,-0.099709,-0.059214,0.002925,1,0,0,0,0,0,0,0.056349,-0.031782,-0.000894,1,0,0,0,0,0,0
2.330000,0.001885,0.062891,0.000085,1,0,0,0,0,0,0,-0.107131,-0.063409,0.003362,1,0,0,0,0,0,0,0.063197,-0.035554,-0.001119,1,0,0,0,0,0,0
2.340000,0.001983,0.070933,0.000099,1,0,0,0,0,0,0,-0.114459,-0.067538,0.003823,1,0,0,0,0,0,0,0.070453,-0.039452,-0.001379,1,0,0,0,0,0,0
2.350000,0.002276,0.079409,0.000116,1,0,0,0,0,0,0,-0.121541,-0.071529,0.004299,1,0,0,0,0,0,0,0.077911,-0.043415,-0.001674,1,0,0,0,0,0,0
2.360000,0.002700,0.088015,0.000135,1,0,0,0,0,0,0,-0.128218,-0.075306,0.004776,1,0,0,0,0,0,0,0.085392,-0.047410,-0.002001,1,0,0,0,0,0,0
2.370000,0.003128,0.096495,0.000159,1,0,0,0,0,0,0,-0.134408,-0.078822,0.005244,1,0,0,0,0,0,0,0.092879,-0.051466,-0.002364,1,0,0,0,0,0,0
2.380000,0.003445,0.104840,0.000186,1,0,0,0,0,0,0,-0.140170,-0.082099,0.005701,1,0,0,0,0,0,0,0.100516,-0.055661,-0.002772,1,0,0,0,0,0,0
2.390000,0.003608,0.113239,0.000215,1,0,0,0,0,0,0,-0.145658,-0.085214,0.006154,1,0,0,0,0,0,0,0.108364,-0.060000,-0.003228,1,0,0,0,0,0,0
2.400000,0.003635,0.121869,0.000246,1,0,0,0,0,0,0,-0.150959,-0.088222,0.006609,1,0,0,0,0,0,0,0.116230,-0.064345,-0.003719,1,0,0,0,0,0,0
2.410000,0.003601,0.130636,0.000277,1,0,0,0,0,0,0,-0.155972,-0.091081,0.007056,1,0,0,0,0,0,0,0.123786,-0.068515,-0.004223,1,0,0,0,0,0,0
2.420000,0.003566,0.139188,0.000306,1,0,0,0,0,0,0,-0.160495,-0.093690,0.007478,1,0,0,0,0,0,0,0.130670,-0.072355,-0.004716,1,0,0,0,0,0,0
2.430000,0.003520,0.147151,0.000331,1,0,0,0,0,0,0,-0.164386,-0.095965,0.007855,1,0,0,0,0,0,0,0.136621,-0.075788,-0.005179,1,0,0,0,0,0,0
2.440000,0.003400,0.154205,0.000352,1,0,0,0,0,0,0,-0.167634,-0.097887,0.008182,1,0,0,0,0,0,0,0.141654,-0.078860,-0.005610,1,0,0,0,0,0,0
2.450000,0.003160,0.160205,0.000367,1,0,0,0,0,0,0,-0.170325,-0.099490,0.008460,1,0,0,0,0,0,0,0.145993,-0.081685,-0.006020,1,0,0,0,0,0,0
2.460000,0.002811,0.165275,0.000376,1,0,0,0,0,0,0,-0.172584,-0.100834,0.008696,1,0,0,0,0,0,0,0.149890,-0.084353,-0.006417,1,0,0,0,0,0,0
2.470000,0.002412,0.169683,0.000380,1,0,0,0,0,0,0,-0.174566,-0.101999,0.008904,1,0,0,0,0,0,0,0.153488,-0.086869,-0.006798,1,0,0,0,0,0,0
2.480000,0.002029,0.173679,0.000380,1,0,0,0,0,0,0,-0.176457,-0.103088,0.009100,1,0,0,0,0,0,0,0.156790,-0.089171,-0.007154,1,0,0,0,0,0,0
2.490000,0.001700,0.177356,0.000375,1,0,0,0,0,0,0,-0.178411,-0.104194,0.009301,1,0,0,0,0,0,0,0.159742,-0.091190,-0.007469,1,0,0,0,0,0,0
2.500000,0.001442,0.180659,0.000368,1,0,0,0,0,0,0,-0.180465,-0.105352,0.009514,1,0,0,0,0,0,0,0.162309,-0.092892,-0.007737,1,0,0,0,0,0,0
2.510000,0.001267,0.183503,0.000358,1,0,0,0,0,0,0,-0.182553,-0.106528,0.009732,1,0,0,0,0,0,0,0.164483,-0.094274,-0.007956,1,0,0,0,0,0,0
2.520000,0.001194,0.185855,0.000347,1,0,0,0,0,0,0,-0.184591,-0.107666,0.009946,1,0,0,0,0,0,0,0.166294,-0.095360,-0.008127,1,0,0,0,0,0,0
2.530000,0.001236,0.187765,0.000335,1,0,0,0,0,0,0,-0.186524,-0.108713,0.010146,1,0,0,0,0,0,0,0.167839,-0.096217,-0.008262,1,0,0,0,0,0,0
2.540000,0.001376,0.189358,0.000324,1,0,0,0,0,0,0,-0.188276,-0.109610,0.010318,1,0,0,0,0,0,0,0.169287,-0.096946,-0.008376,1,0,0,0,0,0,0
2.550000,0.001574,0.190818,0.000314,1,0,0,0,0,0,0,-0.189720,-0.110279,0.010450,1,0,0,0,0,0,0,0.170785,-0.097650,-0.008489,1,0,0,0,0,0,0
2.560000,0.001781,0.192362,0.000305,1,0,0,0,0,0,0,-0.190733,-0.110651,0.010525,1,0,0,0,0,0,0,0.172358,-0.098380,-0.008608,1,0,0,0,0,0,0
2.570000,0.001950,0.194146,0.000300,1,0,0,0,0,0,0,-0.191244,-0.110698,0.010537,1,0,0,0,0,0,0,0.173959,-0.099152,-0.008736,1,0,0,0,0,0,0
2.580000,0.002040,0.196176,0.000296,1,0,0,0,0,0,0,-0.191229,-0.110425,0.010489,1,0,0,0,0,0,0,0.175557,-0.099965,-0.008875,1,0,0,0,0,0,0
2.590000,0.002031,0.198361,0.000295,1,0,0,0,0,0,0,-0.190648,-0.109844,0.010382,1,0,0,0,0,0,0,0.177175,-0.100812,-0.009022,1,0,0,0,0,0,0
2.600000,0.001933,0.200583,0.000293,1,0,0,0,0,0,0,-0.189438,-0.108948,0.010216,1,0,0,0,0,0,0,0.178832,-0.101658,-0.009171,1,0,0,0,0,0,0
2.610000,0.001800,0.202704,0.000291,1,0,0,0,0,0,0,-0.187562,-0.107729,0.009990,1,0,0,0,0,0,0,0.180461,-0.102429,-0.009308,1,0,0,0,0,0,0
2.620000,0.001706,0.204567,0.000288,1,0,0,0,0,0,0,-0.185052,-0.106205,0.009710,1,0,0,0,0,0,0,0.181891,-0.103039,-0.009418,1,0,0,0,0,0,0
2.630000,0.001702,0.206011,0.000284,1,0,0,0,0,0,0,-0.181983,-0.104412,0.009385,1,0,0,0,0,0,0,0.182907,-0.103421,-0.009487,1,0,0,0,0,0,0
2.640000,0.001788,0.206866,0.000279,1,0,0,0,0,0,0,-0.178429,-0.102386,0.009022,1,0,0,0,0,0,0,0.183305,-0.103542,-0.009510,1,0,0,0,0,0,0
2.650000,0.001902,0.207017,0.000273,1,0,0,0,0,0,0,-0.174460,-0.100163,0.008633,1,0,0,0,0,0,0,0.182935,-0.103386,-0.009481,1,0,0,0,0,0,0
2.660000,0.001954,0.206418,0.000267,1,0,0,0,0,0,0,-0.170163,-0.097786,0.008225,1,0,0,0,0,0,0,0.181755,-0.102956,-0.009402,1,0,0,0,0,0,0
2.670000,0.001866,0.205053,0.000260,1,0,0,0,0,0,0,-0.165607,-0.095287,0.007807,1,0,0,0,0,0,0,0.179833,-0.102272,-0.009276,1,0,0,0,0,0,0
2.680000,0.001596,0.202931,0.000252,1,0,0,0,0,0,0,-0.160795,-0.092667,0.007380,1,0,0,0,0,0,0,0.177316,-0.101354,-0.009107,1,0,0,0,0,0,0
2.690000,0.001157,0.200093,0.000243,1,0,0,0,0,0,0,-0.155671,-0.089895,0.006941,1,0,0,0,0,0,0,0.174328,-0.100190,-0.008895,1,0,0,0,0,0,0
2.700000,0.000622,0.196634,0.000233,1,0,0,0,0,0,0,-0.150173,-0.086943,0.006489,1,0,0,0,0,0,0,0.170852,-0.098704,-0.008628,1,0,0,0,0,0,0
2.710000,0.000112,0.192644,0.000222,1,0,0,0,0,0,0,-0.144321,-0.083821,0.006027,1,0,0,0,0,0,0,0.166744,-0.096804,-0.008293,1,0,0,0,0,0,0
2.720000,-0.000263,0.188132,0.000211,1,0,0,0,0,0,0,-0.138231,-0.080579,0.005567,1,0,0,0,0,0,0,0.161859,-0.094432,-0.007887,1,0,0,0,0,0,0
2.730000,-0.000459,0.182982,0.000200,1,0,0,0,0,0,0,-0.132090,-0.077298,0.005120,1,0,0,0,0,0,0,0.156214,-0.091619,-0.007421,1,0,0,0,0,0,0
2.740000,-0.000501,0.177038,0.000189,1,0,0,0,0,0,0,-0.126093,-0.074057,0.004697,1,0,0,0,0,0,0,0.150038,-0.088478,-0.006919,1,0,0,0,0,0,0
2.750000,-0.000442,0.170272,0.000178,1,0,0,0,0,0,0,-0.120383,-0.070918,0.004306,1,0,0,0,0,0,0,0.143692,-0.085143,-0.006408,1,0,0,0,0,0,0
2.760000,-0.000322,0.162893,0.000167,1,0,0,0,0,0,0,-0.115015,-0.067909,0.003947,1,0,0,0,0,0,0,0.137519,-0.081711,-0.005904,1,0,0,0,0,0,0
2.770000,-0.000129,0.155297,0.000157,1,0,0,0,0,0,0,-0.109964,-0.065027,0.003619,1,0,0,0,0,0,0,0.131703,-0.078197,-0.005410,1,0,0,0,0,0,0
2.780000,0.000198,0.147888,0.000146,1,0,0,0,0,0,0,-0.105172,-0.062251,0.003316,1,0,0,0,0,0,0,0.126228,-0.074555,-0.004920,1,0,0,0,0,0,0
2.790000,0.000722,0.140884,0.000134,1,0,0,0,0,0,0,-0.100606,-0.059567,0.003035,1,0,0,0,0,0,0,0.120964,-0.070732,-0.004430,1,0,0,0,0,0,0
2.800000,0.001466,0.134232,0.000121,1,0,0,0,0,0,0,-0.096250,-0.056960,0.002775,1,0,0,0,0,0,0,0.115792,-0.066714,-0.003940,1,0,0,0,0,0,0
2.810000,0.002409,0.127768,0.000106,1,0,0,0,0,0,0,-0.092092,-0.054417,0.002532,1,0,0,0,0,0,0,0.110712,-0.062547,-0.003458,1,0,0,0,0,0,0
2.820000,0.003514,0.121393,0.000088,1,0,0,0,0,0,0,-0.088114,-0.051923,0.002304,1,0,0,0,0,0,0,0.105806,-0.058321,-0.002995,1,0,0,0,0,0,0
2.830000,0.004741,0.115145,0.000068,1,0,0,0,0,0,0,-0.084286,-0.049459,0.002089,1,0,0,0,0,0,0,0.101183,-0.054143,-0.002563,1,0,0,0,0,0,0
2.840000,0.006033,0.109124,0.000045,1,0,0,0,0,0,0,-0.080571,-0.047015,0.001886,1,0,0,0,0,0,0,0.096955,-0.050117,-0.002170,1,0,0,0,0,0,0
2.850000,0.007333,0.103467,0.000022,1,0,0,0,0,0,0,-0.076962,-0.044597,0.001695,1,0,0,0,0,0,0,0.093200,-0.046326,-0.001820,1,0,0,0,0,0,0
2.860000,0.008604,0.098338,0.000000,1,0,0,0,0,0,0,-0.073495,-0.042241,0.001518,1,0,0,0,0,0,0,0.089939,-0.042825,-0.001516,1,0,0,0,0,0,0
2.870000,0.009810,0.093840,-0.000018,1,0,0,0,0,0,0,-0.070210,-0.039994,0.001357,1,0,0,0,0,0,0,0.087142,-0.039647,-0.001255,1,0,0,0,0,0,0
2.880000,0.010912,0.089984,-0.000031,1,0,0,0,0,0,0,-0.067122,-0.037887,0.001215,1,0,0,0,0,0,0,0.084765,-0.036815,-0.001037,1,0,0,0,0,0,0
2.890000,0.011865,0.086747,-0.000038,1,0,0,0,0,0,0,-0.064230,-0.035939,0.001089,1,0,0,0,0,0,0,0.082751,-0.034343,-0.000859,1,0,0,0,0,0,0
2.900000,0.012627,0.084062,-0.000039,1,0,0,0,0,0,0,-0.061536,-0.034165,0.000981,1,0,0,0,0,0,0,0.081033,-0.032230,-0.000717,1,0,0,0,0,0,0
2.910000,0.013169,0.081837,-0.000034,1,0,0,0,0,0,0,-0.059056,-0.032579,0.000889,1,0,0,0,0,0,0,0.079550,-0.030460,-0.000609,1,0,0,0,0,0,0
2.920000,0.013489,0.079975,-0.000025,1,0,0,0,0,0,0,-0.056824,-0.031195,0.000813,1,0,0,0,0,0,0,0.078244,-0.029011,-0.000530,1,0,0,0,0,0,0
2.930000,0.013610,0.078376,-0.000013,1,0,0,0,0,0,0,-0.054884,-0.030030,0.000752,1,0,0,0,0,0,0,0.077035,-0.027834,-0.000474,1,0,0,0,0,0,0
2.940000,0.013560,0.076997,0.000001,1,0,0,0,0,0,0,-0.053268,-0.029097,0.000705,1,0,0,0,0,0,0,0.075868,-0.026896,-0.000438,1,0,0,0,0,0,0
2.950000,0.013369,0.075779,0.000017,1,0,0,0,0,0,0,-0.051991,-0.028399,0.000673,1,0,0,0,0,0,0,0.074738,-0.026211,-0.000421,1,0,0,0,0,0,0
2.960000,0.013064,0.074658,0.000032,1,0,0,0,0,0,0,-0.051043,-0.027929,0.000653,1,0,0,0,0,0,0,0.073610,-0.025779,-0.000423,1,0,0,0,0,0,0
2.970000,0.012653,0.073578,0.000047,1,0,0,0,0,0,0,-0.050402,-0.027675,0.000643,1,0,0,0,0,0,0,0.072418,-0.025576,-0.000441,1,0,0,0,0,0,0
2.980000,0.012129,0.072512,0.000060,1,0,0,0,0,0,0,-0.050044,-0.027621,0.000644,1,0,0,0,0,0,0,0.071103,-0.025572,-0.000471,1,0,0,0,0,0,0
2.990000,0.011474,0.071458,0.000071,1,0,0,0,0,0,0,-0.049926,-0.027741,0.000653,1,0,0,0,0,0,0,0.069637,-0.025742,-0.000510,1,0,0,0,0,0,0
3.000000,0.010678,0.070421,0.000081,1,0,0,0,0,0,0,-0.050005,-0.028011,0.000669,1,0,0,0,0,0,0,0.068035,-0.026062,-0.000557,1,0,0,0,0,0,0
3.010000,0.009736,0.069414,0.000090,1,0,0,0,0,0,0,-0.050240,-0.028407,0.000691,1,0,0,0,0,0,0,0.066361,-0.026503,-0.000608,1,0,0,0,0,0,0
3.020000,0.008659,0.068453,0.000097,1,0,0,0,0,0,0,-0.050582,-0.028896,0.000717,1,0,0,0,0,0,0,0.064707,-0.027039,-0.000662,1,0,0,0,0,0,0
3.030000,0.007483,0.067549,0.000103,1,0,0,0,0,0,0,-0.051024,-0.029463,0.000747,1,0,0,0,0,0,0,0.063158,-0.027631,-0.000714,1,0,0,0,0,0,0
3.040000,0.006273,0.066711,0.000108,1,0,0,0,0,0,0,-0.051610,-0.030123,0.000782,1,0,0,0,0,0,0,0.061758,-0.028231,-0.000763,1,0,0,0,0,0,0
3.050000,0.005110,0.065964,0.000111,1,0,0,0,0,0,0,-0.052424,-0.030906,0.000823,1,0,0,0,0,0,0,0.060507,-0.028781,-0.000805,1,0,0,0,0,0,0
3.060000,0.004083,0.065334,0.000113,1,0,0,0,0,0,0,-0.053551,-0.031850,0.000872,1,0,0,0,0,0,0,0.059377,-0.029236,-0.000838,1,0,0,0,0,0,0
3.070000,0.003279,0.064809,0.000114,1,0,0,0,0,0,0,-0.055043,-0.032971,0.000932,1,0,0,0,0,0,0,0.058369,-0.029577,-0.000861,1,0,0,0,0,0,0
3.080000,0.002760,0.064356,0.000113,1,0,0,0,0,0,0,-0.056894,-0.034254,0.001003,1,0,0,0,0,0,0,0.057537,-0.029821,-0.000877,1,0,0,0,0,0,0
3.090000,0.002546,0.063954,0.000112,1,0,0,0,0,0,0,-0.059059,-0.035665,0.001083,1,0,0,0,0,0,0,0.056975,-0.030007,-0.000887,1,0,0,0,0,0,0
3.100000,0.002609,0.063630,0.000109,1,0,0,0,0,0,0,-0.061474,-0.037158,0.001171,1,0,0,0,0,0,0,0.056833,-0.030186,-0.000896,1,0,0,0,0,0,0
3.110000,0.002894,0.063489,0.000108,1,0,0,0,0,0,0,-0.064066,-0.038689,0.001266,1,0,0,0,0,0,0,0.057304,-0.030404,-0.000907,1,0,0,0,0,0,0
3.120000,0.003362,0.063707,0.000107,1,0,0,0,0,0,0,-0.066759,-0.040219,0.001364,1,0,0,0,0,0,0,0.058536,-0.030687,-0.000921,1,0,0,0,0,0,0
3.130000,0.003993,0.064479,0.000110,1,0,0,0,0,0,0,-0.069483,-0.041713,0.001465,1,0,0,0,0,0,0,0.060512,-0.031019,-0.000939,1,0,0,0,0,0,0
3.140000,0.004794,0.065940,0.000117,1,0,0,0,0,0,0,-0.072201,-0.043157,0.001566,1,0,0,0,0,0,0,0.063106,-0.031364,-0.000960,1,0,0,0,0,0,0
3.150000,0.005777,0.068108,0.000130,1,0,0,0,0,0,0,-0.074919,-0.044562,0.001669,1,0,0,0,0,0,0,0.066209,-0.031707,-0.000983,1,0,0,0,0,0,0
3.160000,0.006946,0.070895,0.000151,1,0,0,0,0,0,0,-0.077668,-0.045952,0.001775,1,0,0,0,0,0,0,0.069706,-0.032065,-0.001011,1,0,0,0,0,0,0
3.170000,0.008283,0.074200,0.000181,1,0,0,0,0,0,0,-0.080471,-0.047355,0.001887,1,0,0,0,0,0,0,0.073428,-0.032491,-0.001046,1,0,0,0,0,0,0
3.180000,0.009740,0.077956,0.000222,1,0,0,0,0,0,0,-0.083320,-0.048787,0.002005,1,0,0,0,0,0,0,0.077271,-0.033068,-0.001098,1,0,0,0,0,0,0
3.190000,0.011210,0.082053,0.000273,1,0,0,0,0,0,0,-0.086188,-0.050253,0.002131,1,0,0,0,0,0,0,0.081306,-0.033911,-0.001174,1,0,0,0,0,0,0
3.200000,0.012549,0.086330,0.000334,1,0,0,0,0,0,0,-0.089046,-0.051754,0.002265,1,0,0,0,0,0,0,0.085679,-0.035133,-0.001288,1,0,0,0,0,0,0
3.210000,0.013646,0.090733,0.000404,1,0,0,0,0,0,0,-0.091896,-0.053302,0.002408,1,0,0,0,0,0,0,0.090414,-0.036760,-0.001444,1,0,0,0,0,0,0
3.220000,0.014446,0.095371,0.000481,1,0,0,0,0,0,0,-0.094777,-0.054922,0.002562,1,0,0,0,0,0,0,0.095369,-0.038716,-0.001639,1,0,0,0,0,0,0
3.230000,0.014939,0.100422,0.000568,1,0,0,0,0,0,0,-0.097730,-0.056641,0.002730,1,0,0,0,0,0,0,0.100375,-0.040927,-0.001869,1,0,0,0,0,0,0
3.240000,0.015161,0.105906,0.000663,1,0,0,0,0,0,0,-0.100752,-0.058457,0.002914,1,0,0,0,0,0,0,0.105282,-0.043350,-0.002130,1,0,0,0,0,0,0
3.250000,0.015168,0.111610,0.000759,1,0,0,0,0,0,0,-0.103787,-0.060334,0.003109,1,0,0,0,0,0,0,0.109949,-0.045942,-0.002420,1,0,0,0,0,0,0
3.260000,0.014984,0.117300,0.000852,1,0,0,0,0,0,0,-0.106764,-0.062217,0.003310,1,0,0,0,0,0,0,0.114293,-0.048661,-0.002734,1,0,0,0,0,0,0
3.270000,0.014612,0.122759,0.000937,1,0,0,0,0,0,0,-0.109633,-0.064059,0.003511,1,0,0,0,0,0,0,0.118308,-0.051477,-0.003068,1,0,0,0,0,0,0
3.280000,0.014075,0.127787,0.001010,1,0,0,0,0,0,0,-0.112373,-0.065830,0.003709,1,0,0,0,0,0,0,0.122011,-0.054348,-0.003415,1,0,0,0,0,0,0
3.290000,0.013415,0.132328,0.001068,1,0,0,0,0,0,0,-0.114958,-0.067513,0.003902,1,0,0,0,0,0,0,0.125383,-0.057197,-0.003766,1,0,0,0,0,0,0
3.300000,0.012682,0.136447,0.001114,1,0,0,0,0,0,0,-0.117321,-0.069072,0.004083,1,0,0,0,0,0,0,0.128361,-0.059929,-0.004107,1,0,0,0,0,0,0
3.310000,0.011938,0.140205,0.001148,1,0,0,0,0,0,0,-0.119363,-0.070456,0.004247,1,0,0,0,0,0,0,0.130877,-0.062467,-0.004425,1,0,0,0,0,0,0
3.320000,0.011229,0.143585,0.001171,1,0,0,0,0,0,0,-0.121006,-0.071619,0.004386,1,0,0,0,0,0,0,0.132890,-0.064757,-0.004712,1,0,0,0,0,0,0
3.330000,0.010562,0.146525,0.001184,1,0,0,0,0,0,0,-0.122239,-0.072540,0.004496,1,0,0,0,0,0,0,0.134432,-0.066778,-0.004962,1,0,0,0,0,0,0
3.340000,0.009921,0.148990,0.001186,1,0,0,0,0,0,0,-0.123125,-0.073234,0.004579,1,0,0,0,0,0,0,0.135612,-0.068523,-0.005174,1,0,0,0,0,0,0
3.350000,0.009292,0.150992,0.001180,1,0,0,0,0,0,0,-0.123762,-0.073740,0.004638,1,0,0,0,0,0,0,0.136568,-0.069984,-0.005345,1,0,0,0,0,0,0
3.360000,0.008697,0.152591,0.001167,1,0,0,0,0,0,0,-0.124248,-0.074097,0.004679,1,0,0,0,0,0,0,0.137398,-0.071128,-0.005471,1,0,0,0,0,0,0
3.370000,0.008210,0.153875,0.001149,1,0,0,0,0,0,0,-0.124660,-0.074342,0.004706,1,0,0,0,0,0,0,0.138139,-0.071905,-0.005545,1,0,0,0,0,0,0
3.380000,0.007937,0.154899,0.001127,1,0,0,0,0,0,0,-0.125040,-0.074493,0.004721,1,0,0,0,0,0,0,0.138791,-0.072280,-0.005564,1,0,0,0,0,0,0
3.390000,0.007971,0.155661,0.001103,1,0,0,0,0,0,0,-0.125391,-0.074547,0.004724,1,0,0,0,0,0,0,0.139356,-0.072256,-0.005527,1,0,0,0,0,0,0
3.400000,0.008362,0.156132,0.001077,1,0,0,0,0,0,0,-0.125679,-0.074484,0.004713,1,0,0,0,0,0,0,0.139879,-0.071887,-0.005445,1,0,0,0,0,0,0
3.410000,0.009092,0.156296,0.001052,1,0,0,0,0,0,0,-0.125849,-0.074277,0.004685,1,0,0,0,0,0,0,0.140432,-0.071256,-0.005330,1,0,0,0,0,0,0
3.420000,0.010080,0.156192,0.001028,1,0,0,0,0,0,0,-0.125850,-0.073902,0.004637,1,0,0,0,0,0,0,0.141066,-0.070444,-0.005193,1,0,0,0,0,0,0
3.430000,0.011233,0.155940,0.001008,1,0,0,0,0,0,0,-0.125661,-0.073361,0.004569,1,0,0,0,0,0,0,0.141818,-0.069511,-0.005044,1,0,0,0,0,0,0
3.440000,0.012458,0.155700,0.000994,1,0,0,0,0,0,0,-0.125311,-0.072687,0.004486,1,0,0,0,0,0,0,0.142707,-0.068511,-0.004891,1,0,0,0,0,0,0
3.450000,0.013670,0.155586,0.000988,1,0,0,0,0,0,0,-0.124878,-0.071942,0.004396,1,0,0,0,0,0,0,0.143737,-0.067498,-0.004741,1,0,0,0,0,0,0
3.460000,0.014790,0.155631,0.000990,1,0,0,0,0,0,0,-0.124464,-0.071206,0.004308,1,0,0,0,0,0,0,0.144869,-0.066517,-0.004602,1,0,0,0,0,0,0
3.470000,0.015767,0.155826,0.001000,1,0,0,0,0,0,0,-0.124156,-0.070555,0.004234,1,0,0,0,0,0,0,0.145995,-0.065598,-0.004477,1,0,0,0,0,0,0
3.480000,0.016576,0.156140,0.001016,1,0,0,0,0,0,0,-0.123988,-0.070042,0.004178,1,0,0,0,0,0,0,0.146961,-0.064774,-0.004372,1,0,0,0,0,0,0
3.490000,0.017214,0.156527,0.001038,1,0,0,0,0,0,0,-0.123939,-0.069685,0.004143,1,0,0,0,0,0,0,0.147595,-0.064087,-0.004291,1,0,0,0,0,0,0
3.500000,0.017679,0.156915,0.001062,1,0,0,0,0,0,0,-0.123960,-0.069475,0.004128,1,0,0,0,0,0,0,0.147783,-0.063588,-0.004241,1,0,0,0,0,0,0
3.510000,0.017937,0.157206,0.001086,1,0,0,0,0,0,0,-0.124002,-0.069385,0.004127,1,0,0,0,0,0,0,0.147570,-0.063362,-0.004234,1,0,0,0,0,0,0
3.520000,0.017918,0.157264,0.001107,1,0,0,0,0,0,0,-0.124046,-0.069388,0.004139,1,0,0,0,0,0,0,0.147102,-0.063474,-0.004278,1,0,0,0,0,0,0
3.530000,0.017537,0.157021,0.001121,1,0,0,0,0,0,0,-0.124098,-0.069468,0.004159,1,0,0,0,0,0,0,0.146509,-0.063935,-0.004371,1,0,0,0,0,0,0
3.540000,0.016744,0.156547,0.001129,1,0,0,0,0,0,0,-0.124150,-0.069606,0.004186,1,0,0,0,0,0,0,0.145833,-0.064686,-0.004503,1,0,0,0,0,0,0
3.550000,0.015562,0.155977,0.001133,1,0,0,0,0,0,0,-0.124157,-0.069767,0.004215,1,0,0,0,0,0,0,0.144995,-0.065609,-0.004655,1,0,0,0,0,0,0
3.560000,0.014075,0.155432,0.001132,1,0,0,0,0,0,0,-0.124034,-0.069903,0.004240,1,0,0,0,0,0,0,0.143868,-0.066577,-0.004806,1,0,0,0,0,0,0
3.570000,0.012412,0.154905,0.001126,1,0,0,0,0,0,0,-0.123695,-0.069963,0.004255,1,0,0,0,0,0,0,0.142332,-0.067491,-0.004941,1,0,0,0,0,0,0
3.580000,0.010708,0.154256,0.001112,1,0,0,0,0,0,0,-0.123075,-0.069907,0.004253,1,0,0,0,0,0,0,0.140338,-0.068295,-0.005052,1,0,0,0,0,0,0
3.590000,0.009067,0.153290,0.001089,1,0,0,0,0,0,0,-0.122126,-0.069697,0.004231,1,0,0,0,0,0,0,0.137900,-0.068953,-0.005133,1,0,0,0,0,0,0
3.600000,0.007549,0.151844,0.001057,1,0,0,0,0,0,0,-0.120814,-0.069299,0.004185,1,0,0,0,0,0,0,0.135106,-0.069448,-0.005183,1,0,0,0,0,0,0
3.610000,0.006172,0.149863,0.001018,1,0,0,0,0,0,0,-0.119125,-0.068686,0.004112,1,0,0,0,0,0,0,0.132091,-0.069764,-0.005200,1,0,0,0,0,0,0
3.620000,0.004933,0.147384,0.000973,1,0,0,0,0,0,0,-0.117088,-0.067858,0.004014,1,0,0,0,0,0,0,0.128989,-0.069874,-0.005183,1,0,0,0,0,0,0
3.630000,0.003837,0.144512,0.000926,1,0,0,0,0,0,0,-0.114779,-0.066843,0.003894,1,0,0,0,0,0,0,0.125878,-0.069727,-0.005127,1,0,0,0,0,0,0
3.640000,0.002903,0.141373,0.000878,1,0,0,0,0,0,0,-0.112289,-0.065684,0.003759,1,0,0,0,0,0,0,0.122760,-0.069263,-0.005027,1,0,0,0,0,0,0
3.650000,0.002176,0.138120,0.000830,1,0,0,0,0,0,0,-0.109707,-0.064422,0.003614,1,0,0,0,0,0,0,0.119598,-0.068440,-0.004882,1,0,0,0,0,0,0
3.660000,0.001695,0.134867,0.000783,1,0,0,0,0,0,0,-0.107120,-0.063095,0.003465,1,0,0,0,0,0,0,0.116410,-0.067254,-0.004695,1,0,0,0,0,0,0
3.670000,0.001475,0.131639,0.000738,1,0,0,0,0,0,0,-0.104623,-0.061742,0.003316,1,0,0,0,0,0,0,0.113283,-0.065752,-0.004475,1,0,0,0,0,0,0
3.680000,0.001515,0.128393,0.000694,1,0,0,0,0,0,0,-0.102302,-0.060400,0.003172,1,0,0,0,0,0,0,0.110371,-0.063996,-0.004232,1,0,0,0,0,0,0
3.690000,0.001808,0.125073,0.000652,1,0,0,0,0,0,0,-0.100194,-0.059095,0.003034,1,0,0,0,0,0,0,0.107821,-0.062036,-0.003974,1,0,0,0,0,0,0
3.700000,0.002345,0.121671,0.000611,1,0,0,0,0,0,0,-0.098252,-0.057815,0.002902,1,0,0,0,0,0,0,0.105672,-0.059893,-0.003705,1,0,0,0,0,0,0
3.710000,0.003134,0.118269,0.000571,1,0,0,0,0,0,0,-0.096394,-0.056531,0.002773,1,0,0,0,0,0,0,0.103882,-0.057577,-0.003426,1,0,0,0,0,0,0
3.720000,0.004182,0.115003,0.000534,1,0,0,0,0,0,0,-0.094591,-0.055239,0.002645,1,0,0,0,0,0,0,0.102368,-0.055119,-0.003142,1,0,0,0,0,0,0
3.730000,0.005476,0.111981,0.000499,1,0,0,0,0,0,0,-0.092905,-0.053979,0.002525,1,0,0,0,0,0,0,0.101072,-0.052598,-0.002862,1,0,0,0,0,0,0
3.740000,0.006959,0.109241,0.000468,1,0,0,0,0,0,0,-0.091469,-0.052837,0.002417,1,0,0,0,0,0,0,0.099983,-0.050126,-0.002596,1,0,0,0,0,0,0
3.750000,0.008524,0.106756,0.000440,1,0,0,0,0,0,0,-0.090410,-0.051906,0.002332,1,0,0,0,0,0,0,0.099116,-0.047813,-0.002356,1,0,0,0,0,0,0
3.760000,0.010031,0.104492,0.000417,1,0,0,0,0,0,0,-0.089775,-0.051241,0.002272,1,0,0,0,0,0,0,0.098485,-0.045739,-0.002148,1,0,0,0,0,0,0
3.770000,0.011348,0.102476,0.000399,1,0,0,0,0,0,0,-0.089555,-0.050868,0.002240,1,0,0,0,0,0,0,0.098084,-0.043946,-0.001974,1,0,0,0,0,0,0
3.780000,0.012380,0.100810,0.000387,1,0,0,0,0,0,0,-0.089708,-0.050785,0.002234,1,0,0,0,0,0,0,0.097891,-0.042464,-0.001836,1,0,0,0,0,0,0
3.790000,0.013087,0.099601,0.000384,1,0,0,0,0,0,0,-0.090199,-0.050983,0.002255,1,0,0,0,0,0,0,0.097818,-0.041300,-0.001734,1,0,0,0,0,0,0
3.800000,0.013485,0.098881,0.000389,1,0,0,0,0,0,0,-0.090970,-0.051433,0.002298,1,0,0,0,0,0,0,0.097747,-0.040459,-0.001667,1,0,0,0,0,0,0
3.810000,0.013618,0.098578,0.000400,1,0,0,0,0,0,0,-0.091922,-0.052075,0.002360,1,0,0,0,0,0,0,0.097568,-0.039949,-0.001635,1,0,0,0,0,0,0
3.820000,0.013530,0.098557,0.000416,1,0,0,0,0,0,0,-0.092937,-0.052826,0.002432,1,0,0,0,0,0,0,0.097219,-0.039788,-0.001637,1,0,0,0,0,0,0
3.830000,0.013232,0.098696,0.000434,1,0,0,0,0,0,0,-0.093925,-0.053610,0.002507,1,0,0,0,0,0,0,0.096713,-0.039996,-0.001676,1,0,0,0,0,0,0
3.840000,0.012714,0.098882,0.000450,1,0,0,0,0,0,0,-0.094853,-0.054380,0.002581,1,0,0,0,0,0,0,0.096115,-0.040584,-0.001749,1,0,0,0,0,0,0
3.850000,0.011952,0.099062,0.000464,1,0,0,0,0,0,0,-0.095730,-0.055122,0.002653,1,0,0,0,0,0,0,0.095506,-0.041522,-0.001853,1,0,0,0,0,0,0
3.860000,0.010926,0.099268,0.000475,1,0,0,0,0,0,0,-0.096537,-0.055818,0.002720,1,0,0,0,0,0,0,0.094951,-0.042754,-0.001980,1,0,0,0,0,0,0
3.870000,0.009650,0.099553,0.000484,1,0,0,0,0,0,0,-0.097199,-0.056431,0.002778,1,0,0,0,0,0,0,0.094482,-0.044197,-0.002123,1,0,0,0,0,0,0
3.880000,0.008171,0.099951,0.000489,1,0,0,0,0,0,0,-0.097620,-0.056918,0.002824,1,0,0,0,0,0,0,0.094074,-0.045744,-0.002270,1,0,0,0,0,0,0
3.890000,0.006554,0.100488,0.000491,1,0,0,0,0,0,0,-0.097742,-0.057252,0.002855,1,0,0,0,0,0,0,0.093667,-0.047293,-0.002411,1,0,0,0,0,0,0
3.900000,0.004889,0.101125,0.000487,1,0,0,0,0,0,0,-0.097566,-0.057428,0.002869,1,0,0,0,0,0,0,0.093172,-0.048751,-0.002539,1,0,0,0,0,0,0
3.910000,0.003283,0.101767,0.000478,1,0,0,0,0,0,0,-0.097153,-0.057468,0.002869,1,0,0,0,0,0,0,0.092507,-0.050053,-0.002647,1,0,0,0,0,0,0
3.920000,0.001831,0.102313,0.000463,1,0,0,0,0,0,0,-0.096591,-0.057402,0.002859,1,0,0,0,0,0,0,0.091628,-0.051161,-0.002732,1,0,0,0,0,0,0
3.930000,0.000609,0.102683,0.000444,1,0,0,0,0,0,0,-0.095972,-0.057263,0.002841,1,0,0,0,0,0,0,0.090568,-0.052073,-0.002794,1,0,0,0,0,0,0
3.940000,-0.000343,0.102812,0.000421,1,0,0,0,0,0,0,-0.095384,-0.057085,0.002819,1,0,0,0,0,0,0,0.089449,-0.052812,-0.002837,1,0,0,0,0,0,0
3.950000,-0.001040,0.102636,0.000396,1,0,0,0,0,0,0,-0.094910,-0.056904,0.002796,1,0,0,0,0,0,0,0.088445,-0.053404,-0.002863,1,0,0,0,0,0,0
3.960000,-0.001534,0.102153,0.000370,1,0,0,0,0,0,0,-0.094609,-0.056750,0.002776,1,0,0,0,0,0,0,0.087697,-0.053846,-0.002873,1,0,0,0,0,0,0
3.970000,-0.001884,0.101453,0.000345,1,0,0,0,0,0,0,-0.094521,-0.056649,0.002761,1,0,0,0,0,0,0,0.087223,-0.054095,-0.002865,1,0,0,0,0,0,0
3.980000,-0.002117,0.100715,0.000320,1,0,0,0,0,0,0,-0.094671,-0.056626,0.002753,1,0,0,0,0,0,0,0.086969,-0.054100,-0.002835,1,0,0,0,0,0,0
3.990000,-0.002217,0.100142,0.000295,1,0,0,0,0,0,0,-0.095055,-0.056691,0.002755,1,0,0,0,0,0,0,0.086864,-0.053845,-0.002784,1,0,0,0,0,0,0
4.000000,-0.002138,0.099823,0.000271,1,0,0,0,0,0,0,-0.095648,-0.056846,0.002766,1,0,0,0,0,0,0,0.086876,-0.053363,-0.002714,1,0,0,0,0,0,0
4.010000,-0.001834,0.099791,0.000247,1,0,0,0,0,0,0,-0.096519,-0.057137,0.002791,1,0,0,0,0,0,0,0.087101,-0.052778,-0.002638,1,0,0,0,0,0,0
4.020000,-0.001306,0.100128,0.000225,1,0,0,0,0,0,0,-0.097865,-0.057692,0.002843,1,0,0,0,0,0,0,0.087810,-0.052302,-0.002575,1,0,0,0,0,0,0
4.030000,-0.000596,0.100731,0.000206,1,0,0,0,0,0,0,-0.099725,-0.058542,0.002926,1,0,0,0,0,0,0,0.089082,-0.052018,-0.002531,1,0,0,0,0,0,0
4.040000,0.000237,0.101528,0.000190,1,0,0,0,0,0,0,-0.102093,-0.059695,0.003042,1,0,0,0,0,0,0,0.090884,-0.051932,-0.002509,1,0,0,0,0,0,0
4.050000,0.001131,0.102535,0.000178,1,0,0,0,0,0,0,-0.104960,-0.061158,0.003194,1,0,0,0,0,0,0,0.093112,-0.052023,-0.002506,1,0,0,0,0,0,0
4.060000,0.002045,0.103820,0.000171,1,0,0,0,0,0,0,-0.108303,-0.062928,0.003385,1,0,0,0,0,0,0,0.095632,-0.052271,-0.002523,1,0,0,0,0,0,0
4.070000,0.002952,0.105459,0.000170,1,0,0,0,0,0,0,-0.112059,-0.064986,0.003614,1,0,0,0,0,0,0,0.098317,-0.052673,-0.002559,1,0,0,0,0,0,0
4.080000,0.003828,0.107473,0.000174,1,0,0,0,0,0,0,-0.116124,-0.067283,0.003879,1,0,0,0,0,0,0,0.101082,-0.053249,-0.002616,1,0,0,0,0,0,0
4.090000,0.004638,0.109819,0.000184,1,0,0,0,0,0,0,-0.120351,-0.069743,0.004174,1,0,0,0,0,0,0,0.103878,-0.054027,-0.002700,1,0,0,0,0,0,0
4.100000,0.005332,0.112439,0.000200,1,0,0,0,0,0,0,-0.124571,-0.072268,0.004487,1,0,0,0,0,0,0,0.106682,-0.055029,-0.002811,1,0,0,0,0,0,0
4.110000,0.005856,0.115271,0.000221,1,0,0,0,0,0,0,-0.128626,-0.074758,0.004806,1,0,0,0,0,0,0,0.109508,-0.056276,-0.002953,1,0,0,0,0,0,0
4.120000,0.006165,0.118242,0.000245,1,0,0,0,0,0,0,-0.132386,-0.077123,0.005117,1,0,0,0,0,0,0,0.112346,-0.057756,-0.003126,1,0,0,0,0,0,0
4.130000,0.006246,0.121281,0.000271,1,0,0,0,0,0,0,-0.135757,-0.079291,0.005411,1,0,0,0,0,0,0,0.115142,-0.059418,-0.003323,1,0,0,0,0,0,0
4.140000,0.006117,0.124329,0.000297,1,0,0,0,0,0,0,-0.138685,-0.081216,0.005676,1,0,0,0,0,0,0,0.117783,-0.061168,-0.003534,1,0,0,0,0,0,0
4.150000,0.005831,0.127301,0.000320,1,0,0,0,0,0,0,-0.141142,-0.082869,0.005908,1,0,0,0,0,0,0,0.120162,-0.062923,-0.003750,1,0,0,0,0,0,0
4.160000,0.005445,0.130135,0.000340,1,0,0,0,0,0,0,-0.143112,-0.084238,0.006102,1,0,0,0,0,0,0,0.122219,-0.064644,-0.003963,1,0,0,0,0,0,0
4.170000,0.005005,0.132772,0.000356,1,0,0,0,0,0,0,-0.144574,-0.085309,0.006255,1,0,0,0,0,0,0,0.123913,-0.066293,-0.004168,1,0,0,0,0,0,0
4.180000,0.004545,0.135139,0.000367,1,0,0,0,0,0,0,-0.145504,-0.086069,0.006362,1,0,0,0,0,0,0,0.125239,-0.067852,-0.004362,1,0,0,0,0,0,0
4.190000,0.004072,0.137218,0.000374,1,0,0,0,0,0,0,-0.145887,-0.086507,0.006422,1,0,0,0,0,0,0,0.126229,-0.069329,-0.004544,1,0,0,0,0,0,0
4.200000,0.003583,0.138982,0.000376,1,0,0,0,0,0,0,-0.145728,-0.086625,0.006434,1,0,0,0,0,0,0,0.126920,-0.070732,-0.004715,1,0,0,0,0,0,0
4.210000,0.003072,0.140388,0.000374,1,0,0,0,0,0,0,-0.145056,-0.086435,0.006400,1,0,0,0,0,0,0,0.127347,-0.072044,-0.004871,1,0,0,0,0,0,0
4.220000,0.002531,0.141393,0.000369,1,0,0,0,0,0,0,-0.143908,-0.085959,0.006323,1,0,0,0,0,0,0,0.127536,-0.073241,-0.005010,1,0,0,0,0,0,0
4.230000,0.001951,0.141984,0.000360,1,0,0,0,0,0,0,-0.142330,-0.085218,0.006209,1,0,0,0,0,0,0,0.127501,-0.074289,-0.005127,1,0,0,0,0,0,0
4.240000,0.001329,0.142179,0.000348,1,0,0,0,0,0,0,-0.140373,-0.084240,0.006062,1,0,0,0,0,0,0,0.127236,-0.075144,-0.005215,1,0,0,0,0,0,0
4.250000,0.000668,0.142002,0.000333,1,0,0,0,0,0,0,-0.138092,-0.083052,0.005887,1,0,0,0,0,0,0,0.126721,-0.075769,-0.005271,1,0,0,0,0,0,0
4.260000,-0.000014,0.141475,0.000317,1,0,0,0,0,0,0,-0.135548,-0.081683,0.005689,1,0,0,0,0,0,0,0.125909,-0.076122,-0.005290,1,0,0,0,0,0,0
4.270000,-0.000691,0.140604,0.000299,1,0,0,0,0,0,0,-0.132800,-0.080164,0.005475,1,0,0,0,0,0,0,0.124748,-0.076179,-0.005269,1,0,0,0,0,0,0
4.280000,-0.001336,0.139409,0.000280,1,0,0,0,0,0,0,-0.129914,-0.078524,0.005249,1,0,0,0,0,0,0,0.123231,-0.075935,-0.005208,1,0,0,0,0,0,0
4.290000,-0.001921,0.137920,0.000261,1,0,0,0,0,0,0,-0.126949,-0.076794,0.005016,1,0,0,0,0,0,0,0.121373,-0.075390,-0.005110,1,0,0,0,0,0,0
4.300000,-0.002411,0.136127,0.000242,1,0,0,0,0,0,0,-0.123942,-0.074994,0.004780,1,0,0,0,0,0,0,0.119183,-0.074549,-0.004977,1,0,0,0,0,0,0
4.310000,-0.002772,0.134012,0.000224,1,0,0,0,0,0,0,-0.120902,-0.073135,0.004543,1,0,0,0,0,0,0,0.116683,-0.073425,-0.004812,1,0,0,0,0,0,0
4.320000,-0.002972,0.131548,0.000207,1,0,0,0,0,0,0,-0.117855,-0.071232,0.004307,1,0,0,0,0,0,0,0.113917,-0.072039,-0.004619,1,0,0,0,0,0,0
4.330000,-0.002986,0.128705,0.000191,1,0,0,0,0,0,0,-0.114857,-0.069320,0.004076,1,0,0,0,0,0,0,0.110950,-0.070415,-0.004404,1,0,0,0,0,0,0
4.340000,-0.002816,0.125459,0.000177,1,0,0,0,0,0,0,-0.111941,-0.067419,0.003853,1,0,0,0,0,0,0,0.107854,-0.068579,-0.004172,1,0,0,0,0,0,0
4.350000,-0.002483,0.121815,0.000165,1,0,0,0,0,0,0,-0.109138,-0.065553,0.003640,1,0,0,0,0,0,0,0.104708,-0.066549,-0.003926,1,0,0,0,0,0,0
4.360000,-0.002025,0.117815,0.000154,1,0,0,0,0,0,0,-0.106489,-0.063746,0.003440,1,0,0,0,0,0,0,0.101580,-0.064338,-0.003669,1,0,0,0,0,0,0
