time,drone0_roll,drone0_pitch,drone0_yaw,drone0_des_qw,drone0_des_qx,drone0_des_qy,drone0_des_qz,drone0_err_x,drone0_err_y,drone0_err_z,drone1_roll,drone1_pitch,drone1_yaw,drone1_des_qw,drone1_des_qx,drone1_des_qy,drone1_des_qz,drone1_err_x,drone1_err_y,drone1_err_z,drone2_roll,drone2_pitch,drone2_yaw,drone2_des_qw,drone2_des_qx,drone2_des_qy,drone2_des_qz,drone2_err_x,drone2_err_y,drone2_err_z
0.000000,0.000000,0.000000,0.000000,1,0,0,0,0,0,0,0.000000,0.000000,0.000000,1,0,0,0,0,0,0,0.000000,0.000000,0.000000,1,0,0,0,0,0,0
0.010000,0.000001,-0.000001,-0.000000,1,0,0,0,0,0,0,0.000001,-0.000001,-0.000000,1,0,0,0,0,0,0,0.000001,-0.000001,-0.000000,1,0,0,0,0,0,0
0.020000,0.000003,-0.000006,-0.000000,1,0,0,0,0,0,0,0.000003,-0.000006,-0.000000,1,0,0,0,0,0,0,0.000003,-0.000006,-0.000000,1,0,0,0,0,0,0
0.030000,0.000008,-0.000016,-0.000000,1,0,0,0,0,0,0,0.000008,-0.000016,-0.000000,1,0,0,0,0,0,0,0.000008,-0.000016,-0.000000,1,0,0,0,0,0,0
0.040000,0.000015,-0.000009,0.000000,1,0,0,0,0,0,0,0.000015,-0.000030,-0.000000,1,0,0,0,0,0,0,0.000015,-0.000030,-0.000000,1,0,0,0,0,0,0
0.050000,0.000025,0.000154,0.000000,1,0,0,0,0,0,0,0.000025,-0.000049,-0.000000,1,0,0,0,0,0,0,0.000093,-0.000087,-0.000000,1,0,0,0,0,0,0
0.060000,0.000037,0.000340,0.000000,1,0,0,0,0,0,0,0.000010,-0.000331,-0.000000,1,0,0,0,0,0,0,0.000276,-0.000208,-0.000000,1,0,0,0,0,0,0
0.070000,0.000050,0.000666,0.000000,1,0,0,0,0,0,0,0.000004,-0.000566,-0.000000,1,0,0,0,0,0,0,0.000472,-0.000340,-0.000000,1,0,0,0,0,0,0
0.080000,0.000066,0.001115,0.000000,1,0,0,0,0,0,0,0.000000,-0.000797,-0.000000,1,0,0,0,0,0,0,0.000833,-0.000568,-0.000000,1,0,0,0,0,0,0
0.090000,0.000083,0.001668,0.000000,1,0,0,0,0,0,0,-0.000033,-0.001332,0.000000,1,0,0,0,0,0,0,0.001240,-0.000827,-0.000000,1,0,0,0,0,0,0
0.100000,0.000102,0.002355,0.000000,1,0,0,0,0,0,0,-0.000066,-0.001898,0.000000,1,0,0,0,0,0,0,0.001760,-0.001153,-0.000001,1,0,0,0,0,0,0
0.110000,0.000123,0.003176,0.000000,1,0,0,0,0,0,0,-0.000096,-0.002444,0.000000,1,0,0,0,0,0,0,0.002392,-0.001546,-0.000002,1,0,0,0,0,0,0
0.120000,0.000144,0.004132,0.000000,1,0,0,0,0,0,0,-0.000143,-0.003137,0.000000,1,0,0,0,0,0,0,0.003115,-0.001993,-0.000003,1,0,0,0,0,0,0
0.130000,0.000167,0.005231,0.000001,1,0,0,0,0,0,0,-0.000211,-0.004022,0.000000,1,0,0,0,0,0,0,0.003953,-0.002508,-0.000005,1,0,0,0,0,0,0
0.140000,0.000191,0.006481,0.000001,1,0,0,0,0,0,0,-0.000277,-0.004879,0.000001,1,0,0,0,0,0,0,0.004911,-0.003094,-0.000007,1,0,0,0,0,0,0
0.150000,0.000215,0.007876,0.000001,1,0,0,0,0,0,0,-0.000347,-0.005759,0.000001,1,0,0,0,0,0,0,0.005991,-0.003751,-0.000011,1,0,0,0,0,0,0
0.160000,0.000240,0.009367,0.000001,1,0,0,0,0,0,0,-0.000453,-0.006848,0.000001,1,0,0,0,0,0,0,0.007199,-0.004484,-0.000016,1,0,0,0,0,0,0
0.170000,0.000266,0.010920,0.000002,1,0,0,0,0,0,0,-0.000567,-0.007971,0.000002,1,0,0,0,0,0,0,0.008535,-0.005291,-0.000022,1,0,0,0,0,0,0
0.180000,0.000293,0.012512,0.000002,1,0,0,0,0,0,0,-0.000686,-0.009094,0.000003,1,0,0,0,0,0,0,0.009954,-0.006148,-0.000030,1,0,0,0,0,0,0
0.190000,0.000320,0.014136,0.000003,1,0,0,0,0,0,0,-0.000844,-0.010376,0.000004,1,0,0,0,0,0,0,0.011419,-0.007033,-0.000039,1,0,0,0,0,0,0
0.200000,0.000347,0.015778,0.000003,1,0,0,0,0,0,0,-0.001026,-0.011731,0.000005,1,0,0,0,0,0,0,0.012912,-0.007934,-0.000050,1,0,0,0,0,0,0
0.210000,0.000374,0.017413,0.000004,1,0,0,0,0,0,0,-0.001227,-0.013120,0.000006,1,0,0,0,0,0,0,0.014428,-0.008849,-0.000063,1,0,0,0,0,0,0
0.220000,0.000401,0.019010,0.000004,1,0,0,0,0,0,0,-0.001471,-0.014625,0.000009,1,0,0,0,0,0,0,0.015951,-0.009768,-0.000077,1,0,0,0,0,0,0
0.230000,0.000428,0.020545,0.000005,1,0,0,0,0,0,0,-0.001747,-0.016183,0.000011,1,0,0,0,0,0,0,0.017456,-0.010677,-0.000092,1,0,0,0,0,0,0
0.240000,0.000454,0.022030,0.000006,1,0,0,0,0,0,0,-0.002071,-0.017822,0.000014,1,0,0,0,0,0,0,0.018911,-0.011557,-0.000108,1,0,0,0,0,0,0
0.250000,0.000480,0.023472,0.000006,1,0,0,0,0,0,0,-0.002432,-0.019486,0.000018,1,0,0,0,0,0,0,0.020297,-0.012397,-0.000125,1,0,0,0,0,0,0
0.260000,0.000505,0.024870,0.000007,1,0,0,0,0,0,0,-0.002831,-0.021156,0.000023,1,0,0,0,0,0,0,0.021624,-0.013202,-0.000141,1,0,0,0,0,0,0
0.270000,0.000530,0.026224,0.000008,1,0,0,0,0,0,0,-0.003269,-0.022814,0.000028,1,0,0,0,0,0,0,0.022898,-0.013974,-0.000159,1,0,0,0,0,0,0
0.280000,0.000553,0.027529,0.000008,1,0,0,0,0,0,0,-0.003742,-0.024434,0.000035,1,0,0,0,0,0,0,0.024121,-0.014716,-0.000176,1,0,0,0,0,0,0
0.290000,0.000576,0.028778,0.000009,1,0,0,0,0,0,0,-0.004248,-0.025998,0.000041,1,0,0,0,0,0,0,0.025297,-0.015428,-0.000194,1,0,0,0,0,0,0
0.300000,0.000598,0.029954,0.000010,1,0,0,0,0,0,0,-0.004786,-0.027494,0.000049,1,0,0,0,0,0,0,0.026421,-0.016109,-0.000211,1,0,0,0,0,0,0
0.310000,0.000619,0.031037,0.000010,1,0,0,0,0,0,0,-0.005359,-0.028910,0.000057,1,0,0,0,0,0,0,0.027480,-0.016752,-0.000229,1,0,0,0,0,0,0
0.320000,0.000639,0.032008,0.000011,1,0,0,0,0,0,0,-0.005963,-0.030232,0.000066,1,0,0,0,0,0,0,0.028458,-0.017346,-0.000246,1,0,0,0,0,0,0
0.330000,0.000658,0.032856,0.000011,1,0,0,0,0,0,0,-0.006589,-0.031439,0.000074,1,0,0,0,0,0,0,0.029335,-0.017881,-0.000261,1,0,0,0,0,0,0
0.340000,0.000675,0.033577,0.000012,1,0,0,0,0,0,0,-0.007226,-0.032508,0.000083,1,0,0,0,0,0,0,0.030101,-0.018350,-0.000275,1,0,0,0,0,0,0
0.350000,0.000692,0.034164,0.000012,1,0,0,0,0,0,0,-0.007861,-0.033422,0.000092,1,0,0,0,0,0,0,0.030749,-0.018749,-0.000287,1,0,0,0,0,0,0
0.360000,0.000707,0.034604,0.000012,1,0,0,0,0,0,0,-0.008487,-0.034169,0.000100,1,0,0,0,0,0,0,0.031274,-0.019075,-0.000297,1,0,0,0,0,0,0
0.370000,0.000721,0.034888,0.000013,1,0,0,0,0,0,0,-0.009100,-0.034743,0.000108,1,0,0,0,0,0,0,0.031670,-0.019324,-0.000305,1,0,0,0,0,0,0
0.380000,0.000734,0.035009,0.000013,1,0,0,0,0,0,0,-0.009699,-0.035141,0.000115,1,0,0,0,0,0,0,0.031925,-0.019491,-0.000311,1,0,0,0,0,0,0
0.390000,0.000745,0.034968,0.000013,1,0,0,0,0,0,0,-0.010289,-0.035358,0.000120,1,0,0,0,0,0,0,0.032036,-0.019572,-0.000313,1,0,0,0,0,0,0
0.400000,0.000755,0.034770,0.000012,1,0,0,0,0,0,0,-0.010876,-0.035391,0.000124,1,0,0,0,0,0,0,0.032000,-0.019567,-0.000313,1,0,0,0,0,0,0
0.410000,0.000764,0.034422,0.000012,1,0,0,0,0,0,0,-0.011460,-0.035237,0.000126,1,0,0,0,0,0,0,0.031823,-0.019478,-0.000310,1,0,0,0,0,0,0
0.420000,0.000772,0.033934,0.000012,1,0,0,0,0,0,0,-0.012039,-0.034897,0.000126,1,0,0,0,0,0,0,0.031508,-0.019307,-0.000305,1,0,0,0,0,0,0
0.430000,0.000778,0.033312,0.000011,1,0,0,0,0,0,0,-0.012607,-0.034372,0.000125,1,0,0,0,0,0,0,0.031060,-0.019057,-0.000297,1,0,0,0,0,0,0
0.440000,0.000783,0.032564,0.000011,1,0,0,0,0,0,0,-0.013161,-0.033665,0.000121,1,0,0,0,0,0,0,0.030486,-0.018732,-0.000287,1,0,0,0,0,0,0
0.450000,0.000788,0.031697,0.000010,1,0,0,0,0,0,0,-0.013693,-0.032782,0.000115,1,0,0,0,0,0,0,0.029790,-0.018334,-0.000275,1,0,0,0,0,0,0
0.460000,0.000791,0.030720,0.000010,1,0,0,0,0,0,0,-0.014198,-0.031730,0.000106,1,0,0,0,0,0,0,0.028981,-0.017869,-0.000261,1,0,0,0,0,0,0
0.470000,0.000793,0.029640,0.000009,1,0,0,0,0,0,0,-0.014672,-0.030515,0.000096,1,0,0,0,0,0,0,0.028067,-0.017343,-0.000246,1,0,0,0,0,0,0
0.480000,0.000794,0.028466,0.000008,1,0,0,0,0,0,0,-0.015111,-0.029142,0.000083,1,0,0,0,0,0,0,0.027058,-0.016759,-0.000230,1,0,0,0,0,0,0
0.490000,0.000795,0.027209,0.000007,1,0,0,0,0,0,0,-0.015506,-0.027624,0.000067,1,0,0,0,0,0,0,0.025961,-0.016123,-0.000213,1,0,0,0,0,0,0
0.500000,0.000794,0.025878,0.000007,1,0,0,0,0,0,0,-0.015852,-0.025975,0.000050,1,0,0,0,0,0,0,0.024787,-0.015440,-0.000195,1,0,0,0,0,0,0
0.510000,0.000793,0.024486,0.000006,1,0,0,0,0,0,0,-0.016146,-0.024198,0.000031,1,0,0,0,0,0,0,0.023544,-0.014717,-0.000177,1,0,0,0,0,0,0
0.520000,0.000791,0.023046,0.000005,1,0,0,0,0,0,0,-0.016397,-0.022273,0.000009,1,0,0,0,0,0,0,0.022244,-0.013959,-0.000160,1,0,0,0,0,0,0
0.530000,0.000789,0.021574,0.000004,1,0,0,0,0,0,0,-0.016605,-0.020196,-0.000015,1,0,0,0,0,0,0,0.020898,-0.013174,-0.000143,1,0,0,0,0,0,0
0.540000,0.000786,0.020090,0.000003,1,0,0,0,0,0,0,-0.016766,-0.017978,-0.000042,1,0,0,0,0,0,0,0.019515,-0.012366,-0.000126,1,0,0,0,0,0,0
0.550000,0.000782,0.018615,0.000002,1,0,0,0,0,0,0,-0.016874,-0.015642,-0.000070,1,0,0,0,0,0,0,0.018108,-0.011543,-0.000110,1,0,0,0,0,0,0
0.560000,0.000778,0.017176,0.000001,1,0,0,0,0,0,0,-0.016920,-0.013223,-0.000099,1,0,0,0,0,0,0,0.016692,-0.010715,-0.000095,1,0,0,0,0,0,0
0.570000,0.000774,0.015802,0.000001,1,0,0,0,0,0,0,-0.016903,-0.010736,-0.000128,1,0,0,0,0,0,0,0.015286,-0.009891,-0.000082,1,0,0,0,0,0,0
0.580000,0.000769,0.014530,-0.000000,1,0,0,0,0,0,0,-0.016822,-0.008190,-0.000159,1,0,0,0,0,0,0,0.013910,-0.009085,-0.000070,1,0,0,0,0,0,0
0.590000,0.000763,0.013402,-0.000001,1,0,0,0,0,0,0,-0.016677,-0.005613,-0.000188,1,0,0,0,0,0,0,0.012589,-0.008310,-0.000059,1,0,0,0,0,0,0
0.600000,0.000757,0.012461,-0.000001,1,0,0,0,0,0,0,-0.016467,-0.003057,-0.000217,1,0,0,0,0,0,0,0.011355,-0.007587,-0.000050,1,0,0,0,0,0,0
0.610000,0.000749,0.011746,-0.000001,1,0,0,0,0,0,0,-0.016191,-0.000584,-0.000243,1,0,0,0,0,0,0,0.010247,-0.006937,-0.000042,1,0,0,0,0,0,0
0.620000,0.000740,0.011278,-0.000001,1,0,0,0,0,0,0,-0.015851,0.001806,-0.000267,1,0,0,0,0,0,0,0.009306,-0.006386,-0.000036,1,0,0,0,0,0,0
0.630000,0.000728,0.011052,-0.000001,1,0,0,0,0,0,0,-0.015451,0.004138,-0.000288,1,0,0,0,0,0,0,0.008577,-0.005961,-0.000032,1,0,0,0,0,0,0
0.640000,0.000714,0.011065,-0.000001,1,0,0,0,0,0,0,-0.014996,0.006420,-0.000308,1,0,0,0,0,0,0,0.008094,-0.005683,-0.000030,1,0,0,0,0,0,0
0.650000,0.000697,0.011297,-0.000000,1,0,0,0,0,0,0,-0.014492,0.008655,-0.000325,1,0,0,0,0,0,0,0.007865,-0.005559,-0.000028,1,0,0,0,0,0,0
0.660000,0.000676,0.011686,0.000000,1,0,0,0,0,0,0,-0.013945,0.010832,-0.000341,1,0,0,0,0,0,0,0.007873,-0.005580,-0.000028,1,0,0,0,0,0,0
0.670000,0.000653,0.012149,0.000001,1,0,0,0,0,0,0,-0.013359,0.012942,-0.000354,1,0,0,0,0,0,0,0.008117,-0.005747,-0.000029,1,0,0,0,0,0,0
0.680000,0.000627,0.012618,0.000001,1,0,0,0,0,0,0,-0.012743,0.014971,-0.000364,1,0,0,0,0,0,0,0.008560,-0.006039,-0.000031,1,0,0,0,0,0,0
0.690000,0.000600,0.013059,0.000002,1,0,0,0,0,0,0,-0.012102,0.016911,-0.000372,1,0,0,0,0,0,0,0.009121,-0.006407,-0.000034,1,0,0,0,0,0,0
0.700000,0.000572,0.013463,0.000002,1,0,0,0,0,0,0,-0.011444,0.018756,-0.000378,1,0,0,0,0,0,0,0.009708,-0.006796,-0.000037,1,0,0,0,0,0,0
0.710000,0.000542,0.013842,0.000002,1,0,0,0,0,0,0,-0.010776,0.020501,-0.000381,1,0,0,0,0,0,0,0.010260,-0.007167,-0.000041,1,0,0,0,0,0,0
0.720000,0.000508,0.014236,0.000003,1,0,0,0,0,0,0,-0.010108,0.022139,-0.000382,1,0,0,0,0,0,0,0.010756,-0.007505,-0.000044,1,0,0,0,0,0,0
0.730000,0.000468,0.014666,0.000003,1,0,0,0,0,0,0,-0.009451,0.023666,-0.000381,1,0,0,0,0,0,0,0.011198,-0.007810,-0.000047,1,0,0,0,0,0,0
0.740000,0.000421,0.015133,0.000003,1,0,0,0,0,0,0,-0.008817,0.025076,-0.000378,1,0,0,0,0,0,0,0.011609,-0.008096,-0.000050,1,0,0,0,0,0,0
0.750000,0.000365,0.015624,0.000003,1,0,0,0,0,0,0,-0.008221,0.026363,-0.000373,1,0,0,0,0,0,0,0.012037,-0.008395,-0.000053,1,0,0,0,0,0,0
0.760000,0.000300,0.016113,0.000004,1,0,0,0,0,0,0,-0.007682,0.027522,-0.000366,1,0,0,0,0,0,0,0.012511,-0.008730,-0.000057,1,0,0,0,0,0,0
0.770000,0.000228,0.016570,0.000004,1,0,0,0,0,0,0,-0.007226,0.028545,-0.000358,1,0,0,0,0,0,0,0.013030,-0.009101,-0.000062,1,0,0,0,0,0,0
0.780000,0.000150,0.016972,0.000004,1,0,0,0,0,0,0,-0.006889,0.029422,-0.000349,1,0,0,0,0,0,0,0.013585,-0.009507,-0.000067,1,0,0,0,0,0,0
0.790000,0.000070,0.017310,0.000004,1,0,0,0,0,0,0,-0.006716,0.030140,-0.000339,1,0,0,0,0,0,0,0.014156,-0.009936,-0.000073,1,0,0,0,0,0,0
0.800000,-0.000012,0.017588,0.000003,1,0,0,0,0,0,0,-0.006765,0.030683,-0.000328,1,0,0,0,0,0,0,0.014724,-0.010374,-0.000079,1,0,0,0,0,0,0
0.810000,-0.000097,0.017811,0.000003,1,0,0,0,0,0,0,-0.007095,0.031034,-0.000316,1,0,0,0,0,0,0,0.015265,-0.010805,-0.000085,1,0,0,0,0,0,0
0.820000,-0.000182,0.017986,0.000003,1,0,0,0,0,0,0,-0.007749,0.031182,-0.000305,1,0,0,0,0,0,0,0.015756,-0.011209,-0.000092,1,0,0,0,0,0,0
0.830000,-0.000268,0.018123,0.000003,1,0,0,0,0,0,0,-0.008740,0.031124,-0.000292,1,0,0,0,0,0,0,0.016189,-0.011577,-0.000097,1,0,0,0,0,0,0
0.840000,-0.000352,0.018239,0.000002,1,0,0,0,0,0,0,-0.010040,0.030868,-0.000280,1,0,0,0,0,0,0,0.016566,-0.011908,-0.000102,1,0,0,0,0,0,0
0.850000,-0.000435,0.018352,0.000002,1,0,0,0,0,0,0,-0.011590,0.030422,-0.000267,1,0,0,0,0,0,0,0.016890,-0.012203,-0.000107,1,0,0,0,0,0,0
0.860000,-0.000517,0.018485,0.000002,1,0,0,0,0,0,0,-0.013375,0.029784,-0.000252,1,0,0,0,0,0,0,0.017166,-0.012464,-0.000111,1,0,0,0,0,0,0
0.870000,-0.000595,0.018658,0.000001,1,0,0,0,0,0,0,-0.015353,0.028956,-0.000236,1,0,0,0,0,0,0,0.017402,-0.012693,-0.000115,1,0,0,0,0,0,0
0.880000,-0.000668,0.018893,0.000001,1,0,0,0,0,0,0,-0.017415,0.027962,-0.000218,1,0,0,0,0,0,0,0.017613,-0.012900,-0.000118,1,0,0,0,0,0,0
0.890000,-0.000736,0.019210,-0.000000,1,0,0,0,0,0,0,-0.019428,0.026838,-0.000198,1,0,0,0,0,0,0,0.017813,-0.013092,-0.000122,1,0,0,0,0,0,0
0.900000,-0.000797,0.019627,-0.000001,1,0,0,0,0,0,0,-0.021309,0.025616,-0.000175,1,0,0,0,0,0,0,0.018018,-0.013277,-0.000125,1,0,0,0,0,0,0
0.910000,-0.000849,0.020153,-0.000002,1,0,0,0,0,0,0,-0.023026,0.024315,-0.000151,1,0,0,0,0,0,0,0.018245,-0.013467,-0.000128,1,0,0,0,0,0,0
0.920000,-0.000889,0.020787,-0.000003,1,0,0,0,0,0,0,-0.024582,0.022943,-0.000125,1,0,0,0,0,0,0,0.018511,-0.013669,-0.000131,1,0,0,0,0,0,0
0.930000,-0.000914,0.021511,-0.000004,1,0,0,0,0,0,0,-0.026015,0.021489,-0.000097,1,0,0,0,0,0,0,0.018826,-0.013891,-0.000135,1,0,0,0,0,0,0
0.940000,-0.000924,0.022299,-0.000005,1,0,0,0,0,0,0,-0.027381,0.019924,-0.000065,1,0,0,0,0,0,0,0.019197,-0.014137,-0.000139,1,0,0,0,0,0,0
0.950000,-0.000916,0.023119,-0.000006,1,0,0,0,0,0,0,-0.028735,0.018210,-0.000029,1,0,0,0,0,0,0,0.019632,-0.014411,-0.000144,1,0,0,0,0,0,0
0.960000,-0.000890,0.023948,-0.000007,1,0,0,0,0,0,0,-0.030097,0.016329,0.000013,1,0,0,0,0,0,0,0.020136,-0.014714,-0.000150,1,0,0,0,0,0,0
0.970000,-0.000845,0.024784,-0.000008,1,0,0,0,0,0,0,-0.031448,0.014289,0.000061,1,0,0,0,0,0,0,0.020708,-0.015045,-0.000157,1,0,0,0,0,0,0
0.980000,-0.000783,0.025632,-0.000009,1,0,0,0,0,0,0,-0.032766,0.012108,0.000115,1,0,0,0,0,0,0,0.021333,-0.015394,-0.000164,1,0,0,0,0,0,0
0.990000,-0.000701,0.026523,-0.000010,1,0,0,0,0,0,0,-0.034031,0.009807,0.000174,1,0,0,0,0,0,0,0.021982,-0.015739,-0.000172,1,0,0,0,0,0,0
1.000000,-0.000599,0.027528,-0.000010,1,0,0,0,0,0,0,-0.035222,0.007415,0.000237,1,0,0,0,0,0,0,0.022620,-0.016061,-0.000179,1,0,0,0,0,0,0
1.010000,-0.000479,0.028690,-0.000011,1,0,0,0,0,0,0,-0.036315,0.004968,0.000303,1,0,0,0,0,0,0,0.023219,-0.016343,-0.000185,1,0,0,0,0,0,0
1.020000,-0.000346,0.030011,-0.000011,1,0,0,0,0,0,0,-0.037285,0.002510,0.000371,1,0,0,0,0,0,0,0.023774,-0.016582,-0.000191,1,0,0,0,0,0,0
1.030000,-0.000207,0.031457,-0.000011,1,0,0,0,0,0,0,-0.038110,0.000085,0.000438,1,0,0,0,0,0,0,0.024295,-0.016785,-0.000196,1,0,0,0,0,0,0
1.040000,-0.000067,0.032991,-0.000011,1,0,0,0,0,0,0,-0.038776,-0.002282,0.000503,1,0,0,0,0,0,0,0.024790,-0.016960,-0.000201,1,0,0,0,0,0,0
1.050000,0.000069,0.034609,-0.000011,1,0,0,0,0,0,0,-0.039278,-0.004581,0.000566,1,0,0,0,0,0,0,0.025281,-0.017120,-0.000206,1,0,0,0,0,0,0
1.060000,0.000197,0.036317,-0.000010,1,0,0,0,0,0,0,-0.039633,-0.006808,0.000626,1,0,0,0,0,0,0,0.025825,-0.017301,-0.000211,1,0,0,0,0,0,0
1.070000,0.000314,0.038083,-0.000008,1,0,0,0,0,0,0,-0.039898,-0.008967,0.000683,1,0,0,0,0,0,0,0.026454,-0.017529,-0.000217,1,0,0,0,0,0,0
1.080000,0.000420,0.039860,-0.000007,1,0,0,0,0,0,0,-0.040087,-0.011061,0.000737,1,0,0,0,0,0,0,0.027172,-0.017812,-0.000226,1,0,0,0,0,0,0
1.090000,0.000514,0.041604,-0.000005,1,0,0,0,0,0,0,-0.040196,-0.013090,0.000788,1,0,0,0,0,0,0,0.027975,-0.018150,-0.000236,1,0,0,0,0,0,0
1.100000,0.000595,0.043321,-0.000003,1,0,0,0,0,0,0,-0.040218,-0.015057,0.000836,1,0,0,0,0,0,0,0.028860,-0.018544,-0.000248,1,0,0,0,0,0,0
1.110000,0.000662,0.045056,-0.000001,1,0,0,0,0,0,0,-0.040147,-0.016964,0.000881,1,0,0,0,0,0,0,0.029821,-0.018992,-0.000263,1,0,0,0,0,0,0
1.120000,0.000714,0.046823,0.000001,1,0,0,0,0,0,0,-0.039973,-0.018822,0.000923,1,0,0,0,0,0,0,0.030841,-0.019487,-0.000279,1,0,0,0,0,0,0
1.130000,0.000751,0.048641,0.000003,1,0,0,0,0,0,0,-0.039680,-0.020660,0.000964,1,0,0,0,0,0,0,0.031872,-0.020002,-0.000296,1,0,0,0,0,0,0
1.140000,0.000773,0.050526,0.000005,1,0,0,0,0,0,0,-0.039255,-0.022502,0.001004,1,0,0,0,0,0,0,0.032844,-0.020494,-0.000313,1,0,0,0,0,0,0
1.150000,0.000784,0.052473,0.000008,1,0,0,0,0,0,0,-0.038681,-0.024364,0.001043,1,0,0,0,0,0,0,0.033716,-0.020935,-0.000329,1,0,0,0,0,0,0
1.160000,0.000787,0.054444,0.000010,1,0,0,0,0,0,0,-0.037942,-0.026254,0.001081,1,0,0,0,0,0,0,0.034513,-0.021339,-0.000345,1,0,0,0,0,0,0
1.170000,0.000786,0.056397,0.000012,1,0,0,0,0,0,0,-0.037022,-0.028168,0.001119,1,0,0,0,0,0,0,0.035285,-0.021742,-0.000360,1,0,0,0,0,0,0
1.180000,0.000781,0.058308,0.000015,1,0,0,0,0,0,0,-0.035916,-0.030077,0.001153,1,0,0,0,0,0,0,0.036044,-0.022154,-0.000376,1,0,0,0,0,0,0
1.190000,0.000775,0.060136,0.000017,1,0,0,0,0,0,0,-0.034628,-0.031942,0.001183,1,0,0,0,0,0,0,0.036784,-0.022571,-0.000393,1,0,0,0,0,0,0
1.200000,0.000769,0.061800,0.000018,1,0,0,0,0,0,0,-0.033157,-0.033739,0.001206,1,0,0,0,0,0,0,0.037495,-0.022988,-0.000410,1,0,0,0,0,0,0
1.210000,0.000764,0.063247,0.000020,1,0,0,0,0,0,0,-0.031504,-0.035449,0.001224,1,0,0,0,0,0,0,0.038173,-0.023403,-0.000427,1,0,0,0,0,0,0
1.220000,0.000758,0.064503,0.000021,1,0,0,0,0,0,0,-0.029670,-0.037058,0.001234,1,0,0,0,0,0,0,0.038813,-0.023814,-0.000444,1,0,0,0,0,0,0
1.230000,0.000752,0.065568,0.000022,1,0,0,0,0,0,0,-0.027688,-0.038539,0.001236,1,0,0,0,0,0,0,0.039408,-0.024215,-0.000461,1,0,0,0,0,0,0
1.240000,0.000745,0.066431,0.000023,1,0,0,0,0,0,0,-0.025651,-0.039844,0.001229,1,0,0,0,0,0,0,0.039954,-0.024603,-0.000477,1,0,0,0,0,0,0
1.250000,0.000736,0.067092,0.000024,1,0,0,0,0,0,0,-0.023630,-0.040948,0.001214,1,0,0,0,0,0,0,0.040448,-0.024975,-0.000493,1,0,0,0,0,0,0
1.260000,0.000724,0.067565,0.000024,1,0,0,0,0,0,0,-0.021594,-0.041873,0.001192,1,0,0,0,0,0,0,0.040871,-0.025319,-0.000508,1,0,0,0,0,0,0
1.270000,0.000707,0.067857,0.000024,1,0,0,0,0,0,0,-0.019517,-0.042633,0.001163,1,0,0,0,0,0,0,0.041212,-0.025625,-0.000521,1,0,0,0,0,0,0
1.280000,0.000685,0.067982,0.000024,1,0,0,0,0,0,0,-0.017392,-0.043232,0.001130,1,0,0,0,0,0,0,0.041487,-0.025904,-0.000533,1,0,0,0,0,0,0
1.290000,0.000656,0.067957,0.000024,1,0,0,0,0,0,0,-0.015217,-0.043673,0.001092,1,0,0,0,0,0,0,0.041702,-0.026161,-0.000544,1,0,0,0,0,0,0
1.300000,0.000619,0.067798,0.000024,1,0,0,0,0,0,0,-0.013001,-0.043955,0.001051,1,0,0,0,0,0,0,0.041861,-0.026397,-0.000554,1,0,0,0,0,0,0
1.310000,0.000573,0.067505,0.000024,1,0,0,0,0,0,0,-0.010742,-0.044082,0.001007,1,0,0,0,0,0,0,0.041960,-0.026611,-0.000563,1,0,0,0,0,0,0
1.320000,0.000520,0.067070,0.000023,1,0,0,0,0,0,0,-0.008451,-0.044057,0.000960,1,0,0,0,0,0,0,0.041991,-0.026797,-0.000571,1,0,0,0,0,0,0
1.330000,0.000459,0.066497,0.000023,1,0,0,0,0,0,0,-0.006155,-0.043884,0.000913,1,0,0,0,0,0,0,0.041942,-0.026944,-0.000576,1,0,0,0,0,0,0
1.340000,0.000386,0.065821,0.000022,1,0,0,0,0,0,0,-0.003872,-0.043569,0.000865,1,0,0,0,0,0,0,0.041802,-0.027041,-0.000580,1,0,0,0,0,0,0
1.350000,0.000298,0.065070,0.000021,1,0,0,0,0,0,0,-0.001615,-0.043120,0.000817,1,0,0,0,0,0,0,0.041561,-0.027080,-0.000581,1,0,0,0,0,0,0
1.360000,0.000192,0.064261,0.000020,1,0,0,0,0,0,0,0.000600,-0.042549,0.000770,1,0,0,0,0,0,0,0.041212,-0.027052,-0.000579,1,0,0,0,0,0,0
1.370000,0.000068,0.063401,0.000020,1,0,0,0,0,0,0,0.002758,-0.041865,0.000724,1,0,0,0,0,0,0,0.040757,-0.026957,-0.000574,1,0,0,0,0,0,0
1.380000,-0.000077,0.062488,0.000019,1,0,0,0,0,0,0,0.004844,-0.041080,0.000680,1,0,0,0,0,0,0,0.040197,-0.026793,-0.000566,1,0,0,0,0,0,0
1.390000,-0.000240,0.061508,0.000018,1,0,0,0,0,0,0,0.006840,-0.040205,0.000638,1,0,0,0,0,0,0,0.039536,-0.026560,-0.000555,1,0,0,0,0,0,0
1.400000,-0.000420,0.060449,0.000017,1,0,0,0,0,0,0,0.008731,-0.039254,0.000599,1,0,0,0,0,0,0,0.038779,-0.026259,-0.000541,1,0,0,0,0,0,0
1.410000,-0.000615,0.059303,0.000015,1,0,0,0,0,0,0,0.010504,-0.038236,0.000562,1,0,0,0,0,0,0,0.037939,-0.025898,-0.000526,1,0,0,0,0,0,0
1.420000,-0.000822,0.058069,0.000014,1,0,0,0,0,0,0,0.012143,-0.037167,0.000528,1,0,0,0,0,0,0,0.037029,-0.025484,-0.000508,1,0,0,0,0,0,0
1.430000,-0.001040,0.056749,0.000014,1,0,0,0,0,0,0,0.013630,-0.036058,0.000497,1,0,0,0,0,0,0,0.036061,-0.025025,-0.000489,1,0,0,0,0,0,0
1.440000,-0.001269,0.055338,0.000013,1,0,0,0,0,0,0,0.014948,-0.034920,0.000468,1,0,0,0,0,0,0,0.035051,-0.024531,-0.000469,1,0,0,0,0,0,0
1.450000,-0.001505,0.053827,0.000012,1,0,0,0,0,0,0,0.016086,-0.033755,0.000442,1,0,0,0,0,0,0,0.034020,-0.024016,-0.000449,1,0,0,0,0,0,0
1.460000,-0.001747,0.052206,0.000012,1,0,0,0,0,0,0,0.017046,-0.032552,0.000419,1,0,0,0,0,0,0,0.032971,-0.023484,-0.000429,1,0,0,0,0,0,0
1.470000,-0.001993,0.050464,0.000012,1,0,0,0,0,0,0,0.017842,-0.031297,0.000399,1,0,0,0,0,0,0,0.031908,-0.022938,-0.000409,1,0,0,0,0,0,0
1.480000,-0.002241,0.048590,0.000012,1,0,0,0,0,0,0,0.018480,-0.029984,0.000381,1,0,0,0,0,0,0,0.030838,-0.022386,-0.000389,1,0,0,0,0,0,0
1.490000,-0.002491,0.046581,0.000013,1,0,0,0,0,0,0,0.018956,-0.028614,0.000367,1,0,0,0,0,0,0,0.029766,-0.021833,-0.000370,1,0,0,0,0,0,0
1.500000,-0.002739,0.044434,0.000014,1,0,0,0,0,0,0,0.019269,-0.027189,0.000355,1,0,0,0,0,0,0,0.028697,-0.021285,-0.000351,1,0,0,0,0,0,0
1.510000,-0.002985,0.042159,0.000017,1,0,0,0,0,0,0,0.019423,-0.025709,0.000346,1,0,0,0,0,0,0,0.027633,-0.020748,-0.000333,1,0,0,0,0,0,0
1.520000,-0.003225,0.039769,0.000019,1,0,0,0,0,0,0,0.019388,-0.024179,0.000339,1,0,0,0,0,0,0,0.026583,-0.020229,-0.000316,1,0,0,0,0,0,0
1.530000,-0.003456,0.037284,0.000023,1,0,0,0,0,0,0,0.019143,-0.022598,0.000335,1,0,0,0,0,0,0,0.025558,-0.019739,-0.000301,1,0,0,0,0,0,0
1.540000,-0.003674,0.034726,0.000027,1,0,0,0,0,0,0,0.018700,-0.020971,0.000332,1,0,0,0,0,0,0,0.024570,-0.019285,-0.000286,1,0,0,0,0,0,0
1.550000,-0.003876,0.032115,0.000031,1,0,0,0,0,0,0,0.018097,-0.019307,0.000330,1,0,0,0,0,0,0,0.023617,-0.018865,-0.000273,1,0,0,0,0,0,0
1.560000,-0.004060,0.029471,0.000036,1,0,0,0,0,0,0,0.017352,-0.017613,0.000329,1,0,0,0,0,0,0,0.022687,-0.018468,-0.000261,1,0,0,0,0,0,0
1.570000,-0.004223,0.026812,0.000042,1,0,0,0,0,0,0,0.016461,-0.015901,0.000328,1,0,0,0,0,0,0,0.021767,-0.018081,-0.000249,1,0,0,0,0,0,0
1.580000,-0.004366,0.024156,0.000047,1,0,0,0,0,0,0,0.015440,-0.014182,0.000328,1,0,0,0,0,0,0,0.020851,-0.017699,-0.000238,1,0,0,0,0,0,0
1.590000,-0.004484,0.021516,0.000053,1,0,0,0,0,0,0,0.014347,-0.012468,0.000326,1,0,0,0,0,0,0,0.019925,-0.017310,-0.000227,1,0,0,0,0,0,0
1.600000,-0.004577,0.018904,0.000059,1,0,0,0,0,0,0,0.013249,-0.010768,0.000324,1,0,0,0,0,0,0,0.018970,-0.016896,-0.000216,1,0,0,0,0,0,0
1.610000,-0.004644,0.016329,0.000064,1,0,0,0,0,0,0,0.012163,-0.009086,0.000321,1,0,0,0,0,0,0,0.017970,-0.016441,-0.000204,1,0,0,0,0,0,0
1.620000,-0.004685,0.013804,0.000070,1,0,0,0,0,0,0,0.011032,-0.007429,0.000317,1,0,0,0,0,0,0,0.016925,-0.015939,-0.000192,1,0,0,0,0,0,0
1.630000,-0.004698,0.011343,0.000076,1,0,0,0,0,0,0,0.009815,-0.005805,0.000312,1,0,0,0,0,0,0,0.015841,-0.015396,-0.000179,1,0,0,0,0,0,0
1.640000,-0.004684,0.008956,0.000081,1,0,0,0,0,0,0,0.008489,-0.004223,0.000306,1,0,0,0,0,0,0,0.014728,-0.014816,-0.000167,1,0,0,0,0,0,0
1.650000,-0.004645,0.006646,0.000085,1,0,0,0,0,0,0,0.007044,-0.002690,0.000298,1,0,0,0,0,0,0,0.013592,-0.014206,-0.000155,1,0,0,0,0,0,0
1.660000,-0.004580,0.004418,0.000090,1,0,0,0,0,0,0,0.005496,-0.001211,0.000288,1,0,0,0,0,0,0,0.012443,-0.013572,-0.000143,1,0,0,0,0,0,0
1.670000,-0.004491,0.002280,0.000093,1,0,0,0,0,0,0,0.003868,0.000212,0.000277,1,0,0,0,0,0,0,0.011288,-0.012918,-0.000132,1,0,0,0,0,0,0
1.680000,-0.004378,0.000251,0.000096,1,0,0,0,0,0,0,0.002183,0.001577,0.000264,1,0,0,0,0,0,0,0.010139,-0.012251,-0.000121,1,0,0,0,0,0,0
1.690000,-0.004239,-0.001654,0.000099,1,0,0,0,0,0,0,0.000458,0.002883,0.000250,1,0,0,0,0,0,0,0.009005,-0.011577,-0.000111,1,0,0,0,0,0,0
1.700000,-0.004077,-0.003421,0.000100,1,0,0,0,0,0,0,-0.001302,0.004129,0.000234,1,0,0,0,0,0,0,0.007893,-0.010901,-0.000102,1,0,0,0,0,0,0
1.710000,-0.003888,-0.005030,0.000101,1,0,0,0,0,0,0,-0.003090,0.005313,0.000217,1,0,0,0,0,0,0,0.006807,-0.010223,-0.000093,1,0,0,0,0,0,0
1.720000,-0.003673,-0.006460,0.000101,1,0,0,0,0,0,0,-0.004889,0.006436,0.000199,1,0,0,0,0,0,0,0.005751,-0.009545,-0.000086,1,0,0,0,0,0,0
1.730000,-0.003429,-0.007688,0.000100,1,0,0,0,0,0,0,-0.006676,0.007500,0.000179,1,0,0,0,0,0,0,0.004729,-0.008870,-0.000079,1,0,0,0,0,0,0
1.740000,-0.003157,-0.008697,0.000098,1,0,0,0,0,0,0,-0.008450,0.008506,0.000159,1,0,0,0,0,0,0,0.003744,-0.008198,-0.000072,1,0,0,0,0,0,0
1.750000,-0.002854,-0.009478,0.000095,1,0,0,0,0,0,0,-0.010225,0.009454,0.000138,1,0,0,0,0,0,0,0.002795,-0.007529,-0.000067,1,0,0,0,0,0,0
1.760000,-0.002524,-0.010040,0.000092,1,0,0,0,0,0,0,-0.012002,0.010350,0.000117,1,0,0,0,0,0,0,0.001881,-0.006861,-0.000062,1,0,0,0,0,0,0
1.770000,-0.002171,-0.010401,0.000088,1,0,0,0,0,0,0,-0.013775,0.011199,0.000095,1,0,0,0,0,0,0,0.001004,-0.006196,-0.000057,1,0,0,0,0,0,0
1.780000,-0.001799,-0.010579,0.000083,1,0,0,0,0,0,0,-0.015531,0.012009,0.000073,1,0,0,0,0,0,0,0.000174,-0.005538,-0.000054,1,0,0,0,0,0,0
1.790000,-0.001411,-0.010587,0.000079,1,0,0,0,0,0,0,-0.017254,0.012787,0.000050,1,0,0,0,0,0,0,-0.000591,-0.004897,-0.000050,1,0,0,0,0,0,0
1.800000,-0.001010,-0.010429,0.000074,1,0,0,0,0,0,0,-0.018927,0.013538,0.000026,1,0,0,0,0,0,0,-0.001275,-0.004277,-0.000048,1,0,0,0,0,0,0
1.810000,-0.000600,-0.010111,0.000070,1,0,0,0,0,0,0,-0.020535,0.014265,0.000003,1,0,0,0,0,0,0,-0.001860,-0.003688,-0.000046,1,0,0,0,0,0,0
1.820000,-0.000184,-0.009646,0.000066,1,0,0,0,0,0,0,-0.022065,0.014968,-0.000021,1,0,0,0,0,0,0,-0.002321,-0.003140,-0.000044,1,0,0,0,0,0,0
1.830000,0.000232,-0.009056,0.000062,1,0,0,0,0,0,0,-0.023510,0.015649,-0.000046,1,0,0,0,0,0,0,-0.002633,-0.002647,-0.000042,1,0,0,0,0,0,0
1.840000,0.000643,-0.008374,0.000058,1,0,0,0,0,0,0,-0.024867,0.016309,-0.000070,1,0,0,0,0,0,0,-0.002772,-0.002221,-0.000041,1,0,0,0,0,0,0
1.850000,0.001045,-0.007627,0.000055,1,0,0,0,0,0,0,-0.026131,0.016941,-0.000094,1,0,0,0,0,0,0,-0.002722,-0.001871,-0.000039,1,0,0,0,0,0,0
1.860000,0.001436,-0.006823,0.000052,1,0,0,0,0,0,0,-0.027298,0.017541,-0.000118,1,0,0,0,0,0,0,-0.002480,-0.001602,-0.000037,1,0,0,0,0,0,0
1.870000,0.001813,-0.005972,0.000050,1,0,0,0,0,0,0,-0.028366,0.018104,-0.000141,1,0,0,0,0,0,0,-0.002050,-0.001415,-0.000035,1,0,0,0,0,0,0
1.880000,0.002174,-0.005080,0.000049,1,0,0,0,0,0,0,-0.029338,0.018624,-0.000163,1,0,0,0,0,0,0,-0.001441,-0.001309,-0.000033,1,0,0,0,0,0,0
1.890000,0.002517,-0.004148,0.000048,1,0,0,0,0,0,0,-0.030225,0.019106,-0.000184,1,0,0,0,0,0,0,-0.000671,-0.001279,-0.000031,1,0,0,0,0,0,0
1.900000,0.002840,-0.003182,0.000047,1,0,0,0,0,0,0,-0.031041,0.019550,-0.000204,1,0,0,0,0,0,0,0.000252,-0.001326,-0.000029,1,0,0,0,0,0,0
1.910000,0.003141,-0.002192,0.000047,1,0,0,0,0,0,0,-0.031799,0.019952,-0.000223,1,0,0,0,0,0,0,0.001310,-0.001445,-0.000027,1,0,0,0,0,0,0
1.920000,0.003418,-0.001187,0.000047,1,0,0,0,0,0,0,-0.032510,0.020300,-0.000240,1,0,0,0,0,0,0,0.002471,-0.001627,-0.000026,1,0,0,0,0,0,0
1.930000,0.003669,-0.000175,0.000048,1,0,0,0,0,0,0,-0.033187,0.020577,-0.000255,1,0,0,0,0,0,0,0.003697,-0.001859,-0.000025,1,0,0,0,0,0,0
1.940000,0.003893,0.000837,0.000049,1,0,0,0,0,0,0,-0.033840,0.020759,-0.000266,1,0,0,0,0,0,0,0.004953,-0.002126,-0.000025,1,0,0,0,0,0,0
1.950000,0.004090,0.001842,0.000050,1,0,0,0,0,0,0,-0.034469,0.020817,-0.000273,1,0,0,0,0,0,0,0.006219,-0.002422,-0.000025,1,0,0,0,0,0,0
1.960000,0.004257,0.002836,0.000051,1,0,0,0,0,0,0,-0.035078,0.020717,-0.000275,1,0,0,0,0,0,0,0.007483,-0.002742,-0.000026,1,0,0,0,0,0,0
1.970000,0.004396,0.003815,0.000053,1,0,0,0,0,0,0,-0.035653,0.020432,-0.000270,1,0,0,0,0,0,0,0.008735,-0.003083,-0.000028,1,0,0,0,0,0,0
1.980000,0.004504,0.004778,0.000054,1,0,0,0,0,0,0,-0.036158,0.019960,-0.000259,1,0,0,0,0,0,0,0.009963,-0.003442,-0.000030,1,0,0,0,0,0,0
1.990000,0.004583,0.005725,0.000056,1,0,0,0,0,0,0,-0.036570,0.019309,-0.000241,1,0,0,0,0,0,0,0.011158,-0.003813,-0.000034,1,0,0,0,0,0,0
2.000000,0.004632,0.006658,0.000058,1,0,0,0,0,0,0,-0.036879,0.018484,-0.000217,1,0,0,0,0,0,0,0.012316,-0.004199,-0.000037,1,0,0,0,0,0,0
2.010000,0.004644,0.007585,0.000059,1,0,0,0,0,0,0,-0.037049,0.017470,-0.000187,1,0,0,0,0,0,0,0.013439,-0.004608,-0.000042,1,0,0,0,0,0,0
2.020000,0.004601,0.008518,0.000061,1,0,0,0,0,0,0,-0.036997,0.016200,-0.000148,1,0,0,0,0,0,0,0.014504,-0.005046,-0.000047,1,0,0,0,0,0,0
2.030000,0.004503,0.009458,0.000063,1,0,0,0,0,0,0,-0.036701,0.014678,-0.000100,1,0,0,0,0,0,0,0.015475,-0.005491,-0.000053,1,0,0,0,0,0,0
2.040000,0.004353,0.010405,0.000065,1,0,0,0,0,0,0,-0.036168,0.012944,-0.000047,1,0,0,0,0,0,0,0.016329,-0.005924,-0.000059,1,0,0,0,0,0,0
2.050000,0.004157,0.011356,0.000066,1,0,0,0,0,0,0,-0.035410,0.011052,0.000011,1,0,0,0,0,0,0,0.017055,-0.006325,-0.000065,1,0,0,0,0,0,0
2.060000,0.003920,0.012304,0.000067,1,0,0,0,0,0,0,-0.034446,0.009056,0.000069,1,0,0,0,0,0,0,0.017659,-0.006690,-0.000071,1,0,0,0,0,0,0
2.070000,0.003647,0.013235,0.000068,1,0,0,0,0,0,0,-0.033297,0.006994,0.000126,1,0,0,0,0,0,0,0.018156,-0.007017,-0.000076,1,0,0,0,0,0,0
2.080000,0.003344,0.014130,0.000069,1,0,0,0,0,0,0,-0.031988,0.004889,0.000181,1,0,0,0,0,0,0,0.018565,-0.007312,-0.000081,1,0,0,0,0,0,0
2.090000,0.003018,0.014967,0.000069,1,0,0,0,0,0,0,-0.030542,0.002764,0.000232,1,0,0,0,0,0,0,0.018909,-0.007584,-0.000085,1,0,0,0,0,0,0
2.100000,0.002676,0.015736,0.000068,1,0,0,0,0,0,0,-0.028976,0.000645,0.000279,1,0,0,0,0,0,0,0.019207,-0.007845,-0.000089,1,0,0,0,0,0,0
2.110000,0.002324,0.016437,0.000067,1,0,0,0,0,0,0,-0.027310,-0.001452,0.000322,1,0,0,0,0,0,0,0.019471,-0.008102,-0.000094,1,0,0,0,0,0,0
2.120000,0.001969,0.017094,0.000066,1,0,0,0,0,0,0,-0.025559,-0.003516,0.000359,1,0,0,0,0,0,0,0.019704,-0.008363,-0.000098,1,0,0,0,0,0,0
2.130000,0.001613,0.017740,0.000064,1,0,0,0,0,0,0,-0.023739,-0.005540,0.000391,1,0,0,0,0,0,0,0.019911,-0.008633,-0.000102,1,0,0,0,0,0,0
2.140000,0.001259,0.018419,0.000062,1,0,0,0,0,0,0,-0.021863,-0.007524,0.000417,1,0,0,0,0,0,0,0.020099,-0.008922,-0.000107,1,0,0,0,0,0,0
2.150000,0.000908,0.019177,0.000060,1,0,0,0,0,0,0,-0.019945,-0.009477,0.000438,1,0,0,0,0,0,0,0.020278,-0.009239,-0.000112,1,0,0,0,0,0,0
2.160000,0.000560,0.020043,0.000058,1,0,0,0,0,0,0,-0.017993,-0.011392,0.000454,1,0,0,0,0,0,0,0.020466,-0.009600,-0.000119,1,0,0,0,0,0,0
2.170000,0.000216,0.021018,0.000055,1,0,0,0,0,0,0,-0.016009,-0.013258,0.000465,1,0,0,0,0,0,0,0.020676,-0.010019,-0.000126,1,0,0,0,0,0,0
2.180000,-0.000126,0.022087,0.000052,1,0,0,0,0,0,0,-0.013995,-0.015059,0.000471,1,0,0,0,0,0,0,0.020909,-0.010497,-0.000135,1,0,0,0,0,0,0
2.190000,-0.000468,0.023232,0.000048,1,0,0,0,0,0,0,-0.011950,-0.016777,0.000472,1,0,0,0,0,0,0,0.021158,-0.011028,-0.000145,1,0,0,0,0,0,0
2.200000,-0.000817,0.024441,0.000044,1,0,0,0,0,0,0,-0.009875,-0.018393,0.000468,1,0,0,0,0,0,0,0.021411,-0.011601,-0.000155,1,0,0,0,0,0,0
2.210000,-0.001182,0.025707,0.000040,1,0,0,0,0,0,0,-0.007770,-0.019882,0.000459,1,0,0,0,0,0,0,0.021662,-0.012209,-0.000166,1,0,0,0,0,0,0
2.220000,-0.001576,0.027047,0.000035,1,0,0,0,0,0,0,-0.005643,-0.021218,0.000445,1,0,0,0,0,0,0,0.021923,-0.012860,-0.000179,1,0,0,0,0,0,0
2.230000,-0.002015,0.028522,0.000029,1,0,0,0,0,0,0,-0.003512,-0.022383,0.000427,1,0,0,0,0,0,0,0.022233,-0.013584,-0.000193,1,0,0,0,0,0,0
2.240000,-0.002521,0.030256,0.000021,1,0,0,0,0,0,0,-0.001407,-0.023368,0.000407,1,0,0,0,0,0,0,0.022664,-0.014433,-0.000209,1,0,0,0,0,0,0
2.250000,-0.003124,0.032434,0.000012,1,0,0,0,0,0,0,0.000645,-0.024177,0.000384,1,0,0,0,0,0,0,0.023329,-0.015487,-0.000231,1,0,0,0,0,0,0
2.260000,-0.003855,0.035282,-0.000002,1,0,0,0,0,0,0,0.002620,-0.024813,0.000359,1,0,0,0,0,0,0,0.024360,-0.016836,-0.000260,1,0,0,0,0,0,0
2.270000,-0.004737,0.038986,-0.000022,1,0,0,0,0,0,0,0.004495,-0.025287,0.000334,1,0,0,0,0,0,0,0.025855,-0.018547,-0.000300,1,0,0,0,0,0,0
2.280000,-0.005752,0.043574,-0.000050,1,0,0,0,0,0,0,0.006256,-0.025619,0.000309,1,0,0,0,0,0,0,0.027875,-0.020652,-0.000353,1,0,0,0,0,0,0
2.290000,-0.006845,0.048944,-0.000088,1,0,0,0,0,0,0,0.007903,-0.025832,0.000284,1,0,0,0,0,0,0,0.030493,-0.023193,-0.000423,1,0,0,0,0,0,0
2.300000,-0.007953,0.055022,-0.000137,1,0,0,0,0,0,0,0.009442,-0.025945,0.000260,1,0,0,0,0,0,0,0.033773,-0.026203,-0.000515,1,0,0,0,0,0,0
2.310000,-0.008995,0.061740,-0.000199,1,0,0,0,0,0,0,0.010878,-0.025964,0.000237,1,0,0,0,0,0,0,0.037689,-0.029647,-0.000634,1,0,0,0,0,0,0
2.320000,-0.009892,0.068933,-0.000272,1,0,0,0,0,0,0,0.012198,-0.025892,0.000215,1,0,0,0,0,0,0,0.042204,-0.033491,-0.000783,1,0,0,0,0,0,0
2.330000,-0.010599,0.076422,-0.000353,1,0,0,0,0,0,0,0.013387,-0.025733,0.000194,1,0,0,0,0,0,0,0.047318,-0.037744,-0.000968,1,0,0,0,0,0,0
2.340000,-0.011129,0.084143,-0.000440,1,0,0,0,0,0,0,0.014440,-0.025498,0.000176,1,0,0,0,0,0,0,0.052995,-0.042397,-0.001196,1,0,0,0,0,0,0
2.350000,-0.011535,0.092130,-0.000533,1,0,0,0,0,0,0,0.015357,-0.025197,0.000158,1,0,0,0,0,0,0,0.059111,-0.047364,-0.001470,1,0,0,0,0,0,0
2.360000,-0.011893,0.100365,-0.000631,1,0,0,0,0,0,0,0.016138,-0.024840,0.000143,1,0,0,0,0,0,0,0.065477,-0.052466,-0.001783,1,0,0,0,0,0,0
2.370000,-0.012260,0.108669,-0.000730,1,0,0,0,0,0,0,0.016785,-0.024437,0.000128,1,0,0,0,0,0,0,0.071905,-0.057467,-0.002122,1,0,0,0,0,0,0
2.380000,-0.012654,0.116767,-0.000829,1,0,0,0,0,0,0,0.017299,-0.024001,0.000115,1,0,0,0,0,0,0,0.078306,-0.062187,-0.002473,1,0,0,0,0,0,0
2.390000,-0.013056,0.124401,-0.000923,1,0,0,0,0,0,0,0.017679,-0.023547,0.000104,1,0,0,0,0,0,0,0.084726,-0.066589,-0.002830,1,0,0,0,0,0,0
2.400000,-0.013437,0.131451,-0.001011,1,0,0,0,0,0,0,0.017919,-0.023093,0.000093,1,0,0,0,0,0,0,0.091328,-0.070787,-0.003199,1,0,0,0,0,0,0
2.410000,-0.013786,0.137974,-0.001094,1,0,0,0,0,0,0,0.018008,-0.022670,0.000082,1,0,0,0,0,0,0,0.098242,-0.074963,-0.003597,1,0,0,0,0,0,0
2.420000,-0.014098,0.144077,-0.001172,1,0,0,0,0,0,0,0.017919,-0.022318,0.000071,1,0,0,0,0,0,0,0.105303,-0.079186,-0.004032,1,0,0,0,0,0,0
2.430000,-0.014345,0.149790,-0.001245,1,0,0,0,0,0,0,0.017613,-0.022098,0.000058,1,0,0,0,0,0,0,0.112185,-0.083336,-0.004492,1,0,0,0,0,0,0
2.440000,-0.014468,0.155085,-0.001312,1,0,0,0,0,0,0,0.017036,-0.022080,0.000043,1,0,0,0,0,0,0,0.118586,-0.087190,-0.004950,1,0,0,0,0,0,0
2.450000,-0.014398,0.159942,-0.001373,1,0,0,0,0,0,0,0.016123,-0.022343,0.000024,1,0,0,0,0,0,0,0.124268,-0.090495,-0.005366,1,0,0,0,0,0,0
2.460000,-0.014103,0.164398,-0.001425,1,0,0,0,0,0,0,0.014785,-0.022992,0.000001,1,0,0,0,0,0,0,0.129230,-0.093151,-0.005720,1,0,0,0,0,0,0
2.470000,-0.013592,0.168496,-0.001468,1,0,0,0,0,0,0,0.012910,-0.024166,-0.000027,1,0,0,0,0,0,0,0.133722,-0.095251,-0.006016,1,0,0,0,0,0,0
2.480000,-0.012893,0.172237,-0.001500,1,0,0,0,0,0,0,0.010436,-0.025940,-0.000056,1,0,0,0,0,0,0,0.138035,-0.096935,-0.006267,1,0,0,0,0,0,0
2.490000,-0.012010,0.175647,-0.001522,1,0,0,0,0,0,0,0.007425,-0.028236,-0.000083,1,0,0,0,0,0,0,0.142290,-0.098279,-0.006482,1,0,0,0,0,0,0
2.500000,-0.010939,0.178840,-0.001533,1,0,0,0,0,0,0,0.003942,-0.030927,-0.000102,1,0,0,0,0,0,0,0.146409,-0.099302,-0.006660,1,0,0,0,0,0,0
2.510000,-0.009704,0.181950,-0.001535,1,0,0,0,0,0,0,-0.000074,-0.033963,-0.000107,1,0,0,0,0,0,0,0.150252,-0.100050,-0.006807,1,0,0,0,0,0,0
2.520000,-0.008374,0.185003,-0.001527,1,0,0,0,0,0,0,-0.004722,-0.037246,-0.000095,1,0,0,0,0,0,0,0.153761,-0.100595,-0.006932,1,0,0,0,0,0,0
2.530000,-0.007026,0.187939,-0.001508,1,0,0,0,0,0,0,-0.010009,-0.040531,-0.000063,1,0,0,0,0,0,0,0.156979,-0.100966,-0.007037,1,0,0,0,0,0,0
2.540000,-0.005699,0.190796,-0.001479,1,0,0,0,0,0,0,-0.015918,-0.043568,-0.000011,1,0,0,0,0,0,0,0.159999,-0.101128,-0.007115,1,0,0,0,0,0,0
2.550000,-0.004390,0.193821,-0.001441,1,0,0,0,0,0,0,-0.022498,-0.046212,0.000057,1,0,0,0,0,0,0,0.162954,-0.101093,-0.007167,1,0,0,0,0,0,0
2.560000,-0.003082,0.197345,-0.001395,1,0,0,0,0,0,0,-0.029731,-0.048418,0.000139,1,0,0,0,0,0,0,0.166028,-0.101040,-0.007222,1,0,0,0,0,0,0
2.570000,-0.001768,0.201407,-0.001342,1,0,0,0,0,0,0,-0.037448,-0.050227,0.000230,1,0,0,0,0,0,0,0.169414,-0.101246,-0.007326,1,0,0,0,0,0,0
2.580000,-0.000433,0.205678,-0.001279,1,0,0,0,0,0,0,-0.045462,-0.051720,0.000330,1,0,0,0,0,0,0,0.173145,-0.101849,-0.007505,1,0,0,0,0,0,0
2.590000,0.000956,0.209728,-0.001206,1,0,0,0,0,0,0,-0.053553,-0.052964,0.000438,1,0,0,0,0,0,0,0.177069,-0.102765,-0.007747,1,0,0,0,0,0,0
2.600000,0.002409,0.213209,-0.001123,1,0,0,0,0,0,0,-0.061365,-0.053990,0.000551,1,0,0,0,0,0,0,0.180971,-0.103841,-0.008025,1,0,0,0,0,0,0
2.610000,0.003872,0.215930,-0.001033,1,0,0,0,0,0,0,-0.068600,-0.054778,0.000665,1,0,0,0,0,0,0,0.184616,-0.104952,-0.008315,1,0,0,0,0,0,0
2.620000,0.005216,0.217878,-0.000938,1,0,0,0,0,0,0,-0.075225,-0.055296,0.000771,1,0,0,0,0,0,0,0.187802,-0.106014,-0.008601,1,0,0,0,0,0,0
2.630000,0.006286,0.219118,-0.000842,1,0,0,0,0,0,0,-0.081397,-0.055543,0.000865,1,0,0,0,0,0,0,0.190327,-0.106899,-0.008856,1,0,0,0,0,0,0
2.640000,0.006959,0.219635,-0.000747,1,0,0,0,0,0,0,-0.087337,-0.055588,0.000950,1,0,0,0,0,0,0,0.192039,-0.107445,-0.009045,1,0,0,0,0,0,0
2.650000,0.007191,0.219264,-0.000658,1,0,0,0,0,0,0,-0.093198,-0.055559,0.001034,1,0,0,0,0,0,0,0.192873,-0.107540,-0.009145,1,0,0,0,0,0,0
2.660000,0.007017,0.217782,-0.000580,1,0,0,0,0,0,0,-0.098991,-0.055595,0.001128,1,0,0,0,0,0,0,0.192846,-0.107167,-0.009150,1,0,0,0,0,0,0
2.670000,0.006529,0.215083,-0.000514,1,0,0,0,0,0,0,-0.104619,-0.055782,0.001243,1,0,0,0,0,0,0,0.191992,-0.106362,-0.009068,1,0,0,0,0,0,0
2.680000,0.005834,0.211291,-0.000461,1,0,0,0,0,0,0,-0.109948,-0.056106,0.001377,1,0,0,0,0,0,0,0.190328,-0.105193,-0.008913,1,0,0,0,0,0,0
2.690000,0.005004,0.206694,-0.000417,1,0,0,0,0,0,0,-0.114919,-0.056495,0.001523,1,0,0,0,0,0,0,0.187870,-0.103771,-0.008710,1,0,0,0,0,0,0
2.700000,0.004060,0.201565,-0.000380,1,0,0,0,0,0,0,-0.119541,-0.056858,0.001669,1,0,0,0,0,0,0,0.184613,-0.102224,-0.008484,1,0,0,0,0,0,0
2.710000,0.003009,0.196031,-0.000348,1,0,0,0,0,0,0,-0.123829,-0.057125,0.001805,1,0,0,0,0,0,0,0.180478,-0.100572,-0.008239,1,0,0,0,0,0,0
2.720000,0.001891,0.190095,-0.000319,1,0,0,0,0,0,0,-0.127776,-0.057279,0.001929,1,0,0,0,0,0,0,0.175334,-0.098656,-0.007948,1,0,0,0,0,0,0
2.730000,0.000781,0.183742,-0.000293,1,0,0,0,0,0,0,-0.131342,-0.057350,0.002043,1,0,0,0,0,0,0,0.169161,-0.096260,-0.007577,1,0,0,0,0,0,0
2.740000,-0.000260,0.177013,-0.000268,1,0,0,0,0,0,0,-0.134491,-0.057388,0.002152,1,0,0,0,0,0,0,0.162197,-0.093336,-0.007126,1,0,0,0,0,0,0
2.750000,-0.001234,0.170035,-0.000244,1,0,0,0,0,0,0,-0.137233,-0.057442,0.002264,1,0,0,0,0,0,0,0.154906,-0.090108,-0.006639,1,0,0,0,0,0,0
2.760000,-0.002195,0.162995,-0.000220,1,0,0,0,0,0,0,-0.139630,-0.057554,0.002382,1,0,0,0,0,0,0,0.147730,-0.086936,-0.006178,1,0,0,0,0,0,0
2.770000,-0.003194,0.156090,-0.000196,1,0,0,0,0,0,0,-0.141741,-0.057741,0.002508,1,0,0,0,0,0,0,0.140835,-0.084076,-0.005779,1,0,0,0,0,0,0
2.780000,-0.004241,0.149451,-0.000171,1,0,0,0,0,0,0,-0.143579,-0.058011,0.002645,1,0,0,0,0,0,0,0.134082,-0.081534,-0.005438,1,0,0,0,0,0,0
2.790000,-0.005309,0.143135,-0.000147,1,0,0,0,0,0,0,-0.145104,-0.058392,0.002794,1,0,0,0,0,0,0,0.127259,-0.079173,-0.005131,1,0,0,0,0,0,0
2.800000,-0.006368,0.137190,-0.000123,1,0,0,0,0,0,0,-0.146268,-0.058956,0.002967,1,0,0,0,0,0,0,0.120331,-0.076888,-0.004844,1,0,0,0,0,0,0
2.810000,-0.007400,0.131700,-0.000102,1,0,0,0,0,0,0,-0.147065,-0.059813,0.003178,1,0,0,0,0,0,0,0.113486,-0.074707,-0.004578,1,0,0,0,0,0,0
2.820000,-0.008392,0.126822,-0.000084,1,0,0,0,0,0,0,-0.147554,-0.061080,0.003444,1,0,0,0,0,0,0,0.107040,-0.072770,-0.004346,1,0,0,0,0,0,0
2.830000,-0.009325,0.122659,-0.000072,1,0,0,0,0,0,0,-0.147842,-0.062817,0.003772,1,0,0,0,0,0,0,0.101259,-0.071224,-0.004160,1,0,0,0,0,0,0
2.840000,-0.010167,0.119133,-0.000066,1,0,0,0,0,0,0,-0.148035,-0.064985,0.004154,1,0,0,0,0,0,0,0.096241,-0.070155,-0.004024,1,0,0,0,0,0,0
2.850000,-0.010895,0.116026,-0.000064,1,0,0,0,0,0,0,-0.148186,-0.067436,0.004567,1,0,0,0,0,0,0,0.091937,-0.069569,-0.003933,1,0,0,0,0,0,0
2.860000,-0.011519,0.113069,-0.000063,1,0,0,0,0,0,0,-0.148293,-0.069963,0.004979,1,0,0,0,0,0,0,0.088173,-0.069381,-0.003875,1,0,0,0,0,0,0
2.870000,-0.012090,0.110032,-0.000062,1,0,0,0,0,0,0,-0.148321,-0.072382,0.005362,1,0,0,0,0,0,0,0.084771,-0.069471,-0.003836,1,0,0,0,0,0,0
2.880000,-0.012680,0.106773,-0.000057,1,0,0,0,0,0,0,-0.148244,-0.074582,0.005699,1,0,0,0,0,0,0,0.081632,-0.069748,-0.003808,1,0,0,0,0,0,0
2.890000,-0.013361,0.103262,-0.000048,1,0,0,0,0,0,0,-0.148075,-0.076526,0.005987,1,0,0,0,0,0,0,0.078662,-0.070098,-0.003781,1,0,0,0,0,0,0
2.900000,-0.014179,0.099533,-0.000035,1,0,0,0,0,0,0,-0.147871,-0.078207,0.006225,1,0,0,0,0,0,0,0.075781,-0.070388,-0.003745,1,0,0,0,0,0,0
2.910000,-0.015151,0.095678,-0.000018,1,0,0,0,0,0,0,-0.147673,-0.079589,0.006410,1,0,0,0,0,0,0,0.072922,-0.070490,-0.003690,1,0,0,0,0,0,0
2.920000,-0.016287,0.091838,0.000001,1,0,0,0,0,0,0,-0.147353,-0.080553,0.006526,1,0,0,0,0,0,0,0.070024,-0.070304,-0.003611,1,0,0,0,0,0,0
2.930000,-0.017564,0.088084,0.000021,1,0,0,0,0,0,0,-0.146821,-0.080975,0.006557,1,0,0,0,0,0,0,0.067059,-0.069803,-0.003509,1,0,0,0,0,0,0
2.940000,-0.018934,0.084373,0.000042,1,0,0,0,0,0,0,-0.145997,-0.080768,0.006491,1,0,0,0,0,0,0,0.064057,-0.069035,-0.003389,1,0,0,0,0,0,0
2.950000,-0.020321,0.080590,0.000067,1,0,0,0,0,0,0,-0.144835,-0.079921,0.006332,1,0,0,0,0,0,0,0.061069,-0.068070,-0.003258,1,0,0,0,0,0,0
2.960000,-0.021631,0.076664,0.000098,1,0,0,0,0,0,0,-0.143314,-0.078539,0.006098,1,0,0,0,0,0,0,0.058130,-0.066955,-0.003121,1,0,0,0,0,0,0
2.970000,-0.022795,0.072683,0.000132,1,0,0,0,0,0,0,-0.141427,-0.076784,0.005817,1,0,0,0,0,0,0,0.055260,-0.065708,-0.002979,1,0,0,0,0,0,0
2.980000,-0.023783,0.068869,0.000165,1,0,0,0,0,0,0,-0.139176,-0.074811,0.005512,1,0,0,0,0,0,0,0.052460,-0.064341,-0.002835,1,0,0,0,0,0,0
2.990000,-0.024605,0.065464,0.000189,1,0,0,0,0,0,0,-0.136498,-0.072753,0.005205,1,0,0,0,0,0,0,0.049719,-0.062886,-0.002691,1,0,0,0,0,0,0
3.000000,-0.025289,0.062577,0.000202,1,0,0,0,0,0,0,-0.133308,-0.070664,0.004904,1,0,0,0,0,0,0,0.047016,-0.061395,-0.002551,1,0,0,0,0,0,0
3.010000,-0.025853,0.060144,0.000205,1,0,0,0,0,0,0,-0.129561,-0.068511,0.004606,1,0,0,0,0,0,0,0.044328,-0.059899,-0.002415,1,0,0,0,0,0,0
3.020000,-0.026293,0.058012,0.000201,1,0,0,0,0,0,0,-0.125283,-0.066227,0.004301,1,0,0,0,0,0,0,0.041649,-0.058380,-0.002283,1,0,0,0,0,0,0
3.030000,-0.026587,0.056087,0.000194,1,0,0,0,0,0,0,-0.120557,-0.063769,0.003987,1,0,0,0,0,0,0,0.039017,-0.056786,-0.002154,1,0,0,0,0,0,0
3.040000,-0.026722,0.054375,0.000183,1,0,0,0,0,0,0,-0.115536,-0.061137,0.003665,1,0,0,0,0,0,0,0.036526,-0.055091,-0.002026,1,0,0,0,0,0,0
3.050000,-0.026714,0.052950,0.000166,1,0,0,0,0,0,0,-0.110412,-0.058386,0.003344,1,0,0,0,0,0,0,0.034289,-0.053316,-0.001901,1,0,0,0,0,0,0
3.060000,-0.026604,0.051914,0.000140,1,0,0,0,0,0,0,-0.105373,-0.055621,0.003036,1,0,0,0,0,0,0,0.032417,-0.051553,-0.001782,1,0,0,0,0,0,0
3.070000,-0.026448,0.051376,0.000103,1,0,0,0,0,0,0,-0.100509,-0.052940,0.002751,1,0,0,0,0,0,0,0.030978,-0.049940,-0.001673,1,0,0,0,0,0,0
3.080000,-0.026304,0.051388,0.000054,1,0,0,0,0,0,0,-0.095811,-0.050398,0.002494,1,0,0,0,0,0,0,0.029996,-0.048610,-0.001577,1,0,0,0,0,0,0
3.090000,-0.026209,0.051952,-0.000006,1,0,0,0,0,0,0,-0.091230,-0.048007,0.002264,1,0,0,0,0,0,0,0.029530,-0.047707,-0.001498,1,0,0,0,0,0,0
3.100000,-0.026171,0.053035,-0.000077,1,0,0,0,0,0,0,-0.086679,-0.045734,0.002056,1,0,0,0,0,0,0,0.029543,-0.047280,-0.001436,1,0,0,0,0,0,0
3.110000,-0.026183,0.054598,-0.000156,1,0,0,0,0,0,0,-0.082113,-0.043553,0.001867,1,0,0,0,0,0,0,0.029954,-0.047306,-0.001390,1,0,0,0,0,0,0
3.120000,-0.026230,0.056602,-0.000244,1,0,0,0,0,0,0,-0.077528,-0.041454,0.001693,1,0,0,0,0,0,0,0.030686,-0.047731,-0.001361,1,0,0,0,0,0,0
3.130000,-0.026300,0.058986,-0.000339,1,0,0,0,0,0,0,-0.072956,-0.039449,0.001537,1,0,0,0,0,0,0,0.031667,-0.048465,-0.001344,1,0,0,0,0,0,0
3.140000,-0.026389,0.061683,-0.000438,1,0,0,0,0,0,0,-0.068462,-0.037576,0.001398,1,0,0,0,0,0,0,0.032873,-0.049424,-0.001339,1,0,0,0,0,0,0
3.150000,-0.026508,0.064626,-0.000541,1,0,0,0,0,0,0,-0.064123,-0.035868,0.001278,1,0,0,0,0,0,0,0.034388,-0.050617,-0.001346,1,0,0,0,0,0,0
3.160000,-0.026683,0.067764,-0.000645,1,0,0,0,0,0,0,-0.059999,-0.034338,0.001175,1,0,0,0,0,0,0,0.036321,-0.052104,-0.001368,1,0,0,0,0,0,0
3.170000,-0.026963,0.071062,-0.000751,1,0,0,0,0,0,0,-0.056155,-0.032997,0.001089,1,0,0,0,0,0,0,0.038705,-0.053928,-0.001410,1,0,0,0,0,0,0
3.180000,-0.027388,0.074411,-0.000857,1,0,0,0,0,0,0,-0.052671,-0.031883,0.001019,1,0,0,0,0,0,0,0.041464,-0.056088,-0.001472,1,0,0,0,0,0,0
3.190000,-0.027984,0.077642,-0.000958,1,0,0,0,0,0,0,-0.049608,-0.031044,0.000965,1,0,0,0,0,0,0,0.044426,-0.058517,-0.001556,1,0,0,0,0,0,0
3.200000,-0.028760,0.080597,-0.001051,1,0,0,0,0,0,0,-0.046972,-0.030528,0.000929,1,0,0,0,0,0,0,0.047389,-0.061098,-0.001658,1,0,0,0,0,0,0
3.210000,-0.029710,0.083192,-0.001134,1,0,0,0,0,0,0,-0.044757,-0.030406,0.000911,1,0,0,0,0,0,0,0.050212,-0.063710,-0.001771,1,0,0,0,0,0,0
3.220000,-0.030826,0.085456,-0.001210,1,0,0,0,0,0,0,-0.042967,-0.030758,0.000913,1,0,0,0,0,0,0,0.052800,-0.066192,-0.001887,1,0,0,0,0,0,0
3.230000,-0.032106,0.087501,-0.001281,1,0,0,0,0,0,0,-0.041574,-0.031602,0.000934,1,0,0,0,0,0,0,0.055124,-0.068392,-0.001997,1,0,0,0,0,0,0
3.240000,-0.033527,0.089453,-0.001352,1,0,0,0,0,0,0,-0.040525,-0.032865,0.000970,1,0,0,0,0,0,0,0.057229,-0.070245,-0.002093,1,0,0,0,0,0,0
3.250000,-0.035023,0.091374,-0.001427,1,0,0,0,0,0,0,-0.039823,-0.034454,0.001017,1,0,0,0,0,0,0,0.059177,-0.071766,-0.002176,1,0,0,0,0,0,0
3.260000,-0.036489,0.093251,-0.001504,1,0,0,0,0,0,0,-0.039520,-0.036286,0.001070,1,0,0,0,0,0,0,0.061006,-0.073012,-0.002247,1,0,0,0,0,0,0
3.270000,-0.037810,0.095021,-0.001581,1,0,0,0,0,0,0,-0.039659,-0.038279,0.001129,1,0,0,0,0,0,0,0.062722,-0.074032,-0.002308,1,0,0,0,0,0,0
3.280000,-0.038890,0.096629,-0.001655,1,0,0,0,0,0,0,-0.040278,-0.040382,0.001191,1,0,0,0,0,0,0,0.064318,-0.074851,-0.002360,1,0,0,0,0,0,0
3.290000,-0.039672,0.098054,-0.001725,1,0,0,0,0,0,0,-0.041402,-0.042574,0.001259,1,0,0,0,0,0,0,0.065792,-0.075481,-0.002403,1,0,0,0,0,0,0
3.300000,-0.040145,0.099316,-0.001788,1,0,0,0,0,0,0,-0.043091,-0.044862,0.001333,1,0,0,0,0,0,0,0.067156,-0.075960,-0.002439,1,0,0,0,0,0,0
3.310000,-0.040327,0.100483,-0.001848,1,0,0,0,0,0,0,-0.045330,-0.047194,0.001414,1,0,0,0,0,0,0,0.068451,-0.076372,-0.002473,1,0,0,0,0,0,0
3.320000,-0.040238,0.101662,-0.001907,1,0,0,0,0,0,0,-0.048027,-0.049440,0.001497,1,0,0,0,0,0,0,0.069724,-0.076810,-0.002511,1,0,0,0,0,0,0
3.330000,-0.039908,0.102943,-0.001968,1,0,0,0,0,0,0,-0.051104,-0.051449,0.001578,1,0,0,0,0,0,0,0.070979,-0.077321,-0.002556,1,0,0,0,0,0,0
3.340000,-0.039376,0.104331,-0.002030,1,0,0,0,0,0,0,-0.054500,-0.053086,0.001647,1,0,0,0,0,0,0,0.072179,-0.077878,-0.002607,1,0,0,0,0,0,0
3.350000,-0.038694,0.105741,-0.002089,1,0,0,0,0,0,0,-0.058123,-0.054279,0.001700,1,0,0,0,0,0,0,0.073290,-0.078437,-0.002659,1,0,0,0,0,0,0
3.360000,-0.037917,0.107061,-0.002140,1,0,0,0,0,0,0,-0.061870,-0.055050,0.001737,1,0,0,0,0,0,0,0.074318,-0.078983,-0.002713,1,0,0,0,0,0,0
3.370000,-0.037095,0.108214,-0.002179,1,0,0,0,0,0,0,-0.065645,-0.055485,0.001760,1,0,0,0,0,0,0,0.075343,-0.079574,-0.002770,1,0,0,0,0,0,0
3.380000,-0.036266,0.109211,-0.002207,1,0,0,0,0,0,0,-0.069330,-0.055692,0.001775,1,0,0,0,0,0,0,0.076510,-0.080342,-0.002842,1,0,0,0,0,0,0
3.390000,-0.035475,0.110171,-0.002230,1,0,0,0,0,0,0,-0.072793,-0.055764,0.001786,1,0,0,0,0,0,0,0.077940,-0.081407,-0.002939,1,0,0,0,0,0,0
3.400000,-0.034786,0.111271,-0.002255,1,0,0,0,0,0,0,-0.075944,-0.055769,0.001798,1,0,0,0,0,0,0,0.079647,-0.082809,-0.003064,1,0,0,0,0,0,0
3.410000,-0.034277,0.112634,-0.002284,1,0,0,0,0,0,0,-0.078766,-0.055768,0.001815,1,0,0,0,0,0,0,0.081564,-0.084567,-0.003221,1,0,0,0,0,0,0
3.420000,-0.033998,0.114237,-0.002320,1,0,0,0,0,0,0,-0.081293,-0.055828,0.001841,1,0,0,0,0,0,0,0.083577,-0.086691,-0.003411,1,0,0,0,0,0,0
3.430000,-0.033956,0.115965,-0.002357,1,0,0,0,0,0,0,-0.083575,-0.056023,0.001881,1,0,0,0,0,0,0,0.085592,-0.089206,-0.003638,1,0,0,0,0,0,0
3.440000,-0.034123,0.117691,-0.002394,1,0,0,0,0,0,0,-0.085661,-0.056418,0.001941,1,0,0,0,0,0,0,0.087544,-0.092097,-0.003902,1,0,0,0,0,0,0
3.450000,-0.034448,0.119305,-0.002427,1,0,0,0,0,0,0,-0.087588,-0.057050,0.002023,1,0,0,0,0,0,0,0.089354,-0.095209,-0.004188,1,0,0,0,0,0,0
3.460000,-0.034889,0.120740,-0.002454,1,0,0,0,0,0,0,-0.089410,-0.057925,0.002130,1,0,0,0,0,0,0,0.090975,-0.098326,-0.004477,1,0,0,0,0,0,0
3.470000,-0.035457,0.121992,-0.002477,1,0,0,0,0,0,0,-0.091222,-0.059006,0.002255,1,0,0,0,0,0,0,0.092420,-0.101271,-0.004751,1,0,0,0,0,0,0
3.480000,-0.036201,0.123083,-0.002497,1,0,0,0,0,0,0,-0.093132,-0.060200,0.002393,1,0,0,0,0,0,0,0.093765,-0.103989,-0.005004,1,0,0,0,0,0,0
3.490000,-0.037162,0.123972,-0.002513,1,0,0,0,0,0,0,-0.095246,-0.061412,0.002533,1,0,0,0,0,0,0,0.095093,-0.106546,-0.005243,1,0,0,0,0,0,0
3.500000,-0.038339,0.124558,-0.002521,1,0,0,0,0,0,0,-0.097613,-0.062582,0.002671,1,0,0,0,0,0,0,0.096403,-0.109013,-0.005472,1,0,0,0,0,0,0
3.510000,-0.039689,0.124741,-0.002518,1,0,0,0,0,0,0,-0.100222,-0.063715,0.002807,1,0,0,0,0,0,0,0.097536,-0.111321,-0.005687,1,0,0,0,0,0,0
3.520000,-0.041135,0.124508,-0.002504,1,0,0,0,0,0,0,-0.102965,-0.064848,0.002946,1,0,0,0,0,0,0,0.098270,-0.113280,-0.005867,1,0,0,0,0,0,0
3.530000,-0.042593,0.123972,-0.002482,1,0,0,0,0,0,0,-0.105725,-0.066047,0.003096,1,0,0,0,0,0,0,0.098432,-0.114648,-0.005987,1,0,0,0,0,0,0
3.540000,-0.043977,0.123324,-0.002460,1,0,0,0,0,0,0,-0.108417,-0.067376,0.003263,1,0,0,0,0,0,0,0.097983,-0.115233,-0.006026,1,0,0,0,0,0,0
3.550000,-0.045189,0.122725,-0.002446,1,0,0,0,0,0,0,-0.110934,-0.068807,0.003444,1,0,0,0,0,0,0,0.097034,-0.114984,-0.005980,1,0,0,0,0,0,0
3.560000,-0.046120,0.122217,-0.002439,1,0,0,0,0,0,0,-0.113242,-0.070251,0.003630,1,0,0,0,0,0,0,0.095766,-0.113979,-0.005860,1,0,0,0,0,0,0
3.570000,-0.046661,0.121748,-0.002438,1,0,0,0,0,0,0,-0.115403,-0.071618,0.003809,1,0,0,0,0,0,0,0.094370,-0.112387,-0.005684,1,0,0,0,0,0,0
3.580000,-0.046725,0.121246,-0.002438,1,0,0,0,0,0,0,-0.117499,-0.072845,0.003974,1,0,0,0,0,0,0,0.093001,-0.110416,-0.005475,1,0,0,0,0,0,0
3.590000,-0.046274,0.120680,-0.002435,1,0,0,0,0,0,0,-0.119612,-0.073941,0.004124,1,0,0,0,0,0,0,0.091709,-0.108252,-0.005253,1,0,0,0,0,0,0
3.600000,-0.045333,0.120057,-0.002428,1,0,0,0,0,0,0,-0.121794,-0.074995,0.004271,1,0,0,0,0,0,0,0.090439,-0.105981,-0.005026,1,0,0,0,0,0,0
3.610000,-0.043982,0.119385,-0.002417,1,0,0,0,0,0,0,-0.124042,-0.076131,0.004430,1,0,0,0,0,0,0,0.089093,-0.103612,-0.004796,1,0,0,0,0,0,0
3.620000,-0.042321,0.118693,-0.002402,1,0,0,0,0,0,0,-0.126297,-0.077438,0.004613,1,0,0,0,0,0,0,0.087629,-0.101148,-0.004564,1,0,0,0,0,0,0
3.630000,-0.040447,0.118041,-0.002384,1,0,0,0,0,0,0,-0.128467,-0.078907,0.004819,1,0,0,0,0,0,0,0.086112,-0.098642,-0.004336,1,0,0,0,0,0,0
3.640000,-0.038446,0.117495,-0.002366,1,0,0,0,0,0,0,-0.130457,-0.080419,0.005033,1,0,0,0,0,0,0,0.084670,-0.096190,-0.004118,1,0,0,0,0,0,0
3.650000,-0.036386,0.117057,-0.002346,1,0,0,0,0,0,0,-0.132250,-0.081826,0.005234,1,0,0,0,0,0,0,0.083409,-0.093883,-0.003919,1,0,0,0,0,0,0
3.660000,-0.034329,0.116623,-0.002321,1,0,0,0,0,0,0,-0.133883,-0.082991,0.005402,1,0,0,0,0,0,0,0.082358,-0.091776,-0.003742,1,0,0,0,0,0,0
3.670000,-0.032334,0.116045,-0.002286,1,0,0,0,0,0,0,-0.135387,-0.083798,0.005523,1,0,0,0,0,0,0,0.081488,-0.089902,-0.003589,1,0,0,0,0,0,0
3.680000,-0.030473,0.115249,-0.002240,1,0,0,0,0,0,0,-0.136809,-0.084207,0.005589,1,0,0,0,0,0,0,0.080781,-0.088304,-0.003461,1,0,0,0,0,0,0
3.690000,-0.028819,0.114318,-0.002186,1,0,0,0,0,0,0,-0.138168,-0.084240,0.005605,1,0,0,0,0,0,0,0.080271,-0.087051,-0.003365,1,0,0,0,0,0,0
3.700000,-0.027451,0.113446,-0.002131,1,0,0,0,0,0,0,-0.139497,-0.083937,0.005575,1,0,0,0,0,0,0,0.080019,-0.086223,-0.003306,1,0,0,0,0,0,0
3.710000,-0.026433,0.112783,-0.002080,1,0,0,0,0,0,0,-0.140721,-0.083325,0.005505,1,0,0,0,0,0,0,0.080031,-0.085872,-0.003286,1,0,0,0,0,0,0
3.720000,-0.025788,0.112310,-0.002033,1,0,0,0,0,0,0,-0.141708,-0.082392,0.005392,1,0,0,0,0,0,0,0.080226,-0.086015,-0.003306,1,0,0,0,0,0,0
3.730000,-0.025502,0.111883,-0.001987,1,0,0,0,0,0,0,-0.142324,-0.081111,0.005233,1,0,0,0,0,0,0,0.080455,-0.086617,-0.003363,1,0,0,0,0,0,0
3.740000,-0.025533,0.111333,-0.001939,1,0,0,0,0,0,0,-0.142444,-0.079464,0.005027,1,0,0,0,0,0,0,0.080574,-0.087578,-0.003449,1,0,0,0,0,0,0
3.750000,-0.025840,0.110558,-0.001887,1,0,0,0,0,0,0,-0.141997,-0.077480,0.004778,1,0,0,0,0,0,0,0.080501,-0.088742,-0.003549,1,0,0,0,0,0,0
3.760000,-0.026383,0.109526,-0.001831,1,0,0,0,0,0,0,-0.140986,-0.075242,0.004500,1,0,0,0,0,0,0,0.080237,-0.089924,-0.003648,1,0,0,0,0,0,0
3.770000,-0.027129,0.108242,-0.001772,1,0,0,0,0,0,0,-0.139461,-0.072867,0.004210,1,0,0,0,0,0,0,0.079834,-0.090961,-0.003731,1,0,0,0,0,0,0
3.780000,-0.028053,0.106750,-0.001710,1,0,0,0,0,0,0,-0.137488,-0.070481,0.003927,1,0,0,0,0,0,0,0.079353,-0.091767,-0.003792,1,0,0,0,0,0,0
3.790000,-0.029123,0.105129,-0.001648,1,0,0,0,0,0,0,-0.135111,-0.068194,0.003666,1,0,0,0,0,0,0,0.078851,-0.092348,-0.003831,1,0,0,0,0,0,0
3.800000,-0.030303,0.103466,-0.001589,1,0,0,0,0,0,0,-0.132346,-0.066072,0.003436,1,0,0,0,0,0,0,0.078336,-0.092716,-0.003851,1,0,0,0,0,0,0
3.810000,-0.031532,0.101806,-0.001533,1,0,0,0,0,0,0,-0.129203,-0.064147,0.003238,1,0,0,0,0,0,0,0.077742,-0.092833,-0.003848,1,0,0,0,0,0,0
3.820000,-0.032706,0.100133,-0.001480,1,0,0,0,0,0,0,-0.125714,-0.062424,0.003072,1,0,0,0,0,0,0,0.076979,-0.092618,-0.003818,1,0,0,0,0,0,0
3.830000,-0.033682,0.098434,-0.001430,1,0,0,0,0,0,0,-0.121950,-0.060904,0.002935,1,0,0,0,0,0,0,0.075979,-0.091994,-0.003756,1,0,0,0,0,0,0
3.840000,-0.034305,0.096788,-0.001385,1,0,0,0,0,0,0,-0.118016,-0.059577,0.002823,1,0,0,0,0,0,0,0.074741,-0.090911,-0.003659,1,0,0,0,0,0,0
3.850000,-0.034447,0.095336,-0.001350,1,0,0,0,0,0,0,-0.114027,-0.058420,0.002732,1,0,0,0,0,0,0,0.073334,-0.089343,-0.003527,1,0,0,0,0,0,0
3.860000,-0.034051,0.094210,-0.001327,1,0,0,0,0,0,0,-0.110100,-0.057423,0.002659,1,0,0,0,0,0,0,0.071883,-0.087286,-0.003361,1,0,0,0,0,0,0
3.870000,-0.033139,0.093414,-0.001317,1,0,0,0,0,0,0,-0.106305,-0.056543,0.002596,1,0,0,0,0,0,0,0.070540,-0.084794,-0.003169,1,0,0,0,0,0,0
3.880000,-0.031766,0.092827,-0.001312,1,0,0,0,0,0,0,-0.102652,-0.055714,0.002537,1,0,0,0,0,0,0,0.069458,-0.082021,-0.002963,1,0,0,0,0,0,0
3.890000,-0.029989,0.092314,-0.001307,1,0,0,0,0,0,0,-0.099135,-0.054892,0.002476,1,0,0,0,0,0,0,0.068760,-0.079215,-0.002759,1,0,0,0,0,0,0
3.900000,-0.027869,0.091809,-0.001300,1,0,0,0,0,0,0,-0.095747,-0.054058,0.002412,1,0,0,0,0,0,0,0.068467,-0.076633,-0.002577,1,0,0,0,0,0,0
3.910000,-0.025500,0.091366,-0.001289,1,0,0,0,0,0,0,-0.092483,-0.053218,0.002346,1,0,0,0,0,0,0,0.068477,-0.074392,-0.002424,1,0,0,0,0,0,0
3.920000,-0.023004,0.091101,-0.001278,1,0,0,0,0,0,0,-0.089341,-0.052397,0.002280,1,0,0,0,0,0,0,0.068645,-0.072433,-0.002294,1,0,0,0,0,0,0
3.930000,-0.020510,0.091114,-0.001268,1,0,0,0,0,0,0,-0.086338,-0.051638,0.002218,1,0,0,0,0,0,0,0.068869,-0.070607,-0.002177,1,0,0,0,0,0,0
3.940000,-0.018126,0.091434,-0.001258,1,0,0,0,0,0,0,-0.083494,-0.050981,0.002165,1,0,0,0,0,0,0,0.069159,-0.068820,-0.002067,1,0,0,0,0,0,0
3.950000,-0.015915,0.092017,-0.001245,1,0,0,0,0,0,0,-0.080761,-0.050424,0.002118,1,0,0,0,0,0,0,0.069597,-0.067085,-0.001963,1,0,0,0,0,0,0
3.960000,-0.013901,0.092785,-0.001229,1,0,0,0,0,0,0,-0.078099,-0.049950,0.002077,1,0,0,0,0,0,0,0.070335,-0.065547,-0.001875,1,0,0,0,0,0,0
3.970000,-0.012100,0.093681,-0.001208,1,0,0,0,0,0,0,-0.075487,-0.049539,0.002039,1,0,0,0,0,0,0,0.071488,-0.064368,-0.001816,1,0,0,0,0,0,0
3.980000,-0.010544,0.094683,-0.001183,1,0,0,0,0,0,0,-0.072929,-0.049177,0.002004,1,0,0,0,0,0,0,0.073033,-0.063588,-0.001787,1,0,0,0,0,0,0
3.990000,-0.009278,0.095812,-0.001155,1,0,0,0,0,0,0,-0.070467,-0.048862,0.001970,1,0,0,0,0,0,0,0.074870,-0.063151,-0.001785,1,0,0,0,0,0,0
4.000000,-0.008348,0.097132,-0.001125,1,0,0,0,0,0,0,-0.068141,-0.048591,0.001937,1,0,0,0,0,0,0,0.076898,-0.062997,-0.001807,1,0,0,0,0,0,0
4.010000,-0.007786,0.098791,-0.001096,1,0,0,0,0,0,0,-0.066060,-0.048401,0.001909,1,0,0,0,0,0,0,0.079097,-0.063142,-0.001854,1,0,0,0,0,0,0
4.020000,-0.007594,0.101032,-0.001071,1,0,0,0,0,0,0,-0.064426,-0.048396,0.001891,1,0,0,0,0,0,0,0.081602,-0.063730,-0.001939,1,0,0,0,0,0,0
4.030000,-0.007732,0.103830,-0.001050,1,0,0,0,0,0,0,-0.063260,-0.048555,0.001882,1,0,0,0,0,0,0,0.084408,-0.064777,-0.002066,1,0,0,0,0,0,0
4.040000,-0.008136,0.107016,-0.001036,1,0,0,0,0,0,0,-0.062511,-0.048815,0.001878,1,0,0,0,0,0,0,0.087456,-0.066215,-0.002230,1,0,0,0,0,0,0
4.050000,-0.008735,0.110382,-0.001027,1,0,0,0,0,0,0,-0.062116,-0.049120,0.001877,1,0,0,0,0,0,0,0.090650,-0.067917,-0.002422,1,0,0,0,0,0,0
4.060000,-0.009462,0.113750,-0.001023,1,0,0,0,0,0,0,-0.061993,-0.049427,0.001875,1,0,0,0,0,0,0,0.093877,-0.069723,-0.002629,1,0,0,0,0,0,0
4.070000,-0.010262,0.117002,-0.001025,1,0,0,0,0,0,0,-0.062074,-0.049717,0.001872,1,0,0,0,0,0,0,0.097032,-0.071474,-0.002836,1,0,0,0,0,0,0
4.080000,-0.011093,0.120098,-0.001030,1,0,0,0,0,0,0,-0.062344,-0.049986,0.001869,1,0,0,0,0,0,0,0.100083,-0.073062,-0.003032,1,0,0,0,0,0,0
4.090000,-0.011921,0.123061,-0.001041,1,0,0,0,0,0,0,-0.062769,-0.050221,0.001865,1,0,0,0,0,0,0,0.103041,-0.074423,-0.003209,1,0,0,0,0,0,0
4.100000,-0.012715,0.125943,-0.001056,1,0,0,0,0,0,0,-0.063288,-0.050386,0.001857,1,0,0,0,0,0,0,0.105947,-0.075532,-0.003363,1,0,0,0,0,0,0
4.110000,-0.013441,0.128787,-0.001077,1,0,0,0,0,0,0,-0.063829,-0.050423,0.001843,1,0,0,0,0,0,0,0.108823,-0.076397,-0.003495,1,0,0,0,0,0,0
4.120000,-0.014047,0.131596,-0.001101,1,0,0,0,0,0,0,-0.064312,-0.050271,0.001818,1,0,0,0,0,0,0,0.111634,-0.077046,-0.003607,1,0,0,0,0,0,0
4.130000,-0.014468,0.134296,-0.001128,1,0,0,0,0,0,0,-0.064698,-0.049886,0.001781,1,0,0,0,0,0,0,0.114298,-0.077509,-0.003701,1,0,0,0,0,0,0
4.140000,-0.014633,0.136785,-0.001154,1,0,0,0,0,0,0,-0.064988,-0.049235,0.001727,1,0,0,0,0,0,0,0.116697,-0.077795,-0.003777,1,0,0,0,0,0,0
4.150000,-0.014486,0.138975,-0.001177,1,0,0,0,0,0,0,-0.065176,-0.048314,0.001658,1,0,0,0,0,0,0,0.118725,-0.077885,-0.003833,1,0,0,0,0,0,0
4.160000,-0.014000,0.140840,-0.001194,1,0,0,0,0,0,0,-0.065249,-0.047156,0.001576,1,0,0,0,0,0,0,0.120330,-0.077744,-0.003864,1,0,0,0,0,0,0
4.170000,-0.013184,0.142406,-0.001203,1,0,0,0,0,0,0,-0.065181,-0.045818,0.001485,1,0,0,0,0,0,0,0.121536,-0.077356,-0.003865,1,0,0,0,0,0,0
4.180000,-0.012085,0.143697,-0.001205,1,0,0,0,0,0,0,-0.064940,-0.044359,0.001389,1,0,0,0,0,0,0,0.122414,-0.076737,-0.003839,1,0,0,0,0,0,0
4.190000,-0.010774,0.144710,-0.001199,1,0,0,0,0,0,0,-0.064515,-0.042809,0.001290,1,0,0,0,0,0,0,0.123041,-0.075938,-0.003792,1,0,0,0,0,0,0
4.200000,-0.009331,0.145412,-0.001183,1,0,0,0,0,0,0,-0.063898,-0.041189,0.001190,1,0,0,0,0,0,0,0.123500,-0.075046,-0.003734,1,0,0,0,0,0,0
4.210000,-0.007839,0.145748,-0.001158,1,0,0,0,0,0,0,-0.063088,-0.039516,0.001090,1,0,0,0,0,0,0,0.123852,-0.074167,-0.003678,1,0,0,0,0,0,0
4.220000,-0.006371,0.145679,-0.001125,1,0,0,0,0,0,0,-0.062077,-0.037807,0.000991,1,0,0,0,0,0,0,0.124086,-0.073385,-0.003636,1,0,0,0,0,0,0
4.230000,-0.004983,0.145221,-0.001085,1,0,0,0,0,0,0,-0.060857,-0.036079,0.000895,1,0,0,0,0,0,0,0.124159,-0.072749,-0.003611,1,0,0,0,0,0,0
4.240000,-0.003722,0.144423,-0.001041,1,0,0,0,0,0,0,-0.059421,-0.034350,0.000802,1,0,0,0,0,0,0,0.124011,-0.072269,-0.003606,1,0,0,0,0,0,0
4.250000,-0.002618,0.143358,-0.000993,1,0,0,0,0,0,0,-0.057759,-0.032631,0.000713,1,0,0,0,0,0,0,0.123590,-0.071921,-0.003617,1,0,0,0,0,0,0
4.260000,-0.001689,0.142097,-0.000943,1,0,0,0,0,0,0,-0.055867,-0.030923,0.000629,1,0,0,0,0,0,0,0.122872,-0.071668,-0.003637,1,0,0,0,0,0,0
4.270000,-0.000954,0.140700,-0.000892,1,0,0,0,0,0,0,-0.053750,-0.029226,0.000550,1,0,0,0,0,0,0,0.121856,-0.071453,-0.003659,1,0,0,0,0,0,0
4.280000,-0.000418,0.139186,-0.000842,1,0,0,0,0,0,0,-0.051416,-0.027536,0.000475,1,0,0,0,0,0,0,0.120565,-0.071225,-0.003675,1,0,0,0,0,0,0
4.290000,-0.000085,0.137554,-0.000793,1,0,0,0,0,0,0,-0.048884,-0.025848,0.000404,1,0,0,0,0,0,0,0.119064,-0.070990,-0.003687,1,0,0,0,0,0,0
4.300000,0.000037,0.135802,-0.000745,1,0,0,0,0,0,0,-0.046158,-0.024180,0.000338,1,0,0,0,0,0,0,0.117405,-0.070731,-0.003691,1,0,0,0,0,0,0
4.310000,-0.000058,0.133939,-0.000699,1,0,0,0,0,0,0,-0.043255,-0.022542,0.000278,1,0,0,0,0,0,0,0.115645,-0.070440,-0.003688,1,0,0,0,0,0,0
4.320000,-0.000363,0.131974,-0.000655,1,0,0,0,0,0,0,-0.040205,-0.020940,0.000224,1,0,0,0,0,0,0,0.113850,-0.070143,-0.003679,1,0,0,0,0,0,0
4.330000,-0.000853,0.129915,-0.000614,1,0,0,0,0,0,0,-0.037040,-0.019390,0.000176,1,0,0,0,0,0,0,0.112089,-0.069890,-0.003672,1,0,0,0,0,0,0
