time,drone0_roll,drone0_pitch,drone0_yaw,drone0_des_qw,drone0_des_qx,drone0_des_qy,drone0_des_qz,drone0_err_x,drone0_err_y,drone0_err_z,drone1_roll,drone1_pitch,drone1_yaw,drone1_des_qw,drone1_des_qx,drone1_des_qy,drone1_des_qz,drone1_err_x,drone1_err_y,drone1_err_z,drone2_roll,drone2_pitch,drone2_yaw,drone2_des_qw,drone2_des_qx,drone2_des_qy,drone2_des_qz,drone2_err_x,drone2_err_y,drone2_err_z
0.000000,0.000000,0.000000,0.000000,1,0,0,0,0,0,0,0.000000,0.000000,0.000000,1,0,0,0,0,0,0,0.000000,0.000000,0.000000,1,0,0,0,0,0,0
0.010000,0.000001,-0.000001,-0.000000,1,0,0,0,0,0,0,0.000001,-0.000001,-0.000000,1,0,0,0,0,0,0,0.000001,-0.000001,-0.000000,1,0,0,0,0,0,0
0.020000,0.000003,-0.000006,-0.000000,1,0,0,0,0,0,0,0.000003,-0.000006,-0.000000,1,0,0,0,0,0,0,0.000003,-0.000006,-0.000000,1,0,0,0,0,0,0
0.030000,0.000008,-0.000016,-0.000000,1,0,0,0,0,0,0,0.000008,-0.000016,-0.000000,1,0,0,0,0,0,0,0.000008,-0.000016,-0.000000,1,0,0,0,0,0,0
0.040000,0.000015,0.000098,0.000000,1,0,0,0,0,0,0,0.000015,-0.000030,-0.000000,1,0,0,0,0,0,0,0.000015,-0.000030,-0.000000,1,0,0,0,0,0,0
0.050000,0.000025,0.000256,0.000000,1,0,0,0,0,0,0,0.000025,-0.000049,-0.000000,1,0,0,0,0,0,0,0.000121,-0.000102,-0.000000,1,0,0,0,0,0,0
0.060000,0.000037,0.000555,0.000000,1,0,0,0,0,0,0,-0.000148,-0.000176,0.000000,1,0,0,0,0,0,0,0.000291,-0.000217,-0.000000,1,0,0,0,0,0,0
0.070000,0.000050,0.000988,0.000000,1,0,0,0,0,0,0,-0.000286,-0.000292,0.000000,1,0,0,0,0,0,0,0.000524,-0.000369,-0.000000,1,0,0,0,0,0,0
0.080000,0.000066,0.001552,0.000000,1,0,0,0,0,0,0,-0.000547,-0.000480,0.000000,1,0,0,0,0,0,0,0.000875,-0.000593,-0.000000,1,0,0,0,0,0,0
0.090000,0.000083,0.002254,0.000000,1,0,0,0,0,0,0,-0.000873,-0.000713,0.000000,1,0,0,0,0,0,0,0.001327,-0.000876,-0.000001,1,0,0,0,0,0,0
0.100000,0.000102,0.003099,0.000000,1,0,0,0,0,0,0,-0.001303,-0.001008,0.000001,1,0,0,0,0,0,0,0.001862,-0.001212,-0.000001,1,0,0,0,0,0,0
0.110000,0.000122,0.004094,0.000000,1,0,0,0,0,0,0,-0.001802,-0.001349,0.000001,1,0,0,0,0,0,0,0.002523,-0.001621,-0.000002,1,0,0,0,0,0,0
0.120000,0.000144,0.005245,0.000000,1,0,0,0,0,0,0,-0.002426,-0.001763,0.000002,1,0,0,0,0,0,0,0.003290,-0.002093,-0.000003,1,0,0,0,0,0,0
0.130000,0.000167,0.006545,0.000001,1,0,0,0,0,0,0,-0.003126,-0.002226,0.000003,1,0,0,0,0,0,0,0.004166,-0.002630,-0.000005,1,0,0,0,0,0,0
0.140000,0.000190,0.007952,0.000001,1,0,0,0,0,0,0,-0.003940,-0.002756,0.000005,1,0,0,0,0,0,0,0.005167,-0.003241,-0.000008,1,0,0,0,0,0,0
0.150000,0.000215,0.009431,0.000001,1,0,0,0,0,0,0,-0.004873,-0.003357,0.000008,1,0,0,0,0,0,0,0.006300,-0.003929,-0.000012,1,0,0,0,0,0,0
0.160000,0.000240,0.010958,0.000002,1,0,0,0,0,0,0,-0.005921,-0.004026,0.000011,1,0,0,0,0,0,0,0.007568,-0.004696,-0.000017,1,0,0,0,0,0,0
0.170000,0.000266,0.012525,0.000002,1,0,0,0,0,0,0,-0.007097,-0.004771,0.000016,1,0,0,0,0,0,0,0.008948,-0.005529,-0.000024,1,0,0,0,0,0,0
0.180000,0.000293,0.014119,0.000002,1,0,0,0,0,0,0,-0.008403,-0.005591,0.000023,1,0,0,0,0,0,0,0.010392,-0.006401,-0.000033,1,0,0,0,0,0,0
0.190000,0.000319,0.015722,0.000003,1,0,0,0,0,0,0,-0.009796,-0.006464,0.000031,1,0,0,0,0,0,0,0.011874,-0.007295,-0.000043,1,0,0,0,0,0,0
0.200000,0.000346,0.017303,0.000003,1,0,0,0,0,0,0,-0.011234,-0.007364,0.000040,1,0,0,0,0,0,0,0.013385,-0.008207,-0.000054,1,0,0,0,0,0,0
0.210000,0.000373,0.018839,0.000004,1,0,0,0,0,0,0,-0.012698,-0.008281,0.000051,1,0,0,0,0,0,0,0.014916,-0.009131,-0.000067,1,0,0,0,0,0,0
0.220000,0.000400,0.020344,0.000004,1,0,0,0,0,0,0,-0.014185,-0.009210,0.000064,1,0,0,0,0,0,0,0.016441,-0.010052,-0.000082,1,0,0,0,0,0,0
0.230000,0.000427,0.021829,0.000005,1,0,0,0,0,0,0,-0.015676,-0.010142,0.000077,1,0,0,0,0,0,0,0.017926,-0.010950,-0.000097,1,0,0,0,0,0,0
0.240000,0.000453,0.023285,0.000006,1,0,0,0,0,0,0,-0.017140,-0.011057,0.000093,1,0,0,0,0,0,0,0.019344,-0.011808,-0.000113,1,0,0,0,0,0,0
0.250000,0.000479,0.024711,0.000006,1,0,0,0,0,0,0,-0.018535,-0.011932,0.000108,1,0,0,0,0,0,0,0.020700,-0.012631,-0.000130,1,0,0,0,0,0,0
0.260000,0.000504,0.026106,0.000007,1,0,0,0,0,0,0,-0.019848,-0.012759,0.000124,1,0,0,0,0,0,0,0.022006,-0.013423,-0.000147,1,0,0,0,0,0,0
0.270000,0.000529,0.027466,0.000008,1,0,0,0,0,0,0,-0.021095,-0.013545,0.000140,1,0,0,0,0,0,0,0.023265,-0.014186,-0.000164,1,0,0,0,0,0,0
0.280000,0.000552,0.028778,0.000008,1,0,0,0,0,0,0,-0.022282,-0.014293,0.000157,1,0,0,0,0,0,0,0.024480,-0.014923,-0.000181,1,0,0,0,0,0,0
0.290000,0.000575,0.030022,0.000009,1,0,0,0,0,0,0,-0.023415,-0.015008,0.000173,1,0,0,0,0,0,0,0.025652,-0.015633,-0.000199,1,0,0,0,0,0,0
0.300000,0.000597,0.031177,0.000010,1,0,0,0,0,0,0,-0.024501,-0.015692,0.000190,1,0,0,0,0,0,0,0.026773,-0.016312,-0.000217,1,0,0,0,0,0,0
0.310000,0.000618,0.032226,0.000010,1,0,0,0,0,0,0,-0.025535,-0.016344,0.000206,1,0,0,0,0,0,0,0.027826,-0.016951,-0.000235,1,0,0,0,0,0,0
0.320000,0.000638,0.033162,0.000011,1,0,0,0,0,0,0,-0.026505,-0.016955,0.000222,1,0,0,0,0,0,0,0.028792,-0.017539,-0.000251,1,0,0,0,0,0,0
0.330000,0.000656,0.033980,0.000011,1,0,0,0,0,0,0,-0.027391,-0.017516,0.000237,1,0,0,0,0,0,0,0.029654,-0.018065,-0.000267,1,0,0,0,0,0,0
0.340000,0.000674,0.034668,0.000012,1,0,0,0,0,0,0,-0.028176,-0.018016,0.000251,1,0,0,0,0,0,0,0.030403,-0.018524,-0.000281,1,0,0,0,0,0,0
0.350000,0.000690,0.035211,0.000012,1,0,0,0,0,0,0,-0.028849,-0.018448,0.000264,1,0,0,0,0,0,0,0.031033,-0.018912,-0.000293,1,0,0,0,0,0,0
0.360000,0.000705,0.035598,0.000012,1,0,0,0,0,0,0,-0.029405,-0.018810,0.000275,1,0,0,0,0,0,0,0.031537,-0.019227,-0.000302,1,0,0,0,0,0,0
0.370000,0.000719,0.035828,0.000013,1,0,0,0,0,0,0,-0.029838,-0.019097,0.000283,1,0,0,0,0,0,0,0.031905,-0.019460,-0.000310,1,0,0,0,0,0,0
0.380000,0.000731,0.035903,0.000013,1,0,0,0,0,0,0,-0.030141,-0.019305,0.000290,1,0,0,0,0,0,0,0.032127,-0.019608,-0.000315,1,0,0,0,0,0,0
0.390000,0.000743,0.035828,0.000013,1,0,0,0,0,0,0,-0.030303,-0.019429,0.000293,1,0,0,0,0,0,0,0.032201,-0.019668,-0.000317,1,0,0,0,0,0,0
0.400000,0.000752,0.035610,0.000012,1,0,0,0,0,0,0,-0.030321,-0.019467,0.000295,1,0,0,0,0,0,0,0.032128,-0.019641,-0.000316,1,0,0,0,0,0,0
0.410000,0.000761,0.035257,0.000012,1,0,0,0,0,0,0,-0.030197,-0.019420,0.000293,1,0,0,0,0,0,0,0.031914,-0.019531,-0.000312,1,0,0,0,0,0,0
0.420000,0.000769,0.034775,0.000012,1,0,0,0,0,0,0,-0.029933,-0.019288,0.000289,1,0,0,0,0,0,0,0.031564,-0.019339,-0.000306,1,0,0,0,0,0,0
0.430000,0.000775,0.034171,0.000012,1,0,0,0,0,0,0,-0.029535,-0.019074,0.000283,1,0,0,0,0,0,0,0.031083,-0.019070,-0.000298,1,0,0,0,0,0,0
0.440000,0.000780,0.033449,0.000011,1,0,0,0,0,0,0,-0.029006,-0.018781,0.000274,1,0,0,0,0,0,0,0.030479,-0.018727,-0.000287,1,0,0,0,0,0,0
0.450000,0.000784,0.032617,0.000011,1,0,0,0,0,0,0,-0.028348,-0.018411,0.000264,1,0,0,0,0,0,0,0.029759,-0.018315,-0.000275,1,0,0,0,0,0,0
0.460000,0.000787,0.031684,0.000010,1,0,0,0,0,0,0,-0.027569,-0.017967,0.000251,1,0,0,0,0,0,0,0.028930,-0.017839,-0.000260,1,0,0,0,0,0,0
0.470000,0.000790,0.030660,0.000009,1,0,0,0,0,0,0,-0.026675,-0.017454,0.000237,1,0,0,0,0,0,0,0.028001,-0.017303,-0.000245,1,0,0,0,0,0,0
0.480000,0.000791,0.029553,0.000009,1,0,0,0,0,0,0,-0.025676,-0.016877,0.000222,1,0,0,0,0,0,0,0.026980,-0.016713,-0.000229,1,0,0,0,0,0,0
0.490000,0.000791,0.028382,0.000008,1,0,0,0,0,0,0,-0.024582,-0.016243,0.000205,1,0,0,0,0,0,0,0.025875,-0.016072,-0.000211,1,0,0,0,0,0,0
0.500000,0.000791,0.027164,0.000007,1,0,0,0,0,0,0,-0.023402,-0.015556,0.000188,1,0,0,0,0,0,0,0.024697,-0.015388,-0.000194,1,0,0,0,0,0,0
0.510000,0.000790,0.025918,0.000006,1,0,0,0,0,0,0,-0.022144,-0.014823,0.000171,1,0,0,0,0,0,0,0.023456,-0.014665,-0.000176,1,0,0,0,0,0,0
0.520000,0.000788,0.024669,0.000006,1,0,0,0,0,0,0,-0.020820,-0.014048,0.000154,1,0,0,0,0,0,0,0.022161,-0.013911,-0.000159,1,0,0,0,0,0,0
0.530000,0.000785,0.023441,0.000005,1,0,0,0,0,0,0,-0.019439,-0.013240,0.000138,1,0,0,0,0,0,0,0.020823,-0.013130,-0.000142,1,0,0,0,0,0,0
0.540000,0.000782,0.022265,0.000004,1,0,0,0,0,0,0,-0.018014,-0.012403,0.000121,1,0,0,0,0,0,0,0.019452,-0.012330,-0.000125,1,0,0,0,0,0,0
0.550000,0.000778,0.021178,0.000004,1,0,0,0,0,0,0,-0.016552,-0.011544,0.000106,1,0,0,0,0,0,0,0.018064,-0.011519,-0.000110,1,0,0,0,0,0,0
0.560000,0.000774,0.020221,0.000003,1,0,0,0,0,0,0,-0.015064,-0.010669,0.000091,1,0,0,0,0,0,0,0.016675,-0.010707,-0.000095,1,0,0,0,0,0,0
0.570000,0.000769,0.019437,0.000003,1,0,0,0,0,0,0,-0.013563,-0.009785,0.000078,1,0,0,0,0,0,0,0.015304,-0.009906,-0.000082,1,0,0,0,0,0,0
0.580000,0.000763,0.018862,0.000003,1,0,0,0,0,0,0,-0.012064,-0.008901,0.000066,1,0,0,0,0,0,0,0.013974,-0.009129,-0.000070,1,0,0,0,0,0,0
0.590000,0.000756,0.018513,0.000003,1,0,0,0,0,0,0,-0.010584,-0.008028,0.000055,1,0,0,0,0,0,0,0.012714,-0.008393,-0.000060,1,0,0,0,0,0,0
0.600000,0.000749,0.018379,0.000003,1,0,0,0,0,0,0,-0.009143,-0.007177,0.000046,1,0,0,0,0,0,0,0.011558,-0.007718,-0.000051,1,0,0,0,0,0,0
0.610000,0.000740,0.018449,0.000003,1,0,0,0,0,0,0,-0.007765,-0.006364,0.000038,1,0,0,0,0,0,0,0.010546,-0.007130,-0.000044,1,0,0,0,0,0,0
0.620000,0.000729,0.018703,0.000004,1,0,0,0,0,0,0,-0.006483,-0.005607,0.000032,1,0,0,0,0,0,0,0.009721,-0.006653,-0.000039,1,0,0,0,0,0,0
0.630000,0.000718,0.019083,0.000004,1,0,0,0,0,0,0,-0.005335,-0.004929,0.000027,1,0,0,0,0,0,0,0.009121,-0.006311,-0.000036,1,0,0,0,0,0,0
0.640000,0.000705,0.019515,0.000004,1,0,0,0,0,0,0,-0.004362,-0.004355,0.000024,1,0,0,0,0,0,0,0.008765,-0.006117,-0.000033,1,0,0,0,0,0,0
0.650000,0.000692,0.019945,0.000005,1,0,0,0,0,0,0,-0.003606,-0.003911,0.000021,1,0,0,0,0,0,0,0.008645,-0.006066,-0.000033,1,0,0,0,0,0,0
0.660000,0.000677,0.020343,0.000005,1,0,0,0,0,0,0,-0.003098,-0.003615,0.000019,1,0,0,0,0,0,0,0.008759,-0.006157,-0.000033,1,0,0,0,0,0,0
0.670000,0.000662,0.020705,0.000006,1,0,0,0,0,0,0,-0.002846,-0.003473,0.000018,1,0,0,0,0,0,0,0.009086,-0.006380,-0.000035,1,0,0,0,0,0,0
0.680000,0.000645,0.021055,0.000006,1,0,0,0,0,0,0,-0.002847,-0.003483,0.000017,1,0,0,0,0,0,0,0.009554,-0.006691,-0.000037,1,0,0,0,0,0,0
0.690000,0.000627,0.021416,0.000006,1,0,0,0,0,0,0,-0.003102,-0.003647,0.000017,1,0,0,0,0,0,0,0.010069,-0.007034,-0.000040,1,0,0,0,0,0,0
0.700000,0.000608,0.021790,0.000007,1,0,0,0,0,0,0,-0.003568,-0.003939,0.000017,1,0,0,0,0,0,0,0.010562,-0.007365,-0.000043,1,0,0,0,0,0,0
0.710000,0.000586,0.022157,0.000007,1,0,0,0,0,0,0,-0.004149,-0.004303,0.000018,1,0,0,0,0,0,0,0.011002,-0.007665,-0.000046,1,0,0,0,0,0,0
0.720000,0.000564,0.022493,0.000007,1,0,0,0,0,0,0,-0.004751,-0.004681,0.000019,1,0,0,0,0,0,0,0.011386,-0.007929,-0.000049,1,0,0,0,0,0,0
0.730000,0.000540,0.022768,0.000007,1,0,0,0,0,0,0,-0.005319,-0.005039,0.000020,1,0,0,0,0,0,0,0.011731,-0.008168,-0.000051,1,0,0,0,0,0,0
0.740000,0.000516,0.022965,0.000007,1,0,0,0,0,0,0,-0.005832,-0.005363,0.000022,1,0,0,0,0,0,0,0.012083,-0.008411,-0.000054,1,0,0,0,0,0,0
0.750000,0.000493,0.023078,0.000007,1,0,0,0,0,0,0,-0.006292,-0.005652,0.000023,1,0,0,0,0,0,0,0.012483,-0.008683,-0.000057,1,0,0,0,0,0,0
0.760000,0.000469,0.023117,0.000007,1,0,0,0,0,0,0,-0.006730,-0.005925,0.000024,1,0,0,0,0,0,0,0.012932,-0.008988,-0.000061,1,0,0,0,0,0,0
0.770000,0.000446,0.023091,0.000007,1,0,0,0,0,0,0,-0.007209,-0.006222,0.000026,1,0,0,0,0,0,0,0.013427,-0.009324,-0.000065,1,0,0,0,0,0,0
0.780000,0.000423,0.023014,0.000007,1,0,0,0,0,0,0,-0.007751,-0.006555,0.000028,1,0,0,0,0,0,0,0.013954,-0.009683,-0.000070,1,0,0,0,0,0,0
0.790000,0.000401,0.022904,0.000007,1,0,0,0,0,0,0,-0.008363,-0.006931,0.000031,1,0,0,0,0,0,0,0.014496,-0.010054,-0.000075,1,0,0,0,0,0,0
0.800000,0.000380,0.022786,0.000007,1,0,0,0,0,0,0,-0.009040,-0.007347,0.000035,1,0,0,0,0,0,0,0.015027,-0.010419,-0.000080,1,0,0,0,0,0,0
0.810000,0.000360,0.022682,0.000006,1,0,0,0,0,0,0,-0.009779,-0.007801,0.000039,1,0,0,0,0,0,0,0.015523,-0.010763,-0.000085,1,0,0,0,0,0,0
0.820000,0.000341,0.022614,0.000006,1,0,0,0,0,0,0,-0.010575,-0.008291,0.000044,1,0,0,0,0,0,0,0.015969,-0.011073,-0.000090,1,0,0,0,0,0,0
0.830000,0.000324,0.022599,0.000006,1,0,0,0,0,0,0,-0.011405,-0.008801,0.000049,1,0,0,0,0,0,0,0.016362,-0.011346,-0.000094,1,0,0,0,0,0,0
0.840000,0.000308,0.022647,0.000006,1,0,0,0,0,0,0,-0.012231,-0.009309,0.000055,1,0,0,0,0,0,0,0.016706,-0.011586,-0.000098,1,0,0,0,0,0,0
0.850000,0.000292,0.022771,0.000006,1,0,0,0,0,0,0,-0.013022,-0.009794,0.000062,1,0,0,0,0,0,0,0.017008,-0.011793,-0.000102,1,0,0,0,0,0,0
0.860000,0.000278,0.022981,0.000006,1,0,0,0,0,0,0,-0.013763,-0.010246,0.000068,1,0,0,0,0,0,0,0.017272,-0.011972,-0.000105,1,0,0,0,0,0,0
0.870000,0.000265,0.023286,0.000006,1,0,0,0,0,0,0,-0.014451,-0.010664,0.000074,1,0,0,0,0,0,0,0.017509,-0.012128,-0.000107,1,0,0,0,0,0,0
0.880000,0.000253,0.023684,0.000006,1,0,0,0,0,0,0,-0.015087,-0.011045,0.000080,1,0,0,0,0,0,0,0.017733,-0.012269,-0.000110,1,0,0,0,0,0,0
0.890000,0.000241,0.024166,0.000006,1,0,0,0,0,0,0,-0.015666,-0.011390,0.000085,1,0,0,0,0,0,0,0.017958,-0.012405,-0.000112,1,0,0,0,0,0,0
0.900000,0.000230,0.024715,0.000006,1,0,0,0,0,0,0,-0.016193,-0.011699,0.000090,1,0,0,0,0,0,0,0.018205,-0.012548,-0.000115,1,0,0,0,0,0,0
0.910000,0.000219,0.025312,0.000006,1,0,0,0,0,0,0,-0.016675,-0.011978,0.000095,1,0,0,0,0,0,0,0.018495,-0.012713,-0.000118,1,0,0,0,0,0,0
0.920000,0.000209,0.025949,0.000005,1,0,0,0,0,0,0,-0.017124,-0.012234,0.000100,1,0,0,0,0,0,0,0.018849,-0.012910,-0.000121,1,0,0,0,0,0,0
0.930000,0.000200,0.026646,0.000005,1,0,0,0,0,0,0,-0.017558,-0.012476,0.000104,1,0,0,0,0,0,0,0.019280,-0.013153,-0.000126,1,0,0,0,0,0,0
0.940000,0.000191,0.027442,0.000005,1,0,0,0,0,0,0,-0.018001,-0.012721,0.000109,1,0,0,0,0,0,0,0.019798,-0.013445,-0.000132,1,0,0,0,0,0,0
0.950000,0.000182,0.028391,0.000005,1,0,0,0,0,0,0,-0.018479,-0.012982,0.000114,1,0,0,0,0,0,0,0.020399,-0.013787,-0.000139,1,0,0,0,0,0,0
0.960000,0.000174,0.029534,0.000006,1,0,0,0,0,0,0,-0.019006,-0.013271,0.000120,1,0,0,0,0,0,0,0.021067,-0.014170,-0.000147,1,0,0,0,0,0,0
0.970000,0.000167,0.030872,0.000006,1,0,0,0,0,0,0,-0.019590,-0.013592,0.000126,1,0,0,0,0,0,0,0.021780,-0.014581,-0.000156,1,0,0,0,0,0,0
0.980000,0.000161,0.032373,0.000006,1,0,0,0,0,0,0,-0.020230,-0.013946,0.000134,1,0,0,0,0,0,0,0.022504,-0.015000,-0.000165,1,0,0,0,0,0,0
0.990000,0.000157,0.033998,0.000006,1,0,0,0,0,0,0,-0.020930,-0.014336,0.000142,1,0,0,0,0,0,0,0.023208,-0.015409,-0.000175,1,0,0,0,0,0,0
1.000000,0.000154,0.035722,0.000006,1,0,0,0,0,0,0,-0.021687,-0.014760,0.000152,1,0,0,0,0,0,0,0.023879,-0.015798,-0.000184,1,0,0,0,0,0,0
1.010000,0.000154,0.037517,0.000006,1,0,0,0,0,0,0,-0.022482,-0.015209,0.000162,1,0,0,0,0,0,0,0.024522,-0.016170,-0.000193,1,0,0,0,0,0,0
1.020000,0.000154,0.039347,0.000006,1,0,0,0,0,0,0,-0.023276,-0.015658,0.000173,1,0,0,0,0,0,0,0.025143,-0.016528,-0.000202,1,0,0,0,0,0,0
1.030000,0.000156,0.041160,0.000006,1,0,0,0,0,0,0,-0.024025,-0.016083,0.000183,1,0,0,0,0,0,0,0.025767,-0.016888,-0.000212,1,0,0,0,0,0,0
1.040000,0.000160,0.042922,0.000006,1,0,0,0,0,0,0,-0.024699,-0.016466,0.000193,1,0,0,0,0,0,0,0.026459,-0.017288,-0.000223,1,0,0,0,0,0,0
1.050000,0.000164,0.044714,0.000006,1,0,0,0,0,0,0,-0.025296,-0.016804,0.000202,1,0,0,0,0,0,0,0.027252,-0.017749,-0.000235,1,0,0,0,0,0,0
1.060000,0.000170,0.046591,0.000006,1,0,0,0,0,0,0,-0.025836,-0.017110,0.000211,1,0,0,0,0,0,0,0.028154,-0.018278,-0.000250,1,0,0,0,0,0,0
1.070000,0.000177,0.048564,0.000007,1,0,0,0,0,0,0,-0.026359,-0.017409,0.000219,1,0,0,0,0,0,0,0.029163,-0.018874,-0.000268,1,0,0,0,0,0,0
1.080000,0.000185,0.050635,0.000007,1,0,0,0,0,0,0,-0.026884,-0.017714,0.000228,1,0,0,0,0,0,0,0.030279,-0.019538,-0.000288,1,0,0,0,0,0,0
1.090000,0.000194,0.052798,0.000007,1,0,0,0,0,0,0,-0.027430,-0.018036,0.000237,1,0,0,0,0,0,0,0.031490,-0.020261,-0.000311,1,0,0,0,0,0,0
1.100000,0.000205,0.055017,0.000007,1,0,0,0,0,0,0,-0.028015,-0.018385,0.000248,1,0,0,0,0,0,0,0.032768,-0.021027,-0.000336,1,0,0,0,0,0,0
1.110000,0.000218,0.057252,0.000008,1,0,0,0,0,0,0,-0.028650,-0.018768,0.000259,1,0,0,0,0,0,0,0.034065,-0.021807,-0.000362,1,0,0,0,0,0,0
1.120000,0.000232,0.059476,0.000008,1,0,0,0,0,0,0,-0.029345,-0.019191,0.000272,1,0,0,0,0,0,0,0.035321,-0.022564,-0.000389,1,0,0,0,0,0,0
1.130000,0.000247,0.061649,0.000009,1,0,0,0,0,0,0,-0.030094,-0.019650,0.000286,1,0,0,0,0,0,0,0.036501,-0.023279,-0.000415,1,0,0,0,0,0,0
1.140000,0.000262,0.063713,0.000009,1,0,0,0,0,0,0,-0.030889,-0.020141,0.000302,1,0,0,0,0,0,0,0.037645,-0.023972,-0.000442,1,0,0,0,0,0,0
1.150000,0.000276,0.065643,0.000010,1,0,0,0,0,0,0,-0.031724,-0.020658,0.000318,1,0,0,0,0,0,0,0.038788,-0.024667,-0.000469,1,0,0,0,0,0,0
1.160000,0.000289,0.067444,0.000010,1,0,0,0,0,0,0,-0.032565,-0.021183,0.000336,1,0,0,0,0,0,0,0.039925,-0.025362,-0.000497,1,0,0,0,0,0,0
1.170000,0.000299,0.069112,0.000011,1,0,0,0,0,0,0,-0.033329,-0.021665,0.000352,1,0,0,0,0,0,0,0.041050,-0.026056,-0.000525,1,0,0,0,0,0,0
1.180000,0.000305,0.070655,0.000011,1,0,0,0,0,0,0,-0.033973,-0.022077,0.000367,1,0,0,0,0,0,0,0.042164,-0.026750,-0.000555,1,0,0,0,0,0,0
1.190000,0.000307,0.072083,0.000011,1,0,0,0,0,0,0,-0.034496,-0.022417,0.000379,1,0,0,0,0,0,0,0.043270,-0.027448,-0.000585,1,0,0,0,0,0,0
1.200000,0.000304,0.073414,0.000012,1,0,0,0,0,0,0,-0.034893,-0.022683,0.000388,1,0,0,0,0,0,0,0.044366,-0.028150,-0.000616,1,0,0,0,0,0,0
1.210000,0.000295,0.074663,0.000012,1,0,0,0,0,0,0,-0.035208,-0.022899,0.000397,1,0,0,0,0,0,0,0.045440,-0.028849,-0.000648,1,0,0,0,0,0,0
1.220000,0.000282,0.075837,0.000012,1,0,0,0,0,0,0,-0.035481,-0.023091,0.000404,1,0,0,0,0,0,0,0.046475,-0.029536,-0.000680,1,0,0,0,0,0,0
1.230000,0.000263,0.076932,0.000013,1,0,0,0,0,0,0,-0.035717,-0.023263,0.000410,1,0,0,0,0,0,0,0.047457,-0.030203,-0.000712,1,0,0,0,0,0,0
1.240000,0.000240,0.077942,0.000013,1,0,0,0,0,0,0,-0.035911,-0.023414,0.000416,1,0,0,0,0,0,0,0.048333,-0.030814,-0.000742,1,0,0,0,0,0,0
1.250000,0.000212,0.078859,0.000013,1,0,0,0,0,0,0,-0.036062,-0.023541,0.000421,1,0,0,0,0,0,0,0.049054,-0.031336,-0.000767,1,0,0,0,0,0,0
1.260000,0.000180,0.079668,0.000013,1,0,0,0,0,0,0,-0.036168,-0.023646,0.000425,1,0,0,0,0,0,0,0.049642,-0.031781,-0.000789,1,0,0,0,0,0,0
1.270000,0.000144,0.080348,0.000013,1,0,0,0,0,0,0,-0.036232,-0.023729,0.000428,1,0,0,0,0,0,0,0.050101,-0.032153,-0.000808,1,0,0,0,0,0,0
1.280000,0.000104,0.080876,0.000012,1,0,0,0,0,0,0,-0.036258,-0.023793,0.000431,1,0,0,0,0,0,0,0.050430,-0.032452,-0.000823,1,0,0,0,0,0,0
1.290000,0.000061,0.081221,0.000012,1,0,0,0,0,0,0,-0.036254,-0.023845,0.000433,1,0,0,0,0,0,0,0.050621,-0.032673,-0.000834,1,0,0,0,0,0,0
1.300000,0.000017,0.081355,0.000011,1,0,0,0,0,0,0,-0.036226,-0.023889,0.000434,1,0,0,0,0,0,0,0.050667,-0.032808,-0.000841,1,0,0,0,0,0,0
1.310000,-0.000030,0.081280,0.000011,1,0,0,0,0,0,0,-0.036177,-0.023927,0.000435,1,0,0,0,0,0,0,0.050565,-0.032857,-0.000843,1,0,0,0,0,0,0
1.320000,-0.000080,0.080998,0.000010,1,0,0,0,0,0,0,-0.036106,-0.023959,0.000437,1,0,0,0,0,0,0,0.050312,-0.032816,-0.000840,1,0,0,0,0,0,0
1.330000,-0.000132,0.080497,0.000009,1,0,0,0,0,0,0,-0.036013,-0.023984,0.000437,1,0,0,0,0,0,0,0.049907,-0.032680,-0.000832,1,0,0,0,0,0,0
1.340000,-0.000186,0.079754,0.000009,1,0,0,0,0,0,0,-0.035898,-0.024003,0.000438,1,0,0,0,0,0,0,0.049352,-0.032451,-0.000820,1,0,0,0,0,0,0
1.350000,-0.000240,0.078750,0.000008,1,0,0,0,0,0,0,-0.035766,-0.024019,0.000438,1,0,0,0,0,0,0,0.048655,-0.032130,-0.000803,1,0,0,0,0,0,0
1.360000,-0.000294,0.077473,0.000007,1,0,0,0,0,0,0,-0.035627,-0.024038,0.000438,1,0,0,0,0,0,0,0.047823,-0.031723,-0.000782,1,0,0,0,0,0,0
1.370000,-0.000346,0.075925,0.000007,1,0,0,0,0,0,0,-0.035489,-0.024068,0.000439,1,0,0,0,0,0,0,0.046873,-0.031237,-0.000758,1,0,0,0,0,0,0
1.380000,-0.000396,0.074115,0.000006,1,0,0,0,0,0,0,-0.035357,-0.024111,0.000439,1,0,0,0,0,0,0,0.045821,-0.030683,-0.000731,1,0,0,0,0,0,0
1.390000,-0.000443,0.072061,0.000006,1,0,0,0,0,0,0,-0.035223,-0.024163,0.000441,1,0,0,0,0,0,0,0.044685,-0.030071,-0.000701,1,0,0,0,0,0,0
1.400000,-0.000486,0.069789,0.000006,1,0,0,0,0,0,0,-0.035068,-0.024211,0.000441,1,0,0,0,0,0,0,0.043483,-0.029411,-0.000670,1,0,0,0,0,0,0
1.410000,-0.000525,0.067330,0.000006,1,0,0,0,0,0,0,-0.034862,-0.024234,0.000441,1,0,0,0,0,0,0,0.042229,-0.028711,-0.000639,1,0,0,0,0,0,0
1.420000,-0.000557,0.064717,0.000006,1,0,0,0,0,0,0,-0.034579,-0.024210,0.000439,1,0,0,0,0,0,0,0.040943,-0.027984,-0.000606,1,0,0,0,0,0,0
1.430000,-0.000584,0.061983,0.000006,1,0,0,0,0,0,0,-0.034205,-0.024129,0.000435,1,0,0,0,0,0,0,0.039649,-0.027245,-0.000575,1,0,0,0,0,0,0
1.440000,-0.000605,0.059170,0.000006,1,0,0,0,0,0,0,-0.033740,-0.023987,0.000429,1,0,0,0,0,0,0,0.038357,-0.026500,-0.000544,1,0,0,0,0,0,0
1.450000,-0.000619,0.056312,0.000006,1,0,0,0,0,0,0,-0.033188,-0.023785,0.000421,1,0,0,0,0,0,0,0.037079,-0.025757,-0.000513,1,0,0,0,0,0,0
1.460000,-0.000625,0.053437,0.000007,1,0,0,0,0,0,0,-0.032555,-0.023524,0.000411,1,0,0,0,0,0,0,0.035824,-0.025021,-0.000484,1,0,0,0,0,0,0
1.470000,-0.000624,0.050563,0.000007,1,0,0,0,0,0,0,-0.031850,-0.023207,0.000399,1,0,0,0,0,0,0,0.034596,-0.024297,-0.000457,1,0,0,0,0,0,0
1.480000,-0.000615,0.047701,0.000007,1,0,0,0,0,0,0,-0.031084,-0.022841,0.000386,1,0,0,0,0,0,0,0.033393,-0.023581,-0.000430,1,0,0,0,0,0,0
1.490000,-0.000599,0.044861,0.000008,1,0,0,0,0,0,0,-0.030266,-0.022430,0.000371,1,0,0,0,0,0,0,0.032219,-0.022877,-0.000405,1,0,0,0,0,0,0
1.500000,-0.000576,0.042050,0.000008,1,0,0,0,0,0,0,-0.029416,-0.021984,0.000356,1,0,0,0,0,0,0,0.031091,-0.022195,-0.000381,1,0,0,0,0,0,0
1.510000,-0.000548,0.039265,0.000009,1,0,0,0,0,0,0,-0.028549,-0.021511,0.000341,1,0,0,0,0,0,0,0.030030,-0.021547,-0.000359,1,0,0,0,0,0,0
1.520000,-0.000514,0.036500,0.000009,1,0,0,0,0,0,0,-0.027669,-0.021012,0.000325,1,0,0,0,0,0,0,0.029039,-0.020935,-0.000339,1,0,0,0,0,0,0
1.530000,-0.000476,0.033764,0.000009,1,0,0,0,0,0,0,-0.026776,-0.020486,0.000308,1,0,0,0,0,0,0,0.028097,-0.020345,-0.000320,1,0,0,0,0,0,0
1.540000,-0.000434,0.031071,0.000009,1,0,0,0,0,0,0,-0.025866,-0.019931,0.000292,1,0,0,0,0,0,0,0.027176,-0.019759,-0.000301,1,0,0,0,0,0,0
1.550000,-0.000389,0.028441,0.000009,1,0,0,0,0,0,0,-0.024938,-0.019343,0.000275,1,0,0,0,0,0,0,0.026261,-0.019167,-0.000284,1,0,0,0,0,0,0
1.560000,-0.000341,0.025890,0.000009,1,0,0,0,0,0,0,-0.023987,-0.018722,0.000257,1,0,0,0,0,0,0,0.025338,-0.018560,-0.000266,1,0,0,0,0,0,0
1.570000,-0.000291,0.023427,0.000009,1,0,0,0,0,0,0,-0.023017,-0.018071,0.000240,1,0,0,0,0,0,0,0.024381,-0.017922,-0.000248,1,0,0,0,0,0,0
1.580000,-0.000240,0.021056,0.000009,1,0,0,0,0,0,0,-0.022039,-0.017398,0.000223,1,0,0,0,0,0,0,0.023362,-0.017238,-0.000230,1,0,0,0,0,0,0
1.590000,-0.000186,0.018776,0.000009,1,0,0,0,0,0,0,-0.021072,-0.016717,0.000206,1,0,0,0,0,0,0,0.022273,-0.016503,-0.000211,1,0,0,0,0,0,0
1.600000,-0.000129,0.016588,0.000009,1,0,0,0,0,0,0,-0.020135,-0.016038,0.000190,1,0,0,0,0,0,0,0.021123,-0.015724,-0.000193,1,0,0,0,0,0,0
1.610000,-0.000070,0.014495,0.000008,1,0,0,0,0,0,0,-0.019233,-0.015369,0.000175,1,0,0,0,0,0,0,0.019924,-0.014907,-0.000174,1,0,0,0,0,0,0
1.620000,-0.000009,0.012505,0.000008,1,0,0,0,0,0,0,-0.018352,-0.014702,0.000161,1,0,0,0,0,0,0,0.018685,-0.014059,-0.000156,1,0,0,0,0,0,0
1.630000,0.000055,0.010630,0.000007,1,0,0,0,0,0,0,-0.017460,-0.014024,0.000147,1,0,0,0,0,0,0,0.017417,-0.013187,-0.000139,1,0,0,0,0,0,0
1.640000,0.000122,0.008878,0.000007,1,0,0,0,0,0,0,-0.016526,-0.013318,0.000134,1,0,0,0,0,0,0,0.016132,-0.012298,-0.000123,1,0,0,0,0,0,0
1.650000,0.000191,0.007251,0.000006,1,0,0,0,0,0,0,-0.015537,-0.012578,0.000120,1,0,0,0,0,0,0,0.014842,-0.011400,-0.000107,1,0,0,0,0,0,0
1.660000,0.000263,0.005744,0.000005,1,0,0,0,0,0,0,-0.014512,-0.011815,0.000108,1,0,0,0,0,0,0,0.013557,-0.010501,-0.000093,1,0,0,0,0,0,0
1.670000,0.000335,0.004356,0.000005,1,0,0,0,0,0,0,-0.013476,-0.011042,0.000095,1,0,0,0,0,0,0,0.012286,-0.009606,-0.000080,1,0,0,0,0,0,0
1.680000,0.000408,0.003088,0.000004,1,0,0,0,0,0,0,-0.012433,-0.010260,0.000084,1,0,0,0,0,0,0,0.011034,-0.008721,-0.000068,1,0,0,0,0,0,0
1.690000,0.000482,0.001940,0.000003,1,0,0,0,0,0,0,-0.011379,-0.009468,0.000073,1,0,0,0,0,0,0,0.009807,-0.007848,-0.000058,1,0,0,0,0,0,0
1.700000,0.000556,0.000917,0.000002,1,0,0,0,0,0,0,-0.010309,-0.008664,0.000063,1,0,0,0,0,0,0,0.008603,-0.006989,-0.000049,1,0,0,0,0,0,0
1.710000,0.000629,0.000012,0.000002,1,0,0,0,0,0,0,-0.009225,-0.007852,0.000054,1,0,0,0,0,0,0,0.007413,-0.006138,-0.000041,1,0,0,0,0,0,0
1.720000,0.000702,-0.000782,0.000001,1,0,0,0,0,0,0,-0.008132,-0.007034,0.000046,1,0,0,0,0,0,0,0.006235,-0.005294,-0.000034,1,0,0,0,0,0,0
1.730000,0.000773,-0.001476,0.000000,1,0,0,0,0,0,0,-0.007038,-0.006216,0.000039,1,0,0,0,0,0,0,0.005073,-0.004461,-0.000028,1,0,0,0,0,0,0
1.740000,0.000842,-0.002089,-0.000000,1,0,0,0,0,0,0,-0.005953,-0.005406,0.000032,1,0,0,0,0,0,0,0.003940,-0.003645,-0.000023,1,0,0,0,0,0,0
1.750000,0.000909,-0.002630,-0.000001,1,0,0,0,0,0,0,-0.004890,-0.004612,0.000027,1,0,0,0,0,0,0,0.002854,-0.002858,-0.000020,1,0,0,0,0,0,0
1.760000,0.000974,-0.003106,-0.000001,1,0,0,0,0,0,0,-0.003861,-0.003842,0.000023,1,0,0,0,0,0,0,0.001824,-0.002104,-0.000017,1,0,0,0,0,0,0
1.770000,0.001037,-0.003519,-0.000002,1,0,0,0,0,0,0,-0.002880,-0.003106,0.000019,1,0,0,0,0,0,0,0.000862,-0.001391,-0.000015,1,0,0,0,0,0,0
1.780000,0.001097,-0.003869,-0.000002,1,0,0,0,0,0,0,-0.001960,-0.002412,0.000017,1,0,0,0,0,0,0,-0.000018,-0.000726,-0.000014,1,0,0,0,0,0,0
1.790000,0.001154,-0.004153,-0.000002,1,0,0,0,0,0,0,-0.001114,-0.001770,0.000015,1,0,0,0,0,0,0,-0.000796,-0.000123,-0.000013,1,0,0,0,0,0,0
1.800000,0.001208,-0.004365,-0.000003,1,0,0,0,0,0,0,-0.000359,-0.001192,0.000013,1,0,0,0,0,0,0,-0.001442,0.000403,-0.000013,1,0,0,0,0,0,0
1.810000,0.001259,-0.004502,-0.000003,1,0,0,0,0,0,0,0.000287,-0.000687,0.000013,1,0,0,0,0,0,0,-0.001932,0.000836,-0.000013,1,0,0,0,0,0,0
1.820000,0.001306,-0.004559,-0.000003,1,0,0,0,0,0,0,0.000807,-0.000270,0.000012,1,0,0,0,0,0,0,-0.002245,0.001162,-0.000013,1,0,0,0,0,0,0
1.830000,0.001350,-0.004530,-0.000003,1,0,0,0,0,0,0,0.001181,0.000047,0.000012,1,0,0,0,0,0,0,-0.002369,0.001374,-0.000013,1,0,0,0,0,0,0
1.840000,0.001390,-0.004410,-0.000003,1,0,0,0,0,0,0,0.001388,0.000253,0.000011,1,0,0,0,0,0,0,-0.002300,0.001466,-0.000012,1,0,0,0,0,0,0
1.850000,0.001426,-0.004196,-0.000002,1,0,0,0,0,0,0,0.001413,0.000336,0.000011,1,0,0,0,0,0,0,-0.002043,0.001440,-0.000011,1,0,0,0,0,0,0
1.860000,0.001457,-0.003888,-0.000002,1,0,0,0,0,0,0,0.001245,0.000291,0.000010,1,0,0,0,0,0,0,-0.001614,0.001303,-0.000011,1,0,0,0,0,0,0
1.870000,0.001483,-0.003489,-0.000001,1,0,0,0,0,0,0,0.000884,0.000120,0.000009,1,0,0,0,0,0,0,-0.001030,0.001065,-0.000010,1,0,0,0,0,0,0
1.880000,0.001503,-0.003006,-0.000001,1,0,0,0,0,0,0,0.000349,-0.000163,0.000008,1,0,0,0,0,0,0,-0.000302,0.000730,-0.000009,1,0,0,0,0,0,0
1.890000,0.001517,-0.002447,0.000000,1,0,0,0,0,0,0,-0.000349,-0.000550,0.000008,1,0,0,0,0,0,0,0.000552,0.000307,-0.000008,1,0,0,0,0,0,0
1.900000,0.001524,-0.001818,0.000001,1,0,0,0,0,0,0,-0.001190,-0.001027,0.000008,1,0,0,0,0,0,0,0.001500,-0.000187,-0.000008,1,0,0,0,0,0,0
1.910000,0.001525,-0.001125,0.000002,1,0,0,0,0,0,0,-0.002139,-0.001569,0.000008,1,0,0,0,0,0,0,0.002506,-0.000730,-0.000009,1,0,0,0,0,0,0
1.920000,0.001518,-0.000368,0.000003,1,0,0,0,0,0,0,-0.003150,-0.002149,0.000009,1,0,0,0,0,0,0,0.003547,-0.001306,-0.000010,1,0,0,0,0,0,0
1.930000,0.001503,0.000449,0.000004,1,0,0,0,0,0,0,-0.004185,-0.002743,0.000011,1,0,0,0,0,0,0,0.004606,-0.001908,-0.000012,1,0,0,0,0,0,0
1.940000,0.001480,0.001325,0.000005,1,0,0,0,0,0,0,-0.005213,-0.003333,0.000013,1,0,0,0,0,0,0,0.005673,-0.002526,-0.000015,1,0,0,0,0,0,0
1.950000,0.001449,0.002253,0.000006,1,0,0,0,0,0,0,-0.006220,-0.003910,0.000016,1,0,0,0,0,0,0,0.006733,-0.003153,-0.000018,1,0,0,0,0,0,0
1.960000,0.001411,0.003231,0.000007,1,0,0,0,0,0,0,-0.007198,-0.004468,0.000020,1,0,0,0,0,0,0,0.007775,-0.003780,-0.000022,1,0,0,0,0,0,0
1.970000,0.001364,0.004255,0.000008,1,0,0,0,0,0,0,-0.008158,-0.005012,0.000024,1,0,0,0,0,0,0,0.008786,-0.004399,-0.000027,1,0,0,0,0,0,0
1.980000,0.001311,0.005320,0.000010,1,0,0,0,0,0,0,-0.009109,-0.005544,0.000028,1,0,0,0,0,0,0,0.009770,-0.005012,-0.000032,1,0,0,0,0,0,0
1.990000,0.001252,0.006417,0.000011,1,0,0,0,0,0,0,-0.010045,-0.006059,0.000033,1,0,0,0,0,0,0,0.010726,-0.005619,-0.000038,1,0,0,0,0,0,0
2.000000,0.001188,0.007535,0.000012,1,0,0,0,0,0,0,-0.010953,-0.006550,0.000038,1,0,0,0,0,0,0,0.011641,-0.006210,-0.000044,1,0,0,0,0,0,0
2.010000,0.001119,0.008658,0.000012,1,0,0,0,0,0,0,-0.011830,-0.007012,0.000043,1,0,0,0,0,0,0,0.012498,-0.006775,-0.000050,1,0,0,0,0,0,0
2.020000,0.001043,0.009775,0.000013,1,0,0,0,0,0,0,-0.012666,-0.007433,0.000048,1,0,0,0,0,0,0,0.013264,-0.007293,-0.000057,1,0,0,0,0,0,0
2.030000,0.000960,0.010896,0.000014,1,0,0,0,0,0,0,-0.013452,-0.007812,0.000053,1,0,0,0,0,0,0,0.013923,-0.007749,-0.000062,1,0,0,0,0,0,0
2.040000,0.000871,0.012031,0.000014,1,0,0,0,0,0,0,-0.014193,-0.008156,0.000058,1,0,0,0,0,0,0,0.014473,-0.008137,-0.000067,1,0,0,0,0,0,0
2.050000,0.000778,0.013179,0.000015,1,0,0,0,0,0,0,-0.014898,-0.008477,0.000062,1,0,0,0,0,0,0,0.014928,-0.008461,-0.000071,1,0,0,0,0,0,0
2.060000,0.000685,0.014334,0.000015,1,0,0,0,0,0,0,-0.015574,-0.008788,0.000067,1,0,0,0,0,0,0,0.015312,-0.008730,-0.000075,1,0,0,0,0,0,0
2.070000,0.000593,0.015486,0.000015,1,0,0,0,0,0,0,-0.016220,-0.009097,0.000072,1,0,0,0,0,0,0,0.015652,-0.008958,-0.000078,1,0,0,0,0,0,0
2.080000,0.000503,0.016625,0.000015,1,0,0,0,0,0,0,-0.016826,-0.009405,0.000077,1,0,0,0,0,0,0,0.015970,-0.009159,-0.000081,1,0,0,0,0,0,0
2.090000,0.000417,0.017750,0.000015,1,0,0,0,0,0,0,-0.017375,-0.009704,0.000082,1,0,0,0,0,0,0,0.016280,-0.009343,-0.000083,1,0,0,0,0,0,0
2.100000,0.000336,0.018870,0.000015,1,0,0,0,0,0,0,-0.017857,-0.009987,0.000087,1,0,0,0,0,0,0,0.016587,-0.009519,-0.000086,1,0,0,0,0,0,0
2.110000,0.000260,0.020006,0.000015,1,0,0,0,0,0,0,-0.018275,-0.010256,0.000092,1,0,0,0,0,0,0,0.016894,-0.009691,-0.000088,1,0,0,0,0,0,0
2.120000,0.000189,0.021187,0.000014,1,0,0,0,0,0,0,-0.018625,-0.010506,0.000097,1,0,0,0,0,0,0,0.017209,-0.009869,-0.000091,1,0,0,0,0,0,0
2.130000,0.000123,0.022441,0.000014,1,0,0,0,0,0,0,-0.018901,-0.010731,0.000101,1,0,0,0,0,0,0,0.017533,-0.010057,-0.000094,1,0,0,0,0,0,0
2.140000,0.000063,0.023792,0.000013,1,0,0,0,0,0,0,-0.019104,-0.010932,0.000105,1,0,0,0,0,0,0,0.017882,-0.010268,-0.000097,1,0,0,0,0,0,0
2.150000,0.000008,0.025256,0.000012,1,0,0,0,0,0,0,-0.019234,-0.011105,0.000109,1,0,0,0,0,0,0,0.018270,-0.010513,-0.000101,1,0,0,0,0,0,0
2.160000,-0.000040,0.026849,0.000012,1,0,0,0,0,0,0,-0.019287,-0.011248,0.000111,1,0,0,0,0,0,0,0.018694,-0.010795,-0.000106,1,0,0,0,0,0,0
2.170000,-0.000082,0.028579,0.000011,1,0,0,0,0,0,0,-0.019265,-0.011357,0.000113,1,0,0,0,0,0,0,0.019141,-0.011109,-0.000112,1,0,0,0,0,0,0
2.180000,-0.000118,0.030453,0.000010,1,0,0,0,0,0,0,-0.019183,-0.011440,0.000115,1,0,0,0,0,0,0,0.019595,-0.011445,-0.000118,1,0,0,0,0,0,0
2.190000,-0.000146,0.032471,0.000009,1,0,0,0,0,0,0,-0.019068,-0.011509,0.000116,1,0,0,0,0,0,0,0.020051,-0.011801,-0.000125,1,0,0,0,0,0,0
2.200000,-0.000168,0.034646,0.000008,1,0,0,0,0,0,0,-0.018959,-0.011587,0.000117,1,0,0,0,0,0,0,0.020530,-0.012188,-0.000132,1,0,0,0,0,0,0
2.210000,-0.000181,0.037014,0.000007,1,0,0,0,0,0,0,-0.018900,-0.011697,0.000118,1,0,0,0,0,0,0,0.021082,-0.012639,-0.000141,1,0,0,0,0,0,0
2.220000,-0.000184,0.039624,0.000006,1,0,0,0,0,0,0,-0.018933,-0.011864,0.000121,1,0,0,0,0,0,0,0.021790,-0.013208,-0.000153,1,0,0,0,0,0,0
2.230000,-0.000176,0.042521,0.000005,1,0,0,0,0,0,0,-0.019115,-0.012125,0.000126,1,0,0,0,0,0,0,0.022762,-0.013960,-0.000169,1,0,0,0,0,0,0
2.240000,-0.000156,0.045768,0.000003,1,0,0,0,0,0,0,-0.019500,-0.012511,0.000133,1,0,0,0,0,0,0,0.024091,-0.014945,-0.000192,1,0,0,0,0,0,0
2.250000,-0.000125,0.049454,0.000003,1,0,0,0,0,0,0,-0.020120,-0.013047,0.000143,1,0,0,0,0,0,0,0.025817,-0.016176,-0.000222,1,0,0,0,0,0,0
2.260000,-0.000089,0.053691,0.000002,1,0,0,0,0,0,0,-0.021003,-0.013750,0.000156,1,0,0,0,0,0,0,0.027962,-0.017649,-0.000260,1,0,0,0,0,0,0
2.270000,-0.000056,0.058606,0.000001,1,0,0,0,0,0,0,-0.022185,-0.014645,0.000175,1,0,0,0,0,0,0,0.030595,-0.019384,-0.000310,1,0,0,0,0,0,0
2.280000,-0.000032,0.064295,0.000001,1,0,0,0,0,0,0,-0.023745,-0.015776,0.000200,1,0,0,0,0,0,0,0.033801,-0.021413,-0.000375,1,0,0,0,0,0,0
2.290000,-0.000021,0.070746,0.000000,1,0,0,0,0,0,0,-0.025880,-0.017253,0.000236,1,0,0,0,0,0,0,0.037617,-0.023754,-0.000457,1,0,0,0,0,0,0
2.300000,-0.000018,0.077843,0.000000,1,0,0,0,0,0,0,-0.028871,-0.019232,0.000289,1,0,0,0,0,0,0,0.042095,-0.026456,-0.000564,1,0,0,0,0,0,0
2.310000,-0.000015,0.085446,-0.000000,1,0,0,0,0,0,0,-0.032830,-0.021764,0.000366,1,0,0,0,0,0,0,0.047329,-0.029604,-0.000704,1,0,0,0,0,0,0
2.320000,-0.000003,0.093428,-0.000000,1,0,0,0,0,0,0,-0.037648,-0.024766,0.000471,1,0,0,0,0,0,0,0.053302,-0.033214,-0.000885,1,0,0,0,0,0,0
2.330000,0.000024,0.101672,-0.000000,1,0,0,0,0,0,0,-0.043237,-0.028165,0.000608,1,0,0,0,0,0,0,0.059858,-0.037203,-0.001110,1,0,0,0,0,0,0
2.340000,0.000061,0.110034,0.000000,1,0,0,0,0,0,0,-0.049471,-0.031881,0.000779,1,0,0,0,0,0,0,0.066823,-0.041446,-0.001378,1,0,0,0,0,0,0
2.350000,0.000095,0.118307,0.000001,1,0,0,0,0,0,0,-0.056188,-0.035830,0.000988,1,0,0,0,0,0,0,0.074010,-0.045800,-0.001685,1,0,0,0,0,0,0
2.360000,0.000112,0.126324,0.000002,1,0,0,0,0,0,0,-0.063320,-0.039995,0.001237,1,0,0,0,0,0,0,0.081243,-0.050126,-0.002021,1,0,0,0,0,0,0
2.370000,0.000103,0.134055,0.000003,1,0,0,0,0,0,0,-0.070709,-0.044321,0.001528,1,0,0,0,0,0,0,0.088459,-0.054375,-0.002383,1,0,0,0,0,0,0
2.380000,0.000066,0.141591,0.000004,1,0,0,0,0,0,0,-0.078057,-0.048659,0.001852,1,0,0,0,0,0,0,0.095754,-0.058607,-0.002774,1,0,0,0,0,0,0
2.390000,0.000008,0.149017,0.000004,1,0,0,0,0,0,0,-0.085185,-0.052895,0.002201,1,0,0,0,0,0,0,0.103254,-0.062911,-0.003205,1,0,0,0,0,0,0
2.400000,-0.000059,0.156238,0.000004,1,0,0,0,0,0,0,-0.092143,-0.057026,0.002570,1,0,0,0,0,0,0,0.110904,-0.067271,-0.003676,1,0,0,0,0,0,0
2.410000,-0.000118,0.163037,0.000003,1,0,0,0,0,0,0,-0.099162,-0.061141,0.002968,1,0,0,0,0,0,0,0.118443,-0.071546,-0.004171,1,0,0,0,0,0,0
2.420000,-0.000147,0.169227,0.000002,1,0,0,0,0,0,0,-0.106426,-0.065301,0.003400,1,0,0,0,0,0,0,0.125556,-0.075545,-0.004666,1,0,0,0,0,0,0
2.430000,-0.000123,0.174785,0.000000,1,0,0,0,0,0,0,-0.113800,-0.069396,0.003857,1,0,0,0,0,0,0,0.131961,-0.079085,-0.005129,1,0,0,0,0,0,0
2.440000,-0.000038,0.179834,-0.000001,1,0,0,0,0,0,0,-0.120969,-0.073227,0.004315,1,0,0,0,0,0,0,0.137531,-0.082063,-0.005539,1,0,0,0,0,0,0
2.450000,0.000097,0.184469,-0.000001,1,0,0,0,0,0,0,-0.127595,-0.076603,0.004743,1,0,0,0,0,0,0,0.142379,-0.084519,-0.005892,1,0,0,0,0,0,0
2.460000,0.000258,0.188672,-0.000000,1,0,0,0,0,0,0,-0.133396,-0.079440,0.005124,1,0,0,0,0,0,0,0.146746,-0.086580,-0.006200,1,0,0,0,0,0,0
2.470000,0.000425,0.192408,0.000002,1,0,0,0,0,0,0,-0.138356,-0.081847,0.005464,1,0,0,0,0,0,0,0.150834,-0.088398,-0.006483,1,0,0,0,0,0,0
2.480000,0.000593,0.195700,0.000006,1,0,0,0,0,0,0,-0.142659,-0.084009,0.005782,1,0,0,0,0,0,0,0.154679,-0.090076,-0.006753,1,0,0,0,0,0,0
2.490000,0.000761,0.198621,0.000011,1,0,0,0,0,0,0,-0.146504,-0.086050,0.006093,1,0,0,0,0,0,0,0.158170,-0.091631,-0.007012,1,0,0,0,0,0,0
2.500000,0.000925,0.201188,0.000016,1,0,0,0,0,0,0,-0.149957,-0.087940,0.006389,1,0,0,0,0,0,0,0.161176,-0.093027,-0.007252,1,0,0,0,0,0,0
2.510000,0.001074,0.203350,0.000023,1,0,0,0,0,0,0,-0.152942,-0.089563,0.006651,1,0,0,0,0,0,0,0.163645,-0.094226,-0.007465,1,0,0,0,0,0,0
2.520000,0.001194,0.205109,0.000030,1,0,0,0,0,0,0,-0.155349,-0.090828,0.006861,1,0,0,0,0,0,0,0.165621,-0.095226,-0.007647,1,0,0,0,0,0,0
2.530000,0.001277,0.206621,0.000037,1,0,0,0,0,0,0,-0.157144,-0.091742,0.007018,1,0,0,0,0,0,0,0.167234,-0.096083,-0.007808,1,0,0,0,0,0,0
2.540000,0.001313,0.208135,0.000045,1,0,0,0,0,0,0,-0.158453,-0.092418,0.007139,1,0,0,0,0,0,0,0.168669,-0.096904,-0.007963,1,0,0,0,0,0,0
2.550000,0.001293,0.209793,0.000052,1,0,0,0,0,0,0,-0.159535,-0.093025,0.007249,1,0,0,0,0,0,0,0.170104,-0.097792,-0.008130,1,0,0,0,0,0,0
2.560000,0.001210,0.211525,0.000060,1,0,0,0,0,0,0,-0.160673,-0.093718,0.007374,1,0,0,0,0,0,0,0.171626,-0.098790,-0.008317,1,0,0,0,0,0,0
2.570000,0.001065,0.213160,0.000066,1,0,0,0,0,0,0,-0.161999,-0.094557,0.007522,1,0,0,0,0,0,0,0.173228,-0.099872,-0.008518,1,0,0,0,0,0,0
2.580000,0.000874,0.214527,0.000071,1,0,0,0,0,0,0,-0.163503,-0.095527,0.007692,1,0,0,0,0,0,0,0.174880,-0.101009,-0.008729,1,0,0,0,0,0,0
2.590000,0.000658,0.215488,0.000074,1,0,0,0,0,0,0,-0.165156,-0.096605,0.007880,1,0,0,0,0,0,0,0.176545,-0.102178,-0.008947,1,0,0,0,0,0,0
2.600000,0.000441,0.215907,0.000075,1,0,0,0,0,0,0,-0.166977,-0.097775,0.008085,1,0,0,0,0,0,0,0.178173,-0.103349,-0.009165,1,0,0,0,0,0,0
2.610000,0.000242,0.215639,0.000074,1,0,0,0,0,0,0,-0.169051,-0.099045,0.008309,1,0,0,0,0,0,0,0.179680,-0.104455,-0.009372,1,0,0,0,0,0,0
2.620000,0.000076,0.214593,0.000072,1,0,0,0,0,0,0,-0.171350,-0.100363,0.008542,1,0,0,0,0,0,0,0.180954,-0.105394,-0.009547,1,0,0,0,0,0,0
2.630000,-0.000055,0.212805,0.000068,1,0,0,0,0,0,0,-0.173661,-0.101592,0.008763,1,0,0,0,0,0,0,0.181877,-0.106051,-0.009671,1,0,0,0,0,0,0
2.640000,-0.000153,0.210408,0.000064,1,0,0,0,0,0,0,-0.175679,-0.102567,0.008941,1,0,0,0,0,0,0,0.182339,-0.106315,-0.009721,1,0,0,0,0,0,0
2.650000,-0.000220,0.207518,0.000060,1,0,0,0,0,0,0,-0.177156,-0.103166,0.009054,1,0,0,0,0,0,0,0.182227,-0.106094,-0.009681,1,0,0,0,0,0,0
2.660000,-0.000250,0.204175,0.000056,1,0,0,0,0,0,0,-0.177893,-0.103314,0.009087,1,0,0,0,0,0,0,0.181469,-0.105349,-0.009544,1,0,0,0,0,0,0
2.670000,-0.000229,0.200354,0.000052,1,0,0,0,0,0,0,-0.177786,-0.102992,0.009037,1,0,0,0,0,0,0,0.180086,-0.104122,-0.009321,1,0,0,0,0,0,0
2.680000,-0.000145,0.196023,0.000049,1,0,0,0,0,0,0,-0.176884,-0.102244,0.008911,1,0,0,0,0,0,0,0.178179,-0.102519,-0.009034,1,0,0,0,0,0,0
2.690000,0.000008,0.191163,0.000045,1,0,0,0,0,0,0,-0.175320,-0.101137,0.008722,1,0,0,0,0,0,0,0.175838,-0.100647,-0.008704,1,0,0,0,0,0,0
2.700000,0.000227,0.185780,0.000041,1,0,0,0,0,0,0,-0.173253,-0.099724,0.008482,1,0,0,0,0,0,0,0.173017,-0.098516,-0.008335,1,0,0,0,0,0,0
2.710000,0.000513,0.179909,0.000037,1,0,0,0,0,0,0,-0.170803,-0.098041,0.008199,1,0,0,0,0,0,0,0.169558,-0.096036,-0.007916,1,0,0,0,0,0,0
2.720000,0.000863,0.173642,0.000033,1,0,0,0,0,0,0,-0.167968,-0.096078,0.007873,1,0,0,0,0,0,0,0.165312,-0.093101,-0.007431,1,0,0,0,0,0,0
2.730000,0.001263,0.167125,0.000027,1,0,0,0,0,0,0,-0.164641,-0.093805,0.007503,1,0,0,0,0,0,0,0.160274,-0.089699,-0.006886,1,0,0,0,0,0,0
2.740000,0.001680,0.160509,0.000021,1,0,0,0,0,0,0,-0.160679,-0.091201,0.007087,1,0,0,0,0,0,0,0.154641,-0.085958,-0.006307,1,0,0,0,0,0,0
2.750000,0.002070,0.153885,0.000015,1,0,0,0,0,0,0,-0.155996,-0.088287,0.006634,1,0,0,0,0,0,0,0.148725,-0.082113,-0.005737,1,0,0,0,0,0,0
2.760000,0.002391,0.147260,0.000007,1,0,0,0,0,0,0,-0.150613,-0.085134,0.006161,1,0,0,0,0,0,0,0.142807,-0.078401,-0.005211,1,0,0,0,0,0,0
2.770000,0.002620,0.140587,-0.000000,1,0,0,0,0,0,0,-0.144651,-0.081848,0.005685,1,0,0,0,0,0,0,0.137009,-0.074965,-0.004748,1,0,0,0,0,0,0
2.780000,0.002747,0.133871,-0.000008,1,0,0,0,0,0,0,-0.138295,-0.078540,0.005227,1,0,0,0,0,0,0,0.131266,-0.071808,-0.004344,1,0,0,0,0,0,0
2.790000,0.002773,0.127216,-0.000015,1,0,0,0,0,0,0,-0.131750,-0.075300,0.004798,1,0,0,0,0,0,0,0.125434,-0.068848,-0.003983,1,0,0,0,0,0,0
2.800000,0.002705,0.120766,-0.000022,1,0,0,0,0,0,0,-0.125194,-0.072176,0.004404,1,0,0,0,0,0,0,0.119433,-0.066024,-0.003655,1,0,0,0,0,0,0
2.810000,0.002549,0.114653,-0.000027,1,0,0,0,0,0,0,-0.118734,-0.069167,0.004042,1,0,0,0,0,0,0,0.113297,-0.063331,-0.003358,1,0,0,0,0,0,0
2.820000,0.002307,0.108963,-0.000030,1,0,0,0,0,0,0,-0.112420,-0.066261,0.003709,1,0,0,0,0,0,0,0.107149,-0.060808,-0.003093,1,0,0,0,0,0,0
2.830000,0.001973,0.103758,-0.000032,1,0,0,0,0,0,0,-0.106254,-0.063439,0.003401,1,0,0,0,0,0,0,0.101162,-0.058514,-0.002864,1,0,0,0,0,0,0
2.840000,0.001545,0.099032,-0.000032,1,0,0,0,0,0,0,-0.100239,-0.060703,0.003116,1,0,0,0,0,0,0,0.095511,-0.056516,-0.002674,1,0,0,0,0,0,0
2.850000,0.001032,0.094734,-0.000030,1,0,0,0,0,0,0,-0.094474,-0.058130,0.002861,1,0,0,0,0,0,0,0.090319,-0.054861,-0.002523,1,0,0,0,0,0,0
2.860000,0.000449,0.090827,-0.000028,1,0,0,0,0,0,0,-0.088999,-0.055760,0.002637,1,0,0,0,0,0,0,0.085637,-0.053554,-0.002407,1,0,0,0,0,0,0
2.870000,-0.000180,0.087264,-0.000024,1,0,0,0,0,0,0,-0.083905,-0.053649,0.002445,1,0,0,0,0,0,0,0.081460,-0.052575,-0.002320,1,0,0,0,0,0,0
2.880000,-0.000823,0.083951,-0.000021,1,0,0,0,0,0,0,-0.079380,-0.051892,0.002290,1,0,0,0,0,0,0,0.077756,-0.051877,-0.002255,1,0,0,0,0,0,0
2.890000,-0.001454,0.080800,-0.000017,1,0,0,0,0,0,0,-0.075578,-0.050544,0.002172,1,0,0,0,0,0,0,0.074475,-0.051392,-0.002206,1,0,0,0,0,0,0
2.900000,-0.002052,0.077756,-0.000013,1,0,0,0,0,0,0,-0.072495,-0.049549,0.002084,1,0,0,0,0,0,0,0.071554,-0.051032,-0.002164,1,0,0,0,0,0,0
2.910000,-0.002599,0.074798,-0.000010,1,0,0,0,0,0,0,-0.070058,-0.048811,0.002015,1,0,0,0,0,0,0,0.068955,-0.050720,-0.002123,1,0,0,0,0,0,0
2.920000,-0.003078,0.071959,-0.000006,1,0,0,0,0,0,0,-0.068091,-0.048187,0.001954,1,0,0,0,0,0,0,0.066664,-0.050396,-0.002080,1,0,0,0,0,0,0
2.930000,-0.003478,0.069316,-0.000003,1,0,0,0,0,0,0,-0.066429,-0.047561,0.001893,1,0,0,0,0,0,0,0.064629,-0.049997,-0.002031,1,0,0,0,0,0,0
2.940000,-0.003792,0.066959,-0.000001,1,0,0,0,0,0,0,-0.065008,-0.046890,0.001830,1,0,0,0,0,0,0,0.062819,-0.049482,-0.001974,1,0,0,0,0,0,0
2.950000,-0.004016,0.064954,-0.000001,1,0,0,0,0,0,0,-0.063811,-0.046174,0.001766,1,0,0,0,0,0,0,0.061244,-0.048841,-0.001909,1,0,0,0,0,0,0
2.960000,-0.004149,0.063301,-0.000001,1,0,0,0,0,0,0,-0.062867,-0.045443,0.001702,1,0,0,0,0,0,0,0.059896,-0.048061,-0.001837,1,0,0,0,0,0,0
2.970000,-0.004190,0.061953,-0.000003,1,0,0,0,0,0,0,-0.062231,-0.044733,0.001640,1,0,0,0,0,0,0,0.058731,-0.047124,-0.001757,1,0,0,0,0,0,0
2.980000,-0.004139,0.060852,-0.000006,1,0,0,0,0,0,0,-0.061801,-0.044011,0.001580,1,0,0,0,0,0,0,0.057703,-0.046014,-0.001670,1,0,0,0,0,0,0
2.990000,-0.003993,0.059966,-0.000010,1,0,0,0,0,0,0,-0.061412,-0.043213,0.001517,1,0,0,0,0,0,0,0.056793,-0.044738,-0.001575,1,0,0,0,0,0,0
3.000000,-0.003752,0.059294,-0.000014,1,0,0,0,0,0,0,-0.060922,-0.042280,0.001447,1,0,0,0,0,0,0,0.055998,-0.043338,-0.001477,1,0,0,0,0,0,0
3.010000,-0.003422,0.058839,-0.000019,1,0,0,0,0,0,0,-0.060231,-0.041194,0.001371,1,0,0,0,0,0,0,0.055324,-0.041886,-0.001379,1,0,0,0,0,0,0
3.020000,-0.003013,0.058558,-0.000023,1,0,0,0,0,0,0,-0.059339,-0.039995,0.001290,1,0,0,0,0,0,0,0.054776,-0.040460,-0.001286,1,0,0,0,0,0,0
3.030000,-0.002544,0.058389,-0.000027,1,0,0,0,0,0,0,-0.058364,-0.038772,0.001211,1,0,0,0,0,0,0,0.054334,-0.039109,-0.001200,1,0,0,0,0,0,0
3.040000,-0.002031,0.058308,-0.000030,1,0,0,0,0,0,0,-0.057477,-0.037634,0.001139,1,0,0,0,0,0,0,0.053955,-0.037844,-0.001122,1,0,0,0,0,0,0
3.050000,-0.001489,0.058348,-0.000033,1,0,0,0,0,0,0,-0.056808,-0.036647,0.001078,1,0,0,0,0,0,0,0.053588,-0.036648,-0.001050,1,0,0,0,0,0,0
3.060000,-0.000936,0.058600,-0.000034,1,0,0,0,0,0,0,-0.056372,-0.035810,0.001028,1,0,0,0,0,0,0,0.053209,-0.035506,-0.000984,1,0,0,0,0,0,0
3.070000,-0.000394,0.059162,-0.000035,1,0,0,0,0,0,0,-0.056087,-0.035086,0.000986,1,0,0,0,0,0,0,0.052831,-0.034434,-0.000923,1,0,0,0,0,0,0
3.080000,0.000111,0.060052,-0.000034,1,0,0,0,0,0,0,-0.055854,-0.034452,0.000949,1,0,0,0,0,0,0,0.052509,-0.033485,-0.000872,1,0,0,0,0,0,0
3.090000,0.000547,0.061214,-0.000032,1,0,0,0,0,0,0,-0.055583,-0.033915,0.000920,1,0,0,0,0,0,0,0.052326,-0.032752,-0.000833,1,0,0,0,0,0,0
3.100000,0.000883,0.062592,-0.000028,1,0,0,0,0,0,0,-0.055222,-0.033511,0.000898,1,0,0,0,0,0,0,0.052373,-0.032346,-0.000812,1,0,0,0,0,0,0
3.110000,0.001092,0.064156,-0.000024,1,0,0,0,0,0,0,-0.054764,-0.033285,0.000887,1,0,0,0,0,0,0,0.052755,-0.032394,-0.000816,1,0,0,0,0,0,0
3.120000,0.001161,0.065937,-0.000018,1,0,0,0,0,0,0,-0.054252,-0.033270,0.000888,1,0,0,0,0,0,0,0.053531,-0.032983,-0.000850,1,0,0,0,0,0,0
3.130000,0.001087,0.068026,-0.000013,1,0,0,0,0,0,0,-0.053798,-0.033508,0.000902,1,0,0,0,0,0,0,0.054666,-0.034102,-0.000912,1,0,0,0,0,0,0
3.140000,0.000882,0.070494,-0.000007,1,0,0,0,0,0,0,-0.053552,-0.034036,0.000930,1,0,0,0,0,0,0,0.056089,-0.035699,-0.001002,1,0,0,0,0,0,0
3.150000,0.000567,0.073357,-0.000003,1,0,0,0,0,0,0,-0.053721,-0.034934,0.000978,1,0,0,0,0,0,0,0.057738,-0.037725,-0.001118,1,0,0,0,0,0,0
3.160000,0.000166,0.076600,0.000000,1,0,0,0,0,0,0,-0.054473,-0.036253,0.001047,1,0,0,0,0,0,0,0.059545,-0.040088,-0.001256,1,0,0,0,0,0,0
3.170000,-0.000301,0.080180,0.000001,1,0,0,0,0,0,0,-0.055823,-0.037950,0.001138,1,0,0,0,0,0,0,0.061467,-0.042660,-0.001409,1,0,0,0,0,0,0
3.180000,-0.000816,0.084040,-0.000001,1,0,0,0,0,0,0,-0.057693,-0.039953,0.001248,1,0,0,0,0,0,0,0.063568,-0.045379,-0.001574,1,0,0,0,0,0,0
3.190000,-0.001370,0.088116,-0.000007,1,0,0,0,0,0,0,-0.060014,-0.042213,0.001376,1,0,0,0,0,0,0,0.066035,-0.048298,-0.001757,1,0,0,0,0,0,0
3.200000,-0.001951,0.092304,-0.000016,1,0,0,0,0,0,0,-0.062735,-0.044700,0.001523,1,0,0,0,0,0,0,0.069059,-0.051498,-0.001964,1,0,0,0,0,0,0
3.210000,-0.002536,0.096467,-0.000030,1,0,0,0,0,0,0,-0.065824,-0.047389,0.001689,1,0,0,0,0,0,0,0.072627,-0.054942,-0.002198,1,0,0,0,0,0,0
3.220000,-0.003090,0.100499,-0.000046,1,0,0,0,0,0,0,-0.069267,-0.050257,0.001875,1,0,0,0,0,0,0,0.076575,-0.058501,-0.002453,1,0,0,0,0,0,0
3.230000,-0.003574,0.104367,-0.000065,1,0,0,0,0,0,0,-0.073073,-0.053273,0.002082,1,0,0,0,0,0,0,0.080749,-0.062043,-0.002720,1,0,0,0,0,0,0
3.240000,-0.003953,0.108115,-0.000086,1,0,0,0,0,0,0,-0.077267,-0.056400,0.002310,1,0,0,0,0,0,0,0.085029,-0.065432,-0.002989,1,0,0,0,0,0,0
3.250000,-0.004203,0.111803,-0.000108,1,0,0,0,0,0,0,-0.081850,-0.059578,0.002555,1,0,0,0,0,0,0,0.089302,-0.068535,-0.003247,1,0,0,0,0,0,0
3.260000,-0.004318,0.115456,-0.000131,1,0,0,0,0,0,0,-0.086739,-0.062703,0.002812,1,0,0,0,0,0,0,0.093521,-0.071272,-0.003487,1,0,0,0,0,0,0
3.270000,-0.004300,0.119058,-0.000154,1,0,0,0,0,0,0,-0.091821,-0.065676,0.003072,1,0,0,0,0,0,0,0.097696,-0.073623,-0.003703,1,0,0,0,0,0,0
3.280000,-0.004160,0.122570,-0.000176,1,0,0,0,0,0,0,-0.096965,-0.068414,0.003327,1,0,0,0,0,0,0,0.101835,-0.075596,-0.003893,1,0,0,0,0,0,0
3.290000,-0.003909,0.125958,-0.000195,1,0,0,0,0,0,0,-0.101995,-0.070847,0.003568,1,0,0,0,0,0,0,0.105876,-0.077204,-0.004057,1,0,0,0,0,0,0
3.300000,-0.003560,0.129188,-0.000211,1,0,0,0,0,0,0,-0.106706,-0.072932,0.003788,1,0,0,0,0,0,0,0.109722,-0.078462,-0.004193,1,0,0,0,0,0,0
3.310000,-0.003131,0.132191,-0.000223,1,0,0,0,0,0,0,-0.110961,-0.074677,0.003983,1,0,0,0,0,0,0,0.113278,-0.079396,-0.004302,1,0,0,0,0,0,0
3.320000,-0.002641,0.134856,-0.000231,1,0,0,0,0,0,0,-0.114743,-0.076142,0.004158,1,0,0,0,0,0,0,0.116469,-0.080051,-0.004387,1,0,0,0,0,0,0
3.330000,-0.002114,0.137073,-0.000234,1,0,0,0,0,0,0,-0.118103,-0.077407,0.004317,1,0,0,0,0,0,0,0.119274,-0.080494,-0.004454,1,0,0,0,0,0,0
3.340000,-0.001576,0.138796,-0.000233,1,0,0,0,0,0,0,-0.121063,-0.078518,0.004465,1,0,0,0,0,0,0,0.121707,-0.080803,-0.004511,1,0,0,0,0,0,0
3.350000,-0.001053,0.140079,-0.000229,1,0,0,0,0,0,0,-0.123590,-0.079468,0.004599,1,0,0,0,0,0,0,0.123782,-0.081042,-0.004563,1,0,0,0,0,0,0
3.360000,-0.000575,0.141033,-0.000221,1,0,0,0,0,0,0,-0.125648,-0.080238,0.004714,1,0,0,0,0,0,0,0.125489,-0.081247,-0.004615,1,0,0,0,0,0,0
3.370000,-0.000173,0.141756,-0.000212,1,0,0,0,0,0,0,-0.127246,-0.080838,0.004810,1,0,0,0,0,0,0,0.126799,-0.081434,-0.004667,1,0,0,0,0,0,0
3.380000,0.000125,0.142289,-0.000201,1,0,0,0,0,0,0,-0.128458,-0.081312,0.004891,1,0,0,0,0,0,0,0.127695,-0.081618,-0.004720,1,0,0,0,0,0,0
3.390000,0.000297,0.142638,-0.000188,1,0,0,0,0,0,0,-0.129394,-0.081737,0.004967,1,0,0,0,0,0,0,0.128206,-0.081824,-0.004777,1,0,0,0,0,0,0
3.400000,0.000332,0.142815,-0.000176,1,0,0,0,0,0,0,-0.130149,-0.082179,0.005045,1,0,0,0,0,0,0,0.128412,-0.082085,-0.004840,1,0,0,0,0,0,0
3.410000,0.000222,0.142862,-0.000164,1,0,0,0,0,0,0,-0.130744,-0.082660,0.005127,1,0,0,0,0,0,0,0.128418,-0.082443,-0.004913,1,0,0,0,0,0,0
3.420000,-0.000038,0.142852,-0.000153,1,0,0,0,0,0,0,-0.131123,-0.083150,0.005210,1,0,0,0,0,0,0,0.128315,-0.082941,-0.005003,1,0,0,0,0,0,0
3.430000,-0.000457,0.142845,-0.000143,1,0,0,0,0,0,0,-0.131187,-0.083597,0.005285,1,0,0,0,0,0,0,0.128172,-0.083630,-0.005113,1,0,0,0,0,0,0
3.440000,-0.001028,0.142860,-0.000135,1,0,0,0,0,0,0,-0.130878,-0.083986,0.005351,1,0,0,0,0,0,0,0.128030,-0.084555,-0.005250,1,0,0,0,0,0,0
3.450000,-0.001732,0.142909,-0.000130,1,0,0,0,0,0,0,-0.130213,-0.084325,0.005406,1,0,0,0,0,0,0,0.127897,-0.085722,-0.005414,1,0,0,0,0,0,0
3.460000,-0.002527,0.143029,-0.000129,1,0,0,0,0,0,0,-0.129322,-0.084659,0.005457,1,0,0,0,0,0,0,0.127759,-0.087086,-0.005597,1,0,0,0,0,0,0
3.470000,-0.003361,0.143281,-0.000131,1,0,0,0,0,0,0,-0.128455,-0.085065,0.005514,1,0,0,0,0,0,0,0.127568,-0.088527,-0.005785,1,0,0,0,0,0,0
3.480000,-0.004177,0.143697,-0.000137,1,0,0,0,0,0,0,-0.127908,-0.085620,0.005585,1,0,0,0,0,0,0,0.127289,-0.089897,-0.005957,1,0,0,0,0,0,0
3.490000,-0.004931,0.144233,-0.000148,1,0,0,0,0,0,0,-0.127800,-0.086283,0.005667,1,0,0,0,0,0,0,0.126927,-0.091061,-0.006096,1,0,0,0,0,0,0
3.500000,-0.005594,0.144762,-0.000161,1,0,0,0,0,0,0,-0.128032,-0.086935,0.005744,1,0,0,0,0,0,0,0.126566,-0.091958,-0.006195,1,0,0,0,0,0,0
3.510000,-0.006149,0.145136,-0.000177,1,0,0,0,0,0,0,-0.128428,-0.087474,0.005805,1,0,0,0,0,0,0,0.126347,-0.092613,-0.006259,1,0,0,0,0,0,0
3.520000,-0.006583,0.145253,-0.000193,1,0,0,0,0,0,0,-0.128835,-0.087843,0.005843,1,0,0,0,0,0,0,0.126376,-0.093069,-0.006295,1,0,0,0,0,0,0
3.530000,-0.006882,0.145105,-0.000208,1,0,0,0,0,0,0,-0.129165,-0.088029,0.005857,1,0,0,0,0,0,0,0.126693,-0.093343,-0.006307,1,0,0,0,0,0,0
3.540000,-0.007024,0.144778,-0.000223,1,0,0,0,0,0,0,-0.129455,-0.088058,0.005851,1,0,0,0,0,0,0,0.127195,-0.093380,-0.006288,1,0,0,0,0,0,0
3.550000,-0.006987,0.144366,-0.000237,1,0,0,0,0,0,0,-0.129787,-0.087952,0.005828,1,0,0,0,0,0,0,0.127714,-0.093079,-0.006228,1,0,0,0,0,0,0
3.560000,-0.006756,0.143908,-0.000251,1,0,0,0,0,0,0,-0.130206,-0.087693,0.005787,1,0,0,0,0,0,0,0.128081,-0.092335,-0.006114,1,0,0,0,0,0,0
3.570000,-0.006329,0.143380,-0.000262,1,0,0,0,0,0,0,-0.130657,-0.087228,0.005721,1,0,0,0,0,0,0,0.128176,-0.091081,-0.005939,1,0,0,0,0,0,0
3.580000,-0.005725,0.142724,-0.000271,1,0,0,0,0,0,0,-0.131046,-0.086504,0.005623,1,0,0,0,0,0,0,0.127929,-0.089311,-0.005702,1,0,0,0,0,0,0
3.590000,-0.004983,0.141873,-0.000276,1,0,0,0,0,0,0,-0.131307,-0.085505,0.005492,1,0,0,0,0,0,0,0.127361,-0.087090,-0.005413,1,0,0,0,0,0,0
3.600000,-0.004143,0.140778,-0.000277,1,0,0,0,0,0,0,-0.131361,-0.084242,0.005331,1,0,0,0,0,0,0,0.126546,-0.084539,-0.005092,1,0,0,0,0,0,0
3.610000,-0.003249,0.139387,-0.000275,1,0,0,0,0,0,0,-0.131113,-0.082735,0.005141,1,0,0,0,0,0,0,0.125573,-0.081808,-0.004757,1,0,0,0,0,0,0
3.620000,-0.002341,0.137631,-0.000269,1,0,0,0,0,0,0,-0.130428,-0.081000,0.004928,1,0,0,0,0,0,0,0.124485,-0.079040,-0.004427,1,0,0,0,0,0,0
3.630000,-0.001462,0.135455,-0.000260,1,0,0,0,0,0,0,-0.129191,-0.079062,0.004693,1,0,0,0,0,0,0,0.123217,-0.076331,-0.004115,1,0,0,0,0,0,0
3.640000,-0.000645,0.132863,-0.000250,1,0,0,0,0,0,0,-0.127378,-0.076977,0.004447,1,0,0,0,0,0,0,0.121655,-0.073724,-0.003826,1,0,0,0,0,0,0
3.650000,0.000078,0.129941,-0.000238,1,0,0,0,0,0,0,-0.125080,-0.074839,0.004201,1,0,0,0,0,0,0,0.119706,-0.071233,-0.003560,1,0,0,0,0,0,0
3.660000,0.000680,0.126828,-0.000226,1,0,0,0,0,0,0,-0.122452,-0.072755,0.003969,1,0,0,0,0,0,0,0.117366,-0.068881,-0.003319,1,0,0,0,0,0,0
3.670000,0.001139,0.123657,-0.000214,1,0,0,0,0,0,0,-0.119640,-0.070802,0.003759,1,0,0,0,0,0,0,0.114731,-0.066714,-0.003109,1,0,0,0,0,0,0
3.680000,0.001434,0.120516,-0.000201,1,0,0,0,0,0,0,-0.116710,-0.068993,0.003573,1,0,0,0,0,0,0,0.111937,-0.064793,-0.002932,1,0,0,0,0,0,0
3.690000,0.001554,0.117459,-0.000189,1,0,0,0,0,0,0,-0.113675,-0.067301,0.003404,1,0,0,0,0,0,0,0.109094,-0.063174,-0.002794,1,0,0,0,0,0,0
3.700000,0.001497,0.114541,-0.000177,1,0,0,0,0,0,0,-0.110540,-0.065702,0.003250,1,0,0,0,0,0,0,0.106242,-0.061874,-0.002694,1,0,0,0,0,0,0
3.710000,0.001270,0.111823,-0.000164,1,0,0,0,0,0,0,-0.107345,-0.064201,0.003110,1,0,0,0,0,0,0,0.103378,-0.060875,-0.002626,1,0,0,0,0,0,0
3.720000,0.000888,0.109370,-0.000152,1,0,0,0,0,0,0,-0.104162,-0.062837,0.002986,1,0,0,0,0,0,0,0.100516,-0.060158,-0.002586,1,0,0,0,0,0,0
3.730000,0.000368,0.107214,-0.000141,1,0,0,0,0,0,0,-0.101049,-0.061646,0.002882,1,0,0,0,0,0,0,0.097718,-0.059712,-0.002570,1,0,0,0,0,0,0
3.740000,-0.000267,0.105357,-0.000130,1,0,0,0,0,0,0,-0.098029,-0.060642,0.002797,1,0,0,0,0,0,0,0.095094,-0.059548,-0.002578,1,0,0,0,0,0,0
3.750000,-0.000992,0.103819,-0.000121,1,0,0,0,0,0,0,-0.095100,-0.059806,0.002728,1,0,0,0,0,0,0,0.092747,-0.059680,-0.002608,1,0,0,0,0,0,0
3.760000,-0.001768,0.102650,-0.000114,1,0,0,0,0,0,0,-0.092276,-0.059113,0.002672,1,0,0,0,0,0,0,0.090717,-0.060090,-0.002659,1,0,0,0,0,0,0
3.770000,-0.002552,0.101900,-0.000110,1,0,0,0,0,0,0,-0.089601,-0.058548,0.002626,1,0,0,0,0,0,0,0.088988,-0.060730,-0.002724,1,0,0,0,0,0,0
3.780000,-0.003297,0.101561,-0.000108,1,0,0,0,0,0,0,-0.087128,-0.058091,0.002587,1,0,0,0,0,0,0,0.087507,-0.061518,-0.002795,1,0,0,0,0,0,0
3.790000,-0.003961,0.101564,-0.000111,1,0,0,0,0,0,0,-0.084932,-0.057737,0.002555,1,0,0,0,0,0,0,0.086229,-0.062349,-0.002865,1,0,0,0,0,0,0
3.800000,-0.004508,0.101791,-0.000116,1,0,0,0,0,0,0,-0.083101,-0.057490,0.002530,1,0,0,0,0,0,0,0.085135,-0.063108,-0.002922,1,0,0,0,0,0,0
3.810000,-0.004907,0.102128,-0.000123,1,0,0,0,0,0,0,-0.081731,-0.057354,0.002511,1,0,0,0,0,0,0,0.084256,-0.063703,-0.002961,1,0,0,0,0,0,0
3.820000,-0.005140,0.102510,-0.000132,1,0,0,0,0,0,0,-0.080907,-0.057324,0.002500,1,0,0,0,0,0,0,0.083672,-0.064087,-0.002979,1,0,0,0,0,0,0
3.830000,-0.005205,0.102937,-0.000142,1,0,0,0,0,0,0,-0.080639,-0.057367,0.002494,1,0,0,0,0,0,0,0.083453,-0.064242,-0.002975,1,0,0,0,0,0,0
3.840000,-0.005112,0.103423,-0.000152,1,0,0,0,0,0,0,-0.080863,-0.057430,0.002488,1,0,0,0,0,0,0,0.083639,-0.064171,-0.002952,1,0,0,0,0,0,0
3.850000,-0.004876,0.103953,-0.000162,1,0,0,0,0,0,0,-0.081435,-0.057445,0.002479,1,0,0,0,0,0,0,0.084206,-0.063885,-0.002912,1,0,0,0,0,0,0
3.860000,-0.004509,0.104494,-0.000170,1,0,0,0,0,0,0,-0.082179,-0.057346,0.002463,1,0,0,0,0,0,0,0.085053,-0.063398,-0.002856,1,0,0,0,0,0,0
3.870000,-0.004013,0.105058,-0.000177,1,0,0,0,0,0,0,-0.082966,-0.057100,0.002435,1,0,0,0,0,0,0,0.086058,-0.062719,-0.002787,1,0,0,0,0,0,0
3.880000,-0.003386,0.105683,-0.000183,1,0,0,0,0,0,0,-0.083724,-0.056712,0.002398,1,0,0,0,0,0,0,0.087083,-0.061839,-0.002703,1,0,0,0,0,0,0
3.890000,-0.002645,0.106359,-0.000185,1,0,0,0,0,0,0,-0.084495,-0.056225,0.002354,1,0,0,0,0,0,0,0.087994,-0.060730,-0.002603,1,0,0,0,0,0,0
3.900000,-0.001826,0.106986,-0.000185,1,0,0,0,0,0,0,-0.085371,-0.055698,0.002309,1,0,0,0,0,0,0,0.088688,-0.059366,-0.002484,1,0,0,0,0,0,0
3.910000,-0.000974,0.107405,-0.000182,1,0,0,0,0,0,0,-0.086455,-0.055178,0.002267,1,0,0,0,0,0,0,0.089131,-0.057761,-0.002347,1,0,0,0,0,0,0
3.920000,-0.000143,0.107479,-0.000176,1,0,0,0,0,0,0,-0.087675,-0.054644,0.002226,1,0,0,0,0,0,0,0.089372,-0.056007,-0.002201,1,0,0,0,0,0,0
3.930000,0.000623,0.107179,-0.000167,1,0,0,0,0,0,0,-0.088851,-0.054040,0.002181,1,0,0,0,0,0,0,0.089520,-0.054255,-0.002059,1,0,0,0,0,0,0
3.940000,0.001291,0.106611,-0.000157,1,0,0,0,0,0,0,-0.089797,-0.053332,0.002130,1,0,0,0,0,0,0,0.089700,-0.052686,-0.001938,1,0,0,0,0,0,0
3.950000,0.001834,0.105934,-0.000145,1,0,0,0,0,0,0,-0.090355,-0.052525,0.002071,1,0,0,0,0,0,0,0.089934,-0.051422,-0.001848,1,0,0,0,0,0,0
3.960000,0.002232,0.105265,-0.000133,1,0,0,0,0,0,0,-0.090463,-0.051673,0.002011,1,0,0,0,0,0,0,0.090134,-0.050481,-0.001789,1,0,0,0,0,0,0
3.970000,0.002474,0.104652,-0.000120,1,0,0,0,0,0,0,-0.090180,-0.050862,0.001956,1,0,0,0,0,0,0,0.090188,-0.049830,-0.001759,1,0,0,0,0,0,0
3.980000,0.002554,0.104126,-0.000106,1,0,0,0,0,0,0,-0.089632,-0.050174,0.001913,1,0,0,0,0,0,0,0.090011,-0.049414,-0.001750,1,0,0,0,0,0,0
3.990000,0.002473,0.103768,-0.000092,1,0,0,0,0,0,0,-0.088949,-0.049653,0.001887,1,0,0,0,0,0,0,0.089602,-0.049204,-0.001760,1,0,0,0,0,0,0
4.000000,0.002242,0.103680,-0.000079,1,0,0,0,0,0,0,-0.088221,-0.049303,0.001875,1,0,0,0,0,0,0,0.089039,-0.049196,-0.001786,1,0,0,0,0,0,0
4.010000,0.001885,0.104022,-0.000066,1,0,0,0,0,0,0,-0.087578,-0.049148,0.001880,1,0,0,0,0,0,0,0.088529,-0.049452,-0.001835,1,0,0,0,0,0,0
4.020000,0.001433,0.105031,-0.000054,1,0,0,0,0,0,0,-0.087253,-0.049280,0.001909,1,0,0,0,0,0,0,0.088403,-0.050101,-0.001915,1,0,0,0,0,0,0
4.030000,0.000909,0.106686,-0.000043,1,0,0,0,0,0,0,-0.087282,-0.049702,0.001961,1,0,0,0,0,0,0,0.088764,-0.051159,-0.002029,1,0,0,0,0,0,0
4.040000,0.000337,0.108887,-0.000035,1,0,0,0,0,0,0,-0.087635,-0.050386,0.002035,1,0,0,0,0,0,0,0.089602,-0.052600,-0.002174,1,0,0,0,0,0,0
4.050000,-0.000260,0.111561,-0.000030,1,0,0,0,0,0,0,-0.088266,-0.051289,0.002126,1,0,0,0,0,0,0,0.090850,-0.054361,-0.002346,1,0,0,0,0,0,0
4.060000,-0.000856,0.114672,-0.000030,1,0,0,0,0,0,0,-0.089114,-0.052362,0.002231,1,0,0,0,0,0,0,0.092416,-0.056370,-0.002541,1,0,0,0,0,0,0
4.070000,-0.001423,0.118188,-0.000034,1,0,0,0,0,0,0,-0.090118,-0.053558,0.002346,1,0,0,0,0,0,0,0.094227,-0.058557,-0.002751,1,0,0,0,0,0,0
4.080000,-0.001936,0.122050,-0.000042,1,0,0,0,0,0,0,-0.091256,-0.054859,0.002470,1,0,0,0,0,0,0,0.096235,-0.060857,-0.002974,1,0,0,0,0,0,0
4.090000,-0.002373,0.126151,-0.000055,1,0,0,0,0,0,0,-0.092543,-0.056271,0.002603,1,0,0,0,0,0,0,0.098423,-0.063215,-0.003203,1,0,0,0,0,0,0
4.100000,-0.002714,0.130369,-0.000071,1,0,0,0,0,0,0,-0.093986,-0.057788,0.002747,1,0,0,0,0,0,0,0.100816,-0.065601,-0.003438,1,0,0,0,0,0,0
4.110000,-0.002942,0.134587,-0.000088,1,0,0,0,0,0,0,-0.095607,-0.059398,0.002899,1,0,0,0,0,0,0,0.103404,-0.067965,-0.003675,1,0,0,0,0,0,0
4.120000,-0.003045,0.138702,-0.000107,1,0,0,0,0,0,0,-0.097428,-0.061077,0.003059,1,0,0,0,0,0,0,0.106132,-0.070237,-0.003906,1,0,0,0,0,0,0
4.130000,-0.003018,0.142619,-0.000125,1,0,0,0,0,0,0,-0.099431,-0.062775,0.003223,1,0,0,0,0,0,0,0.108899,-0.072334,-0.004123,1,0,0,0,0,0,0
4.140000,-0.002872,0.146240,-0.000142,1,0,0,0,0,0,0,-0.101535,-0.064412,0.003383,1,0,0,0,0,0,0,0.111606,-0.074179,-0.004317,1,0,0,0,0,0,0
4.150000,-0.002626,0.149474,-0.000156,1,0,0,0,0,0,0,-0.103675,-0.065936,0.003534,1,0,0,0,0,0,0,0.114179,-0.075719,-0.004481,1,0,0,0,0,0,0
4.160000,-0.002301,0.152276,-0.000166,1,0,0,0,0,0,0,-0.105870,-0.067344,0.003676,1,0,0,0,0,0,0,0.116588,-0.076929,-0.004612,1,0,0,0,0,0,0
4.170000,-0.001911,0.154629,-0.000172,1,0,0,0,0,0,0,-0.108089,-0.068626,0.003808,1,0,0,0,0,0,0,0.118851,-0.077810,-0.004709,1,0,0,0,0,0,0
4.180000,-0.001465,0.156539,-0.000175,1,0,0,0,0,0,0,-0.110247,-0.069756,0.003926,1,0,0,0,0,0,0,0.120974,-0.078378,-0.004772,1,0,0,0,0,0,0
4.190000,-0.000969,0.158024,-0.000175,1,0,0,0,0,0,0,-0.112292,-0.070725,0.004029,1,0,0,0,0,0,0,0.122945,-0.078656,-0.004803,1,0,0,0,0,0,0
4.200000,-0.000431,0.159091,-0.000171,1,0,0,0,0,0,0,-0.114200,-0.071526,0.004117,1,0,0,0,0,0,0,0.124733,-0.078672,-0.004805,1,0,0,0,0,0,0
4.210000,0.000140,0.159735,-0.000164,1,0,0,0,0,0,0,-0.115903,-0.072139,0.004185,1,0,0,0,0,0,0,0.126291,-0.078444,-0.004781,1,0,0,0,0,0,0
4.220000,0.000730,0.159930,-0.000154,1,0,0,0,0,0,0,-0.117348,-0.072546,0.004232,1,0,0,0,0,0,0,0.127583,-0.077990,-0.004732,1,0,0,0,0,0,0
4.230000,0.001323,0.159637,-0.000143,1,0,0,0,0,0,0,-0.118538,-0.072746,0.004257,1,0,0,0,0,0,0,0.128539,-0.077319,-0.004658,1,0,0,0,0,0,0
4.240000,0.001902,0.158817,-0.000131,1,0,0,0,0,0,0,-0.119448,-0.072733,0.004258,1,0,0,0,0,0,0,0.129092,-0.076434,-0.004560,1,0,0,0,0,0,0
4.250000,0.002445,0.157445,-0.000118,1,0,0,0,0,0,0,-0.120022,-0.072498,0.004234,1,0,0,0,0,0,0,0.129192,-0.075338,-0.004438,1,0,0,0,0,0,0
4.260000,0.002935,0.155525,-0.000105,1,0,0,0,0,0,0,-0.120227,-0.072041,0.004186,1,0,0,0,0,0,0,0.128815,-0.074036,-0.004293,1,0,0,0,0,0,0
4.270000,0.003358,0.153089,-0.000094,1,0,0,0,0,0,0,-0.120045,-0.071370,0.004112,1,0,0,0,0,0,0,0.127966,-0.072539,-0.004127,1,0,0,0,0,0,0
4.280000,0.003705,0.150193,-0.000084,1,0,0,0,0,0,0,-0.119481,-0.070500,0.004017,1,0,0,0,0,0,0,0.126676,-0.070870,-0.003943,1,0,0,0,0,0,0
4.290000,0.003965,0.146907,-0.000075,1,0,0,0,0,0,0,-0.118563,-0.069456,0.003903,1,0,0,0,0,0,0,0.124987,-0.069060,-0.003745,1,0,0,0,0,0,0
4.300000,0.004127,0.143307,-0.000068,1,0,0,0,0,0,0,-0.117337,-0.068267,0.003775,1,0,0,0,0,0,0,0.122958,-0.067154,-0.003541,1,0,0,0,0,0,0
4.310000,0.004181,0.139476,-0.000062,1,0,0,0,0,0,0,-0.115848,-0.066965,0.003636,1,0,0,0,0,0,0,0.120651,-0.065205,-0.003337,1,0,0,0,0,0,0
4.320000,0.004124,0.135497,-0.000057,1,0,0,0,0,0,0,-0.114120,-0.065565,0.003488,1,0,0,0,0,0,0,0.118122,-0.063269,-0.003140,1,0,0,0,0,0,0
4.330000,0.003954,0.131454,-0.000053,1,0,0,0,0,0,0,-0.112155,-0.064069,0.003333,1,0,0,0,0,0,0,0.115411,-0.061398,-0.002956,1,0,0,0,0,0,0
4.340000,0.003676,0.127425,-0.000049,1,0,0,0,0,0,0,-0.109929,-0.062469,0.003170,1,0,0,0,0,0,0,0.112534,-0.059627,-0.002788,1,0,0,0,0,0,0
