time,drone0_roll,drone0_pitch,drone0_yaw,drone0_des_qw,drone0_des_qx,drone0_des_qy,drone0_des_qz,drone0_err_x,drone0_err_y,drone0_err_z,drone1_roll,drone1_pitch,drone1_yaw,drone1_des_qw,drone1_des_qx,drone1_des_qy,drone1_des_qz,drone1_err_x,drone1_err_y,drone1_err_z,drone2_roll,drone2_pitch,drone2_yaw,drone2_des_qw,drone2_des_qx,drone2_des_qy,drone2_des_qz,drone2_err_x,drone2_err_y,drone2_err_z
0.000000,0.000000,0.000000,0.000000,1,0,0,0,0,0,0,0.000000,0.000000,0.000000,1,0,0,0,0,0,0,0.000000,0.000000,0.000000,1,0,0,0,0,0,0
0.010000,0.000001,-0.000001,-0.000000,1,0,0,0,0,0,0,0.000001,-0.000001,-0.000000,1,0,0,0,0,0,0,0.000001,-0.000001,-0.000000,1,0,0,0,0,0,0
0.020000,0.000003,-0.000006,-0.000000,1,0,0,0,0,0,0,0.000003,-0.000006,-0.000000,1,0,0,0,0,0,0,0.000075,-0.000046,-0.000000,1,0,0,0,0,0,0
0.030000,0.000008,-0.000016,-0.000000,1,0,0,0,0,0,0,0.000008,-0.000016,-0.000000,1,0,0,0,0,0,0,0.000267,-0.000161,-0.000000,1,0,0,0,0,0,0
0.040000,0.000015,0.000003,0.000000,1,0,0,0,0,0,0,0.000015,-0.000030,-0.000000,1,0,0,0,0,0,0,0.000590,-0.000355,-0.000000,1,0,0,0,0,0,0
0.050000,0.000025,0.000161,0.000000,1,0,0,0,0,0,0,0.000025,-0.000049,-0.000000,1,0,0,0,0,0,0,0.001051,-0.000633,-0.000000,1,0,0,0,0,0,0
0.060000,0.000037,0.000364,0.000000,1,0,0,0,0,0,0,0.000037,-0.000073,-0.000000,1,0,0,0,0,0,0,0.001659,-0.000997,-0.000001,1,0,0,0,0,0,0
0.070000,0.000050,0.000688,0.000000,1,0,0,0,0,0,0,-0.000061,-0.000197,-0.000000,1,0,0,0,0,0,0,0.002401,-0.001443,-0.000002,1,0,0,0,0,0,0
0.080000,0.000066,0.001156,0.000000,1,0,0,0,0,0,0,-0.000221,-0.000388,0.000000,1,0,0,0,0,0,0,0.003258,-0.001959,-0.000003,1,0,0,0,0,0,0
0.090000,0.000083,0.001731,0.000000,1,0,0,0,0,0,0,-0.000338,-0.000547,0.000000,1,0,0,0,0,0,0,0.004213,-0.002534,-0.000005,1,0,0,0,0,0,0
0.100000,0.000102,0.002438,0.000000,1,0,0,0,0,0,0,-0.000591,-0.000828,0.000000,1,0,0,0,0,0,0,0.005252,-0.003160,-0.000008,1,0,0,0,0,0,0
0.110000,0.000123,0.003282,0.000000,1,0,0,0,0,0,0,-0.000899,-0.001168,0.000000,1,0,0,0,0,0,0,0.006361,-0.003830,-0.000012,1,0,0,0,0,0,0
0.120000,0.000144,0.004267,0.000000,1,0,0,0,0,0,0,-0.001221,-0.001523,0.000001,1,0,0,0,0,0,0,0.007527,-0.004534,-0.000017,1,0,0,0,0,0,0
0.130000,0.000167,0.005401,0.000001,1,0,0,0,0,0,0,-0.001666,-0.001989,0.000001,1,0,0,0,0,0,0,0.008738,-0.005267,-0.000023,1,0,0,0,0,0,0
0.140000,0.000191,0.006692,0.000001,1,0,0,0,0,0,0,-0.002115,-0.002463,0.000002,1,0,0,0,0,0,0,0.009984,-0.006022,-0.000030,1,0,0,0,0,0,0
0.150000,0.000215,0.008118,0.000001,1,0,0,0,0,0,0,-0.002687,-0.003043,0.000004,1,0,0,0,0,0,0,0.011251,-0.006790,-0.000038,1,0,0,0,0,0,0
0.160000,0.000240,0.009630,0.000001,1,0,0,0,0,0,0,-0.003295,-0.003656,0.000006,1,0,0,0,0,0,0,0.012534,-0.007568,-0.000047,1,0,0,0,0,0,0
0.170000,0.000266,0.011195,0.000002,1,0,0,0,0,0,0,-0.004019,-0.004366,0.000008,1,0,0,0,0,0,0,0.013852,-0.008367,-0.000058,1,0,0,0,0,0,0
0.180000,0.000293,0.012801,0.000002,1,0,0,0,0,0,0,-0.004813,-0.005134,0.000012,1,0,0,0,0,0,0,0.015212,-0.009190,-0.000070,1,0,0,0,0,0,0
0.190000,0.000320,0.014438,0.000003,1,0,0,0,0,0,0,-0.005714,-0.005989,0.000016,1,0,0,0,0,0,0,0.016598,-0.010029,-0.000083,1,0,0,0,0,0,0
0.200000,0.000347,0.016086,0.000003,1,0,0,0,0,0,0,-0.006711,-0.006916,0.000022,1,0,0,0,0,0,0,0.017999,-0.010877,-0.000098,1,0,0,0,0,0,0
0.210000,0.000374,0.017715,0.000004,1,0,0,0,0,0,0,-0.007809,-0.007918,0.000029,1,0,0,0,0,0,0,0.019405,-0.011728,-0.000114,1,0,0,0,0,0,0
0.220000,0.000401,0.019292,0.000004,1,0,0,0,0,0,0,-0.009010,-0.008993,0.000038,1,0,0,0,0,0,0,0.020815,-0.012581,-0.000131,1,0,0,0,0,0,0
0.230000,0.000427,0.020811,0.000005,1,0,0,0,0,0,0,-0.010272,-0.010104,0.000049,1,0,0,0,0,0,0,0.022226,-0.013434,-0.000149,1,0,0,0,0,0,0
0.240000,0.000454,0.022292,0.000006,1,0,0,0,0,0,0,-0.011559,-0.011219,0.000061,1,0,0,0,0,0,0,0.023636,-0.014286,-0.000169,1,0,0,0,0,0,0
0.250000,0.000480,0.023738,0.000006,1,0,0,0,0,0,0,-0.012866,-0.012332,0.000075,1,0,0,0,0,0,0,0.025036,-0.015131,-0.000189,1,0,0,0,0,0,0
0.260000,0.000505,0.025146,0.000007,1,0,0,0,0,0,0,-0.014185,-0.013434,0.000090,1,0,0,0,0,0,0,0.026412,-0.015962,-0.000210,1,0,0,0,0,0,0
0.270000,0.000529,0.026517,0.000008,1,0,0,0,0,0,0,-0.015475,-0.014495,0.000106,1,0,0,0,0,0,0,0.027747,-0.016768,-0.000232,1,0,0,0,0,0,0
0.280000,0.000553,0.027847,0.000008,1,0,0,0,0,0,0,-0.016697,-0.015488,0.000122,1,0,0,0,0,0,0,0.029025,-0.017541,-0.000254,1,0,0,0,0,0,0
0.290000,0.000576,0.029123,0.000009,1,0,0,0,0,0,0,-0.017859,-0.016415,0.000139,1,0,0,0,0,0,0,0.030237,-0.018274,-0.000276,1,0,0,0,0,0,0
0.300000,0.000598,0.030323,0.000010,1,0,0,0,0,0,0,-0.018960,-0.017273,0.000155,1,0,0,0,0,0,0,0.031376,-0.018964,-0.000297,1,0,0,0,0,0,0
0.310000,0.000619,0.031425,0.000010,1,0,0,0,0,0,0,-0.019993,-0.018059,0.000171,1,0,0,0,0,0,0,0.032429,-0.019603,-0.000318,1,0,0,0,0,0,0
0.320000,0.000639,0.032412,0.000011,1,0,0,0,0,0,0,-0.020959,-0.018769,0.000186,1,0,0,0,0,0,0,0.033376,-0.020178,-0.000336,1,0,0,0,0,0,0
0.330000,0.000658,0.033277,0.000011,1,0,0,0,0,0,0,-0.021871,-0.019409,0.000200,1,0,0,0,0,0,0,0.034197,-0.020680,-0.000353,1,0,0,0,0,0,0
0.340000,0.000675,0.034013,0.000012,1,0,0,0,0,0,0,-0.022735,-0.019979,0.000213,1,0,0,0,0,0,0,0.034885,-0.021104,-0.000368,1,0,0,0,0,0,0
0.350000,0.000691,0.034610,0.000012,1,0,0,0,0,0,0,-0.023545,-0.020474,0.000226,1,0,0,0,0,0,0,0.035437,-0.021447,-0.000380,1,0,0,0,0,0,0
0.360000,0.000707,0.035050,0.000012,1,0,0,0,0,0,0,-0.024288,-0.020885,0.000236,1,0,0,0,0,0,0,0.035853,-0.021709,-0.000389,1,0,0,0,0,0,0
0.370000,0.000720,0.035326,0.000013,1,0,0,0,0,0,0,-0.024952,-0.021206,0.000245,1,0,0,0,0,0,0,0.036131,-0.021890,-0.000396,1,0,0,0,0,0,0
0.380000,0.000733,0.035436,0.000013,1,0,0,0,0,0,0,-0.025529,-0.021434,0.000252,1,0,0,0,0,0,0,0.036274,-0.021990,-0.000400,1,0,0,0,0,0,0
0.390000,0.000744,0.035384,0.000013,1,0,0,0,0,0,0,-0.026012,-0.021565,0.000257,1,0,0,0,0,0,0,0.036291,-0.022016,-0.000400,1,0,0,0,0,0,0
0.400000,0.000754,0.035178,0.000013,1,0,0,0,0,0,0,-0.026397,-0.021599,0.000259,1,0,0,0,0,0,0,0.036189,-0.021970,-0.000399,1,0,0,0,0,0,0
0.410000,0.000763,0.034829,0.000012,1,0,0,0,0,0,0,-0.026681,-0.021535,0.000259,1,0,0,0,0,0,0,0.035975,-0.021858,-0.000395,1,0,0,0,0,0,0
0.420000,0.000771,0.034344,0.000012,1,0,0,0,0,0,0,-0.026854,-0.021375,0.000256,1,0,0,0,0,0,0,0.035656,-0.021683,-0.000388,1,0,0,0,0,0,0
0.430000,0.000777,0.033729,0.000012,1,0,0,0,0,0,0,-0.026908,-0.021122,0.000251,1,0,0,0,0,0,0,0.035242,-0.021452,-0.000380,1,0,0,0,0,0,0
0.440000,0.000782,0.032991,0.000011,1,0,0,0,0,0,0,-0.026842,-0.020780,0.000244,1,0,0,0,0,0,0,0.034741,-0.021168,-0.000370,1,0,0,0,0,0,0
0.450000,0.000786,0.032137,0.000011,1,0,0,0,0,0,0,-0.026657,-0.020349,0.000234,1,0,0,0,0,0,0,0.034164,-0.020838,-0.000358,1,0,0,0,0,0,0
0.460000,0.000789,0.031174,0.000010,1,0,0,0,0,0,0,-0.026355,-0.019831,0.000223,1,0,0,0,0,0,0,0.033534,-0.020476,-0.000346,1,0,0,0,0,0,0
0.470000,0.000790,0.030111,0.000009,1,0,0,0,0,0,0,-0.025939,-0.019233,0.000209,1,0,0,0,0,0,0,0.032876,-0.020096,-0.000333,1,0,0,0,0,0,0
0.480000,0.000791,0.028958,0.000008,1,0,0,0,0,0,0,-0.025409,-0.018553,0.000194,1,0,0,0,0,0,0,0.032213,-0.019712,-0.000321,1,0,0,0,0,0,0
0.490000,0.000790,0.027725,0.000008,1,0,0,0,0,0,0,-0.024768,-0.017793,0.000178,1,0,0,0,0,0,0,0.031572,-0.019338,-0.000308,1,0,0,0,0,0,0
0.500000,0.000788,0.026423,0.000007,1,0,0,0,0,0,0,-0.024019,-0.016956,0.000160,1,0,0,0,0,0,0,0.030979,-0.018991,-0.000297,1,0,0,0,0,0,0
0.510000,0.000785,0.025067,0.000006,1,0,0,0,0,0,0,-0.023165,-0.016050,0.000141,1,0,0,0,0,0,0,0.030457,-0.018685,-0.000288,1,0,0,0,0,0,0
0.520000,0.000781,0.023674,0.000005,1,0,0,0,0,0,0,-0.022212,-0.015081,0.000121,1,0,0,0,0,0,0,0.030024,-0.018430,-0.000280,1,0,0,0,0,0,0
0.530000,0.000774,0.022263,0.000004,1,0,0,0,0,0,0,-0.021166,-0.014054,0.000102,1,0,0,0,0,0,0,0.029686,-0.018229,-0.000274,1,0,0,0,0,0,0
0.540000,0.000766,0.020857,0.000003,1,0,0,0,0,0,0,-0.020035,-0.012979,0.000082,1,0,0,0,0,0,0,0.029435,-0.018081,-0.000269,1,0,0,0,0,0,0
0.550000,0.000754,0.019482,0.000003,1,0,0,0,0,0,0,-0.018827,-0.011863,0.000064,1,0,0,0,0,0,0,0.029264,-0.017980,-0.000266,1,0,0,0,0,0,0
0.560000,0.000739,0.018170,0.000002,1,0,0,0,0,0,0,-0.017551,-0.010714,0.000045,1,0,0,0,0,0,0,0.029166,-0.017923,-0.000264,1,0,0,0,0,0,0
0.570000,0.000720,0.016957,0.000001,1,0,0,0,0,0,0,-0.016215,-0.009540,0.000028,1,0,0,0,0,0,0,0.029122,-0.017900,-0.000263,1,0,0,0,0,0,0
0.580000,0.000694,0.015887,0.000001,1,0,0,0,0,0,0,-0.014830,-0.008347,0.000013,1,0,0,0,0,0,0,0.029110,-0.017898,-0.000263,1,0,0,0,0,0,0
0.590000,0.000661,0.015008,0.000001,1,0,0,0,0,0,0,-0.013404,-0.007143,-0.000001,1,0,0,0,0,0,0,0.029111,-0.017907,-0.000263,1,0,0,0,0,0,0
0.600000,0.000619,0.014364,0.000000,1,0,0,0,0,0,0,-0.011949,-0.005935,-0.000014,1,0,0,0,0,0,0,0.029113,-0.017920,-0.000263,1,0,0,0,0,0,0
0.610000,0.000566,0.013977,0.000000,1,0,0,0,0,0,0,-0.010475,-0.004732,-0.000024,1,0,0,0,0,0,0,0.029119,-0.017939,-0.000264,1,0,0,0,0,0,0
0.620000,0.000502,0.013840,0.000001,1,0,0,0,0,0,0,-0.008991,-0.003537,-0.000033,1,0,0,0,0,0,0,0.029125,-0.017963,-0.000264,1,0,0,0,0,0,0
0.630000,0.000426,0.013943,0.000001,1,0,0,0,0,0,0,-0.007509,-0.002358,-0.000040,1,0,0,0,0,0,0,0.029116,-0.017986,-0.000265,1,0,0,0,0,0,0
0.640000,0.000338,0.014267,0.000001,1,0,0,0,0,0,0,-0.006044,-0.001202,-0.000045,1,0,0,0,0,0,0,0.029079,-0.017999,-0.000265,1,0,0,0,0,0,0
0.650000,0.000240,0.014742,0.000001,1,0,0,0,0,0,0,-0.004611,-0.000078,-0.000048,1,0,0,0,0,0,0,0.028998,-0.017994,-0.000265,1,0,0,0,0,0,0
0.660000,0.000137,0.015279,0.000001,1,0,0,0,0,0,0,-0.003230,0.001006,-0.000050,1,0,0,0,0,0,0,0.028868,-0.017968,-0.000264,1,0,0,0,0,0,0
0.670000,0.000033,0.015805,0.000002,1,0,0,0,0,0,0,-0.001923,0.002038,-0.000049,1,0,0,0,0,0,0,0.028689,-0.017922,-0.000262,1,0,0,0,0,0,0
0.680000,-0.000070,0.016282,0.000001,1,0,0,0,0,0,0,-0.000721,0.003008,-0.000048,1,0,0,0,0,0,0,0.028469,-0.017860,-0.000260,1,0,0,0,0,0,0
0.690000,-0.000172,0.016706,0.000001,1,0,0,0,0,0,0,0.000345,0.003900,-0.000045,1,0,0,0,0,0,0,0.028222,-0.017791,-0.000258,1,0,0,0,0,0,0
0.700000,-0.000273,0.017093,0.000001,1,0,0,0,0,0,0,0.001234,0.004700,-0.000042,1,0,0,0,0,0,0,0.027964,-0.017724,-0.000256,1,0,0,0,0,0,0
0.710000,-0.000379,0.017488,0.000001,1,0,0,0,0,0,0,0.001906,0.005392,-0.000038,1,0,0,0,0,0,0,0.027712,-0.017671,-0.000254,1,0,0,0,0,0,0
0.720000,-0.000493,0.017914,0.000000,1,0,0,0,0,0,0,0.002325,0.005963,-0.000034,1,0,0,0,0,0,0,0.027477,-0.017636,-0.000252,1,0,0,0,0,0,0
0.730000,-0.000616,0.018369,-0.000000,1,0,0,0,0,0,0,0.002468,0.006406,-0.000031,1,0,0,0,0,0,0,0.027266,-0.017621,-0.000251,1,0,0,0,0,0,0
0.740000,-0.000747,0.018834,-0.000001,1,0,0,0,0,0,0,0.002332,0.006720,-0.000028,1,0,0,0,0,0,0,0.027078,-0.017624,-0.000251,1,0,0,0,0,0,0
0.750000,-0.000885,0.019282,-0.000001,1,0,0,0,0,0,0,0.001928,0.006908,-0.000025,1,0,0,0,0,0,0,0.026912,-0.017643,-0.000251,1,0,0,0,0,0,0
0.760000,-0.001024,0.019684,-0.000002,1,0,0,0,0,0,0,0.001248,0.006969,-0.000023,1,0,0,0,0,0,0,0.026771,-0.017675,-0.000251,1,0,0,0,0,0,0
0.770000,-0.001159,0.020018,-0.000003,1,0,0,0,0,0,0,0.000326,0.006911,-0.000021,1,0,0,0,0,0,0,0.026660,-0.017723,-0.000251,1,0,0,0,0,0,0
0.780000,-0.001287,0.020276,-0.000004,1,0,0,0,0,0,0,-0.000749,0.006761,-0.000020,1,0,0,0,0,0,0,0.026588,-0.017790,-0.000252,1,0,0,0,0,0,0
0.790000,-0.001408,0.020462,-0.000005,1,0,0,0,0,0,0,-0.001870,0.006553,-0.000018,1,0,0,0,0,0,0,0.026565,-0.017882,-0.000254,1,0,0,0,0,0,0
0.800000,-0.001521,0.020590,-0.000005,1,0,0,0,0,0,0,-0.002959,0.006312,-0.000017,1,0,0,0,0,0,0,0.026599,-0.018000,-0.000256,1,0,0,0,0,0,0
0.810000,-0.001625,0.020670,-0.000006,1,0,0,0,0,0,0,-0.003974,0.006055,-0.000015,1,0,0,0,0,0,0,0.026697,-0.018149,-0.000259,1,0,0,0,0,0,0
0.820000,-0.001719,0.020716,-0.000007,1,0,0,0,0,0,0,-0.004909,0.005786,-0.000014,1,0,0,0,0,0,0,0.026867,-0.018334,-0.000263,1,0,0,0,0,0,0
0.830000,-0.001804,0.020746,-0.000008,1,0,0,0,0,0,0,-0.005791,0.005496,-0.000012,1,0,0,0,0,0,0,0.027127,-0.018564,-0.000268,1,0,0,0,0,0,0
0.840000,-0.001879,0.020783,-0.000008,1,0,0,0,0,0,0,-0.006687,0.005161,-0.000010,1,0,0,0,0,0,0,0.027505,-0.018857,-0.000275,1,0,0,0,0,0,0
0.850000,-0.001945,0.020852,-0.000009,1,0,0,0,0,0,0,-0.007634,0.004766,-0.000008,1,0,0,0,0,0,0,0.028036,-0.019234,-0.000285,1,0,0,0,0,0,0
0.860000,-0.002004,0.020975,-0.000010,1,0,0,0,0,0,0,-0.008646,0.004302,-0.000004,1,0,0,0,0,0,0,0.028749,-0.019717,-0.000297,1,0,0,0,0,0,0
0.870000,-0.002057,0.021176,-0.000011,1,0,0,0,0,0,0,-0.009720,0.003770,-0.000000,1,0,0,0,0,0,0,0.029654,-0.020311,-0.000314,1,0,0,0,0,0,0
0.880000,-0.002104,0.021473,-0.000012,1,0,0,0,0,0,0,-0.010876,0.003156,0.000005,1,0,0,0,0,0,0,0.030731,-0.021007,-0.000334,1,0,0,0,0,0,0
0.890000,-0.002148,0.021879,-0.000014,1,0,0,0,0,0,0,-0.012138,0.002441,0.000012,1,0,0,0,0,0,0,0.031946,-0.021785,-0.000358,1,0,0,0,0,0,0
0.900000,-0.002189,0.022397,-0.000016,1,0,0,0,0,0,0,-0.013480,0.001626,0.000021,1,0,0,0,0,0,0,0.033265,-0.022626,-0.000384,1,0,0,0,0,0,0
0.910000,-0.002227,0.023018,-0.000017,1,0,0,0,0,0,0,-0.014868,0.000715,0.000032,1,0,0,0,0,0,0,0.034666,-0.023514,-0.000414,1,0,0,0,0,0,0
0.920000,-0.002262,0.023721,-0.000020,1,0,0,0,0,0,0,-0.016255,-0.000279,0.000046,1,0,0,0,0,0,0,0.036122,-0.024435,-0.000446,1,0,0,0,0,0,0
0.930000,-0.002293,0.024479,-0.000022,1,0,0,0,0,0,0,-0.017583,-0.001326,0.000061,1,0,0,0,0,0,0,0.037605,-0.025372,-0.000480,1,0,0,0,0,0,0
0.940000,-0.002320,0.025267,-0.000024,1,0,0,0,0,0,0,-0.018807,-0.002394,0.000077,1,0,0,0,0,0,0,0.039095,-0.026311,-0.000516,1,0,0,0,0,0,0
0.950000,-0.002342,0.026073,-0.000026,1,0,0,0,0,0,0,-0.019914,-0.003472,0.000095,1,0,0,0,0,0,0,0.040601,-0.027258,-0.000554,1,0,0,0,0,0,0
0.960000,-0.002362,0.026902,-0.000028,1,0,0,0,0,0,0,-0.020901,-0.004555,0.000114,1,0,0,0,0,0,0,0.042136,-0.028219,-0.000593,1,0,0,0,0,0,0
0.970000,-0.002379,0.027777,-0.000031,1,0,0,0,0,0,0,-0.021768,-0.005629,0.000133,1,0,0,0,0,0,0,0.043712,-0.029202,-0.000636,1,0,0,0,0,0,0
0.980000,-0.002398,0.028770,-0.000033,1,0,0,0,0,0,0,-0.022516,-0.006682,0.000152,1,0,0,0,0,0,0,0.045339,-0.030209,-0.000680,1,0,0,0,0,0,0
0.990000,-0.002422,0.029934,-0.000036,1,0,0,0,0,0,0,-0.023150,-0.007710,0.000171,1,0,0,0,0,0,0,0.047017,-0.031239,-0.000728,1,0,0,0,0,0,0
1.000000,-0.002452,0.031277,-0.000040,1,0,0,0,0,0,0,-0.023677,-0.008714,0.000190,1,0,0,0,0,0,0,0.048734,-0.032281,-0.000778,1,0,0,0,0,0,0
1.010000,-0.002486,0.032772,-0.000043,1,0,0,0,0,0,0,-0.024104,-0.009697,0.000208,1,0,0,0,0,0,0,0.050466,-0.033319,-0.000830,1,0,0,0,0,0,0
1.020000,-0.002523,0.034382,-0.000047,1,0,0,0,0,0,0,-0.024446,-0.010676,0.000227,1,0,0,0,0,0,0,0.052193,-0.034338,-0.000883,1,0,0,0,0,0,0
1.030000,-0.002563,0.036085,-0.000051,1,0,0,0,0,0,0,-0.024726,-0.011672,0.000246,1,0,0,0,0,0,0,0.053927,-0.035346,-0.000937,1,0,0,0,0,0,0
1.040000,-0.002605,0.037861,-0.000056,1,0,0,0,0,0,0,-0.024964,-0.012698,0.000265,1,0,0,0,0,0,0,0.055665,-0.036342,-0.000993,1,0,0,0,0,0,0
1.050000,-0.002651,0.039692,-0.000060,1,0,0,0,0,0,0,-0.025174,-0.013756,0.000285,1,0,0,0,0,0,0,0.057395,-0.037320,-0.001049,1,0,0,0,0,0,0
1.060000,-0.002702,0.041552,-0.000065,1,0,0,0,0,0,0,-0.025360,-0.014836,0.000306,1,0,0,0,0,0,0,0.059114,-0.038282,-0.001107,1,0,0,0,0,0,0
1.070000,-0.002756,0.043394,-0.000069,1,0,0,0,0,0,0,-0.025518,-0.015921,0.000327,1,0,0,0,0,0,0,0.060836,-0.039239,-0.001165,1,0,0,0,0,0,0
1.080000,-0.002818,0.045239,-0.000074,1,0,0,0,0,0,0,-0.025662,-0.017004,0.000347,1,0,0,0,0,0,0,0.062585,-0.040209,-0.001227,1,0,0,0,0,0,0
1.090000,-0.002892,0.047126,-0.000079,1,0,0,0,0,0,0,-0.025805,-0.018087,0.000368,1,0,0,0,0,0,0,0.064382,-0.041210,-0.001292,1,0,0,0,0,0,0
1.100000,-0.002983,0.049075,-0.000084,1,0,0,0,0,0,0,-0.025936,-0.019159,0.000387,1,0,0,0,0,0,0,0.066239,-0.042256,-0.001363,1,0,0,0,0,0,0
1.110000,-0.003096,0.051108,-0.000089,1,0,0,0,0,0,0,-0.026054,-0.020223,0.000407,1,0,0,0,0,0,0,0.068148,-0.043346,-0.001438,1,0,0,0,0,0,0
1.120000,-0.003234,0.053240,-0.000095,1,0,0,0,0,0,0,-0.026160,-0.021294,0.000426,1,0,0,0,0,0,0,0.070079,-0.044465,-0.001518,1,0,0,0,0,0,0
1.130000,-0.003395,0.055455,-0.000102,1,0,0,0,0,0,0,-0.026240,-0.022361,0.000446,1,0,0,0,0,0,0,0.072002,-0.045597,-0.001601,1,0,0,0,0,0,0
1.140000,-0.003574,0.057699,-0.000109,1,0,0,0,0,0,0,-0.026272,-0.023402,0.000464,1,0,0,0,0,0,0,0.073877,-0.046721,-0.001686,1,0,0,0,0,0,0
1.150000,-0.003764,0.059924,-0.000117,1,0,0,0,0,0,0,-0.026245,-0.024396,0.000481,1,0,0,0,0,0,0,0.075649,-0.047804,-0.001769,1,0,0,0,0,0,0
1.160000,-0.003962,0.062103,-0.000125,1,0,0,0,0,0,0,-0.026154,-0.025328,0.000496,1,0,0,0,0,0,0,0.077263,-0.048816,-0.001849,1,0,0,0,0,0,0
1.170000,-0.004161,0.064180,-0.000134,1,0,0,0,0,0,0,-0.026002,-0.026188,0.000509,1,0,0,0,0,0,0,0.078670,-0.049729,-0.001923,1,0,0,0,0,0,0
1.180000,-0.004351,0.066069,-0.000142,1,0,0,0,0,0,0,-0.025796,-0.026970,0.000519,1,0,0,0,0,0,0,0.079832,-0.050518,-0.001988,1,0,0,0,0,0,0
1.190000,-0.004530,0.067758,-0.000149,1,0,0,0,0,0,0,-0.025546,-0.027670,0.000527,1,0,0,0,0,0,0,0.080718,-0.051169,-0.002042,1,0,0,0,0,0,0
1.200000,-0.004701,0.069263,-0.000156,1,0,0,0,0,0,0,-0.025253,-0.028278,0.000532,1,0,0,0,0,0,0,0.081316,-0.051670,-0.002084,1,0,0,0,0,0,0
1.210000,-0.004862,0.070573,-0.000163,1,0,0,0,0,0,0,-0.024912,-0.028787,0.000534,1,0,0,0,0,0,0,0.081625,-0.052021,-0.002114,1,0,0,0,0,0,0
1.220000,-0.005012,0.071687,-0.000169,1,0,0,0,0,0,0,-0.024525,-0.029194,0.000534,1,0,0,0,0,0,0,0.081658,-0.052226,-0.002132,1,0,0,0,0,0,0
1.230000,-0.005152,0.072615,-0.000174,1,0,0,0,0,0,0,-0.024101,-0.029501,0.000531,1,0,0,0,0,0,0,0.081437,-0.052294,-0.002138,1,0,0,0,0,0,0
1.240000,-0.005282,0.073364,-0.000179,1,0,0,0,0,0,0,-0.023646,-0.029706,0.000525,1,0,0,0,0,0,0,0.080987,-0.052234,-0.002133,1,0,0,0,0,0,0
1.250000,-0.005401,0.073948,-0.000183,1,0,0,0,0,0,0,-0.023163,-0.029810,0.000517,1,0,0,0,0,0,0,0.080337,-0.052065,-0.002119,1,0,0,0,0,0,0
1.260000,-0.005512,0.074386,-0.000186,1,0,0,0,0,0,0,-0.022671,-0.029812,0.000507,1,0,0,0,0,0,0,0.079524,-0.051808,-0.002097,1,0,0,0,0,0,0
1.270000,-0.005614,0.074687,-0.000189,1,0,0,0,0,0,0,-0.022190,-0.029713,0.000494,1,0,0,0,0,0,0,0.078579,-0.051478,-0.002069,1,0,0,0,0,0,0
1.280000,-0.005704,0.074847,-0.000191,1,0,0,0,0,0,0,-0.021740,-0.029510,0.000480,1,0,0,0,0,0,0,0.077520,-0.051085,-0.002035,1,0,0,0,0,0,0
1.290000,-0.005782,0.074861,-0.000192,1,0,0,0,0,0,0,-0.021332,-0.029208,0.000464,1,0,0,0,0,0,0,0.076362,-0.050630,-0.001997,1,0,0,0,0,0,0
1.300000,-0.005848,0.074752,-0.000193,1,0,0,0,0,0,0,-0.020967,-0.028812,0.000446,1,0,0,0,0,0,0,0.075113,-0.050118,-0.001955,1,0,0,0,0,0,0
1.310000,-0.005906,0.074544,-0.000193,1,0,0,0,0,0,0,-0.020640,-0.028332,0.000427,1,0,0,0,0,0,0,0.073776,-0.049546,-0.001908,1,0,0,0,0,0,0
1.320000,-0.005954,0.074246,-0.000193,1,0,0,0,0,0,0,-0.020349,-0.027779,0.000407,1,0,0,0,0,0,0,0.072349,-0.048908,-0.001857,1,0,0,0,0,0,0
1.330000,-0.005994,0.073857,-0.000192,1,0,0,0,0,0,0,-0.020096,-0.027167,0.000387,1,0,0,0,0,0,0,0.070830,-0.048199,-0.001801,1,0,0,0,0,0,0
1.340000,-0.006024,0.073363,-0.000191,1,0,0,0,0,0,0,-0.019886,-0.026508,0.000367,1,0,0,0,0,0,0,0.069214,-0.047414,-0.001741,1,0,0,0,0,0,0
1.350000,-0.006045,0.072747,-0.000189,1,0,0,0,0,0,0,-0.019720,-0.025815,0.000347,1,0,0,0,0,0,0,0.067509,-0.046554,-0.001676,1,0,0,0,0,0,0
1.360000,-0.006057,0.071999,-0.000186,1,0,0,0,0,0,0,-0.019603,-0.025098,0.000327,1,0,0,0,0,0,0,0.065738,-0.045632,-0.001608,1,0,0,0,0,0,0
1.370000,-0.006062,0.071118,-0.000183,1,0,0,0,0,0,0,-0.019527,-0.024364,0.000307,1,0,0,0,0,0,0,0.063918,-0.044656,-0.001538,1,0,0,0,0,0,0
1.380000,-0.006063,0.070102,-0.000179,1,0,0,0,0,0,0,-0.019477,-0.023617,0.000288,1,0,0,0,0,0,0,0.062065,-0.043635,-0.001467,1,0,0,0,0,0,0
1.390000,-0.006060,0.068948,-0.000174,1,0,0,0,0,0,0,-0.019457,-0.022862,0.000269,1,0,0,0,0,0,0,0.060194,-0.042577,-0.001396,1,0,0,0,0,0,0
1.400000,-0.006053,0.067643,-0.000168,1,0,0,0,0,0,0,-0.019469,-0.022107,0.000252,1,0,0,0,0,0,0,0.058322,-0.041489,-0.001324,1,0,0,0,0,0,0
1.410000,-0.006038,0.066172,-0.000161,1,0,0,0,0,0,0,-0.019514,-0.021356,0.000234,1,0,0,0,0,0,0,0.056465,-0.040382,-0.001254,1,0,0,0,0,0,0
1.420000,-0.006012,0.064518,-0.000153,1,0,0,0,0,0,0,-0.019589,-0.020610,0.000218,1,0,0,0,0,0,0,0.054632,-0.039260,-0.001184,1,0,0,0,0,0,0
1.430000,-0.005968,0.062669,-0.000145,1,0,0,0,0,0,0,-0.019688,-0.019867,0.000202,1,0,0,0,0,0,0,0.052822,-0.038123,-0.001116,1,0,0,0,0,0,0
1.440000,-0.005903,0.060619,-0.000135,1,0,0,0,0,0,0,-0.019808,-0.019126,0.000187,1,0,0,0,0,0,0,0.051033,-0.036969,-0.001050,1,0,0,0,0,0,0
1.450000,-0.005812,0.058370,-0.000124,1,0,0,0,0,0,0,-0.019943,-0.018384,0.000172,1,0,0,0,0,0,0,0.049259,-0.035796,-0.000984,1,0,0,0,0,0,0
1.460000,-0.005691,0.055935,-0.000113,1,0,0,0,0,0,0,-0.020078,-0.017632,0.000157,1,0,0,0,0,0,0,0.047484,-0.034595,-0.000920,1,0,0,0,0,0,0
1.470000,-0.005538,0.053337,-0.000101,1,0,0,0,0,0,0,-0.020193,-0.016860,0.000143,1,0,0,0,0,0,0,0.045681,-0.033353,-0.000856,1,0,0,0,0,0,0
1.480000,-0.005355,0.050604,-0.000089,1,0,0,0,0,0,0,-0.020271,-0.016063,0.000128,1,0,0,0,0,0,0,0.043843,-0.032067,-0.000792,1,0,0,0,0,0,0
1.490000,-0.005143,0.047768,-0.000077,1,0,0,0,0,0,0,-0.020307,-0.015241,0.000113,1,0,0,0,0,0,0,0.041973,-0.030741,-0.000730,1,0,0,0,0,0,0
1.500000,-0.004906,0.044855,-0.000065,1,0,0,0,0,0,0,-0.020324,-0.014399,0.000098,1,0,0,0,0,0,0,0.040066,-0.029372,-0.000668,1,0,0,0,0,0,0
1.510000,-0.004645,0.041891,-0.000053,1,0,0,0,0,0,0,-0.020363,-0.013544,0.000083,1,0,0,0,0,0,0,0.038124,-0.027964,-0.000608,1,0,0,0,0,0,0
1.520000,-0.004364,0.038901,-0.000043,1,0,0,0,0,0,0,-0.020437,-0.012675,0.000069,1,0,0,0,0,0,0,0.036163,-0.026526,-0.000550,1,0,0,0,0,0,0
1.530000,-0.004063,0.035909,-0.000033,1,0,0,0,0,0,0,-0.020552,-0.011785,0.000054,1,0,0,0,0,0,0,0.034201,-0.025069,-0.000494,1,0,0,0,0,0,0
1.540000,-0.003746,0.032934,-0.000023,1,0,0,0,0,0,0,-0.020706,-0.010869,0.000039,1,0,0,0,0,0,0,0.032252,-0.023600,-0.000441,1,0,0,0,0,0,0
1.550000,-0.003417,0.029991,-0.000015,1,0,0,0,0,0,0,-0.020891,-0.009920,0.000023,1,0,0,0,0,0,0,0.030329,-0.022129,-0.000391,1,0,0,0,0,0,0
1.560000,-0.003078,0.027091,-0.000008,1,0,0,0,0,0,0,-0.021096,-0.008934,0.000007,1,0,0,0,0,0,0,0.028448,-0.020665,-0.000344,1,0,0,0,0,0,0
1.570000,-0.002732,0.024246,-0.000002,1,0,0,0,0,0,0,-0.021305,-0.007913,-0.000009,1,0,0,0,0,0,0,0.026618,-0.019214,-0.000301,1,0,0,0,0,0,0
1.580000,-0.002382,0.021471,0.000004,1,0,0,0,0,0,0,-0.021498,-0.006862,-0.000026,1,0,0,0,0,0,0,0.024850,-0.017784,-0.000261,1,0,0,0,0,0,0
1.590000,-0.002029,0.018772,0.000008,1,0,0,0,0,0,0,-0.021660,-0.005795,-0.000044,1,0,0,0,0,0,0,0.023151,-0.016381,-0.000225,1,0,0,0,0,0,0
1.600000,-0.001677,0.016145,0.000011,1,0,0,0,0,0,0,-0.021783,-0.004721,-0.000061,1,0,0,0,0,0,0,0.021528,-0.015008,-0.000192,1,0,0,0,0,0,0
1.610000,-0.001327,0.013588,0.000013,1,0,0,0,0,0,0,-0.021866,-0.003654,-0.000078,1,0,0,0,0,0,0,0.019991,-0.013674,-0.000162,1,0,0,0,0,0,0
1.620000,-0.000981,0.011114,0.000015,1,0,0,0,0,0,0,-0.021907,-0.002604,-0.000094,1,0,0,0,0,0,0,0.018553,-0.012386,-0.000136,1,0,0,0,0,0,0
1.630000,-0.000640,0.008746,0.000015,1,0,0,0,0,0,0,-0.021898,-0.001585,-0.000109,1,0,0,0,0,0,0,0.017218,-0.011148,-0.000112,1,0,0,0,0,0,0
1.640000,-0.000306,0.006509,0.000015,1,0,0,0,0,0,0,-0.021826,-0.000607,-0.000123,1,0,0,0,0,0,0,0.015991,-0.009965,-0.000091,1,0,0,0,0,0,0
1.650000,0.000019,0.004422,0.000015,1,0,0,0,0,0,0,-0.021683,0.000325,-0.000135,1,0,0,0,0,0,0,0.014870,-0.008839,-0.000073,1,0,0,0,0,0,0
1.660000,0.000334,0.002507,0.000013,1,0,0,0,0,0,0,-0.021467,0.001203,-0.000147,1,0,0,0,0,0,0,0.013856,-0.007776,-0.000057,1,0,0,0,0,0,0
1.670000,0.000638,0.000784,0.000012,1,0,0,0,0,0,0,-0.021174,0.002023,-0.000156,1,0,0,0,0,0,0,0.012951,-0.006779,-0.000043,1,0,0,0,0,0,0
1.680000,0.000928,-0.000728,0.000010,1,0,0,0,0,0,0,-0.020800,0.002780,-0.000164,1,0,0,0,0,0,0,0.012160,-0.005857,-0.000032,1,0,0,0,0,0,0
1.690000,0.001207,-0.002021,0.000008,1,0,0,0,0,0,0,-0.020338,0.003473,-0.000170,1,0,0,0,0,0,0,0.011487,-0.005017,-0.000022,1,0,0,0,0,0,0
1.700000,0.001474,-0.003104,0.000006,1,0,0,0,0,0,0,-0.019784,0.004099,-0.000175,1,0,0,0,0,0,0,0.010934,-0.004264,-0.000014,1,0,0,0,0,0,0
1.710000,0.001730,-0.003998,0.000004,1,0,0,0,0,0,0,-0.019137,0.004658,-0.000178,1,0,0,0,0,0,0,0.010498,-0.003604,-0.000007,1,0,0,0,0,0,0
1.720000,0.001977,-0.004723,0.000002,1,0,0,0,0,0,0,-0.018398,0.005154,-0.000179,1,0,0,0,0,0,0,0.010179,-0.003043,-0.000002,1,0,0,0,0,0,0
1.730000,0.002216,-0.005292,0.000000,1,0,0,0,0,0,0,-0.017572,0.005587,-0.000179,1,0,0,0,0,0,0,0.009979,-0.002586,0.000002,1,0,0,0,0,0,0
1.740000,0.002446,-0.005706,-0.000001,1,0,0,0,0,0,0,-0.016670,0.005961,-0.000177,1,0,0,0,0,0,0,0.009894,-0.002236,0.000005,1,0,0,0,0,0,0
1.750000,0.002667,-0.005965,-0.000002,1,0,0,0,0,0,0,-0.015702,0.006276,-0.000175,1,0,0,0,0,0,0,0.009911,-0.001990,0.000006,1,0,0,0,0,0,0
1.760000,0.002878,-0.006079,-0.000003,1,0,0,0,0,0,0,-0.014683,0.006535,-0.000171,1,0,0,0,0,0,0,0.010012,-0.001841,0.000007,1,0,0,0,0,0,0
1.770000,0.003079,-0.006070,-0.000003,1,0,0,0,0,0,0,-0.013626,0.006737,-0.000167,1,0,0,0,0,0,0,0.010184,-0.001781,0.000006,1,0,0,0,0,0,0
1.780000,0.003268,-0.005973,-0.000003,1,0,0,0,0,0,0,-0.012547,0.006883,-0.000161,1,0,0,0,0,0,0,0.010420,-0.001806,0.000005,1,0,0,0,0,0,0
1.790000,0.003444,-0.005811,-0.000003,1,0,0,0,0,0,0,-0.011459,0.006972,-0.000155,1,0,0,0,0,0,0,0.010707,-0.001910,0.000003,1,0,0,0,0,0,0
1.800000,0.003606,-0.005592,-0.000003,1,0,0,0,0,0,0,-0.010377,0.007001,-0.000148,1,0,0,0,0,0,0,0.011036,-0.002085,0.000000,1,0,0,0,0,0,0
1.810000,0.003753,-0.005307,-0.000002,1,0,0,0,0,0,0,-0.009317,0.006971,-0.000141,1,0,0,0,0,0,0,0.011404,-0.002331,-0.000003,1,0,0,0,0,0,0
1.820000,0.003885,-0.004943,-0.000001,1,0,0,0,0,0,0,-0.008289,0.006885,-0.000134,1,0,0,0,0,0,0,0.011812,-0.002649,-0.000007,1,0,0,0,0,0,0
1.830000,0.004000,-0.004498,0.000000,1,0,0,0,0,0,0,-0.007302,0.006746,-0.000126,1,0,0,0,0,0,0,0.012251,-0.003031,-0.000013,1,0,0,0,0,0,0
1.840000,0.004098,-0.003980,0.000002,1,0,0,0,0,0,0,-0.006362,0.006557,-0.000119,1,0,0,0,0,0,0,0.012711,-0.003472,-0.000018,1,0,0,0,0,0,0
1.850000,0.004177,-0.003402,0.000004,1,0,0,0,0,0,0,-0.005474,0.006322,-0.000111,1,0,0,0,0,0,0,0.013180,-0.003960,-0.000025,1,0,0,0,0,0,0
1.860000,0.004237,-0.002777,0.000006,1,0,0,0,0,0,0,-0.004638,0.006043,-0.000104,1,0,0,0,0,0,0,0.013649,-0.004488,-0.000032,1,0,0,0,0,0,0
1.870000,0.004278,-0.002115,0.000008,1,0,0,0,0,0,0,-0.003854,0.005723,-0.000097,1,0,0,0,0,0,0,0.014105,-0.005043,-0.000040,1,0,0,0,0,0,0
1.880000,0.004300,-0.001426,0.000010,1,0,0,0,0,0,0,-0.003122,0.005367,-0.000091,1,0,0,0,0,0,0,0.014536,-0.005614,-0.000048,1,0,0,0,0,0,0
1.890000,0.004304,-0.000716,0.000012,1,0,0,0,0,0,0,-0.002442,0.004974,-0.000085,1,0,0,0,0,0,0,0.014933,-0.006188,-0.000056,1,0,0,0,0,0,0
1.900000,0.004288,0.000009,0.000015,1,0,0,0,0,0,0,-0.001813,0.004548,-0.000079,1,0,0,0,0,0,0,0.015296,-0.006763,-0.000064,1,0,0,0,0,0,0
1.910000,0.004255,0.000746,0.000017,1,0,0,0,0,0,0,-0.001234,0.004090,-0.000074,1,0,0,0,0,0,0,0.015628,-0.007339,-0.000072,1,0,0,0,0,0,0
1.920000,0.004203,0.001493,0.000019,1,0,0,0,0,0,0,-0.000710,0.003598,-0.000069,1,0,0,0,0,0,0,0.015931,-0.007913,-0.000081,1,0,0,0,0,0,0
1.930000,0.004133,0.002252,0.000021,1,0,0,0,0,0,0,-0.000245,0.003070,-0.000064,1,0,0,0,0,0,0,0.016210,-0.008483,-0.000089,1,0,0,0,0,0,0
1.940000,0.004045,0.003025,0.000024,1,0,0,0,0,0,0,0.000161,0.002507,-0.000060,1,0,0,0,0,0,0,0.016470,-0.009051,-0.000097,1,0,0,0,0,0,0
1.950000,0.003939,0.003814,0.000026,1,0,0,0,0,0,0,0.000513,0.001913,-0.000057,1,0,0,0,0,0,0,0.016722,-0.009618,-0.000105,1,0,0,0,0,0,0
1.960000,0.003816,0.004622,0.000028,1,0,0,0,0,0,0,0.000818,0.001291,-0.000054,1,0,0,0,0,0,0,0.016978,-0.010190,-0.000113,1,0,0,0,0,0,0
1.970000,0.003675,0.005447,0.000030,1,0,0,0,0,0,0,0.001078,0.000644,-0.000051,1,0,0,0,0,0,0,0.017254,-0.010773,-0.000122,1,0,0,0,0,0,0
1.980000,0.003520,0.006282,0.000032,1,0,0,0,0,0,0,0.001296,-0.000023,-0.000049,1,0,0,0,0,0,0,0.017566,-0.011376,-0.000131,1,0,0,0,0,0,0
1.990000,0.003352,0.007117,0.000033,1,0,0,0,0,0,0,0.001479,-0.000707,-0.000046,1,0,0,0,0,0,0,0.017930,-0.012003,-0.000140,1,0,0,0,0,0,0
2.000000,0.003173,0.007944,0.000035,1,0,0,0,0,0,0,0.001633,-0.001399,-0.000045,1,0,0,0,0,0,0,0.018355,-0.012659,-0.000150,1,0,0,0,0,0,0
2.010000,0.002981,0.008763,0.000036,1,0,0,0,0,0,0,0.001754,-0.002100,-0.000043,1,0,0,0,0,0,0,0.018855,-0.013347,-0.000161,1,0,0,0,0,0,0
2.020000,0.002768,0.009568,0.000037,1,0,0,0,0,0,0,0.001812,-0.002829,-0.000042,1,0,0,0,0,0,0,0.019427,-0.014061,-0.000172,1,0,0,0,0,0,0
2.030000,0.002536,0.010346,0.000038,1,0,0,0,0,0,0,0.001791,-0.003600,-0.000041,1,0,0,0,0,0,0,0.020062,-0.014789,-0.000185,1,0,0,0,0,0,0
2.040000,0.002290,0.011095,0.000038,1,0,0,0,0,0,0,0.001677,-0.004421,-0.000040,1,0,0,0,0,0,0,0.020755,-0.015524,-0.000197,1,0,0,0,0,0,0
2.050000,0.002032,0.011820,0.000038,1,0,0,0,0,0,0,0.001455,-0.005304,-0.000039,1,0,0,0,0,0,0,0.021502,-0.016261,-0.000211,1,0,0,0,0,0,0
2.060000,0.001766,0.012535,0.000038,1,0,0,0,0,0,0,0.001107,-0.006261,-0.000038,1,0,0,0,0,0,0,0.022296,-0.016993,-0.000225,1,0,0,0,0,0,0
2.070000,0.001493,0.013263,0.000038,1,0,0,0,0,0,0,0.000629,-0.007297,-0.000037,1,0,0,0,0,0,0,0.023128,-0.017713,-0.000239,1,0,0,0,0,0,0
2.080000,0.001211,0.014033,0.000037,1,0,0,0,0,0,0,0.000034,-0.008402,-0.000035,1,0,0,0,0,0,0,0.023985,-0.018411,-0.000253,1,0,0,0,0,0,0
2.090000,0.000919,0.014877,0.000036,1,0,0,0,0,0,0,-0.000649,-0.009555,-0.000033,1,0,0,0,0,0,0,0.024856,-0.019083,-0.000268,1,0,0,0,0,0,0
2.100000,0.000618,0.015819,0.000035,1,0,0,0,0,0,0,-0.001397,-0.010739,-0.000030,1,0,0,0,0,0,0,0.025739,-0.019727,-0.000282,1,0,0,0,0,0,0
2.110000,0.000308,0.016862,0.000034,1,0,0,0,0,0,0,-0.002193,-0.011947,-0.000025,1,0,0,0,0,0,0,0.026642,-0.020345,-0.000296,1,0,0,0,0,0,0
2.120000,-0.000009,0.017993,0.000032,1,0,0,0,0,0,0,-0.003016,-0.013163,-0.000020,1,0,0,0,0,0,0,0.027581,-0.020947,-0.000311,1,0,0,0,0,0,0
2.130000,-0.000328,0.019190,0.000030,1,0,0,0,0,0,0,-0.003846,-0.014369,-0.000013,1,0,0,0,0,0,0,0.028581,-0.021544,-0.000326,1,0,0,0,0,0,0
2.140000,-0.000646,0.020431,0.000028,1,0,0,0,0,0,0,-0.004667,-0.015546,-0.000006,1,0,0,0,0,0,0,0.029666,-0.022148,-0.000343,1,0,0,0,0,0,0
2.150000,-0.000961,0.021704,0.000025,1,0,0,0,0,0,0,-0.005468,-0.016677,0.000002,1,0,0,0,0,0,0,0.030854,-0.022765,-0.000361,1,0,0,0,0,0,0
2.160000,-0.001269,0.022996,0.000021,1,0,0,0,0,0,0,-0.006246,-0.017750,0.000011,1,0,0,0,0,0,0,0.032159,-0.023399,-0.000380,1,0,0,0,0,0,0
2.170000,-0.001567,0.024300,0.000017,1,0,0,0,0,0,0,-0.007003,-0.018759,0.000020,1,0,0,0,0,0,0,0.033599,-0.024055,-0.000401,1,0,0,0,0,0,0
2.180000,-0.001854,0.025624,0.000013,1,0,0,0,0,0,0,-0.007741,-0.019704,0.000030,1,0,0,0,0,0,0,0.035209,-0.024746,-0.000425,1,0,0,0,0,0,0
2.190000,-0.002132,0.027012,0.000008,1,0,0,0,0,0,0,-0.008464,-0.020579,0.000040,1,0,0,0,0,0,0,0.037038,-0.025494,-0.000452,1,0,0,0,0,0,0
2.200000,-0.002403,0.028540,0.000002,1,0,0,0,0,0,0,-0.009177,-0.021382,0.000050,1,0,0,0,0,0,0,0.039147,-0.026330,-0.000485,1,0,0,0,0,0,0
2.210000,-0.002671,0.030317,-0.000005,1,0,0,0,0,0,0,-0.009886,-0.022113,0.000059,1,0,0,0,0,0,0,0.041624,-0.027297,-0.000525,1,0,0,0,0,0,0
2.220000,-0.002936,0.032454,-0.000013,1,0,0,0,0,0,0,-0.010613,-0.022779,0.000069,1,0,0,0,0,0,0,0.044581,-0.028460,-0.000578,1,0,0,0,0,0,0
2.230000,-0.003190,0.035029,-0.000023,1,0,0,0,0,0,0,-0.011381,-0.023388,0.000079,1,0,0,0,0,0,0,0.048149,-0.029899,-0.000647,1,0,0,0,0,0,0
2.240000,-0.003420,0.038061,-0.000035,1,0,0,0,0,0,0,-0.012223,-0.023943,0.000089,1,0,0,0,0,0,0,0.052419,-0.031691,-0.000741,1,0,0,0,0,0,0
2.250000,-0.003609,0.041535,-0.000049,1,0,0,0,0,0,0,-0.013171,-0.024449,0.000098,1,0,0,0,0,0,0,0.057393,-0.033882,-0.000866,1,0,0,0,0,0,0
2.260000,-0.003742,0.045459,-0.000065,1,0,0,0,0,0,0,-0.014238,-0.024898,0.000108,1,0,0,0,0,0,0,0.062990,-0.036484,-0.001029,1,0,0,0,0,0,0
2.270000,-0.003807,0.049880,-0.000083,1,0,0,0,0,0,0,-0.015415,-0.025282,0.000118,1,0,0,0,0,0,0,0.069085,-0.039489,-0.001234,1,0,0,0,0,0,0
2.280000,-0.003804,0.054824,-0.000103,1,0,0,0,0,0,0,-0.016687,-0.025595,0.000127,1,0,0,0,0,0,0,0.075525,-0.042873,-0.001486,1,0,0,0,0,0,0
2.290000,-0.003747,0.060314,-0.000124,1,0,0,0,0,0,0,-0.018061,-0.025837,0.000136,1,0,0,0,0,0,0,0.082151,-0.046597,-0.001788,1,0,0,0,0,0,0
2.300000,-0.003667,0.066442,-0.000146,1,0,0,0,0,0,0,-0.019560,-0.026014,0.000145,1,0,0,0,0,0,0,0.088850,-0.050621,-0.002140,1,0,0,0,0,0,0
2.310000,-0.003611,0.073304,-0.000170,1,0,0,0,0,0,0,-0.021200,-0.026130,0.000154,1,0,0,0,0,0,0,0.095567,-0.054902,-0.002542,1,0,0,0,0,0,0
2.320000,-0.003637,0.080861,-0.000196,1,0,0,0,0,0,0,-0.022957,-0.026182,0.000162,1,0,0,0,0,0,0,0.102226,-0.059343,-0.002988,1,0,0,0,0,0,0
2.330000,-0.003780,0.088957,-0.000223,1,0,0,0,0,0,0,-0.024792,-0.026167,0.000169,1,0,0,0,0,0,0,0.108692,-0.063788,-0.003462,1,0,0,0,0,0,0
2.340000,-0.004043,0.097388,-0.000253,1,0,0,0,0,0,0,-0.026682,-0.026093,0.000176,1,0,0,0,0,0,0,0.114845,-0.068096,-0.003947,1,0,0,0,0,0,0
2.350000,-0.004390,0.105907,-0.000286,1,0,0,0,0,0,0,-0.028633,-0.025989,0.000183,1,0,0,0,0,0,0,0.120658,-0.072209,-0.004434,1,0,0,0,0,0,0
2.360000,-0.004761,0.114250,-0.000321,1,0,0,0,0,0,0,-0.030690,-0.025906,0.000192,1,0,0,0,0,0,0,0.126242,-0.076172,-0.004923,1,0,0,0,0,0,0
2.370000,-0.005128,0.122273,-0.000358,1,0,0,0,0,0,0,-0.032955,-0.025918,0.000204,1,0,0,0,0,0,0,0.131764,-0.080073,-0.005424,1,0,0,0,0,0,0
2.380000,-0.005515,0.129979,-0.000396,1,0,0,0,0,0,0,-0.035592,-0.026116,0.000223,1,0,0,0,0,0,0,0.137268,-0.083923,-0.005939,1,0,0,0,0,0,0
2.390000,-0.005957,0.137361,-0.000437,1,0,0,0,0,0,0,-0.038835,-0.026607,0.000256,1,0,0,0,0,0,0,0.142606,-0.087607,-0.006450,1,0,0,0,0,0,0
2.400000,-0.006437,0.144320,-0.000478,1,0,0,0,0,0,0,-0.042972,-0.027511,0.000308,1,0,0,0,0,0,0,0.147559,-0.090965,-0.006931,1,0,0,0,0,0,0
2.410000,-0.006873,0.150760,-0.000520,1,0,0,0,0,0,0,-0.048188,-0.028910,0.000388,1,0,0,0,0,0,0,0.151985,-0.093888,-0.007362,1,0,0,0,0,0,0
2.420000,-0.007176,0.156691,-0.000562,1,0,0,0,0,0,0,-0.054375,-0.030779,0.000502,1,0,0,0,0,0,0,0.155898,-0.096361,-0.007734,1,0,0,0,0,0,0
2.430000,-0.007319,0.162244,-0.000602,1,0,0,0,0,0,0,-0.061256,-0.033047,0.000652,1,0,0,0,0,0,0,0.159414,-0.098433,-0.008053,1,0,0,0,0,0,0
2.440000,-0.007336,0.167539,-0.000641,1,0,0,0,0,0,0,-0.068603,-0.035677,0.000843,1,0,0,0,0,0,0,0.162663,-0.100157,-0.008322,1,0,0,0,0,0,0
2.450000,-0.007261,0.172557,-0.000677,1,0,0,0,0,0,0,-0.076244,-0.038681,0.001083,1,0,0,0,0,0,0,0.165744,-0.101566,-0.008547,1,0,0,0,0,0,0
2.460000,-0.007072,0.177221,-0.000709,1,0,0,0,0,0,0,-0.083907,-0.042032,0.001374,1,0,0,0,0,0,0,0.168711,-0.102681,-0.008728,1,0,0,0,0,0,0
2.470000,-0.006723,0.181510,-0.000735,1,0,0,0,0,0,0,-0.091217,-0.045582,0.001709,1,0,0,0,0,0,0,0.171603,-0.103519,-0.008869,1,0,0,0,0,0,0
2.480000,-0.006205,0.185460,-0.000755,1,0,0,0,0,0,0,-0.098019,-0.049180,0.002072,1,0,0,0,0,0,0,0.174453,-0.104122,-0.008975,1,0,0,0,0,0,0
2.490000,-0.005554,0.189066,-0.000767,1,0,0,0,0,0,0,-0.104456,-0.052791,0.002460,1,0,0,0,0,0,0,0.177329,-0.104570,-0.009061,1,0,0,0,0,0,0
2.500000,-0.004813,0.192258,-0.000771,1,0,0,0,0,0,0,-0.110734,-0.056376,0.002866,1,0,0,0,0,0,0,0.180316,-0.104977,-0.009146,1,0,0,0,0,0,0
2.510000,-0.004001,0.195028,-0.000767,1,0,0,0,0,0,0,-0.116875,-0.059828,0.003277,1,0,0,0,0,0,0,0.183436,-0.105448,-0.009252,1,0,0,0,0,0,0
2.520000,-0.003129,0.197540,-0.000756,1,0,0,0,0,0,0,-0.122714,-0.063083,0.003684,1,0,0,0,0,0,0,0.186575,-0.106028,-0.009385,1,0,0,0,0,0,0
2.530000,-0.002237,0.200083,-0.000738,1,0,0,0,0,0,0,-0.128059,-0.066183,0.004087,1,0,0,0,0,0,0,0.189507,-0.106705,-0.009544,1,0,0,0,0,0,0
2.540000,-0.001388,0.202807,-0.000714,1,0,0,0,0,0,0,-0.132789,-0.069210,0.004495,1,0,0,0,0,0,0,0.191972,-0.107436,-0.009720,1,0,0,0,0,0,0
2.550000,-0.000623,0.205591,-0.000685,1,0,0,0,0,0,0,-0.136933,-0.072164,0.004904,1,0,0,0,0,0,0,0.193738,-0.108165,-0.009900,1,0,0,0,0,0,0
2.560000,0.000045,0.208221,-0.000650,1,0,0,0,0,0,0,-0.140677,-0.074970,0.005301,1,0,0,0,0,0,0,0.194634,-0.108820,-0.010067,1,0,0,0,0,0,0
2.570000,0.000599,0.210557,-0.000611,1,0,0,0,0,0,0,-0.144236,-0.077517,0.005668,1,0,0,0,0,0,0,0.194567,-0.109313,-0.010200,1,0,0,0,0,0,0
2.580000,0.000985,0.212617,-0.000569,1,0,0,0,0,0,0,-0.147625,-0.079702,0.005988,1,0,0,0,0,0,0,0.193553,-0.109577,-0.010283,1,0,0,0,0,0,0
2.590000,0.001129,0.214472,-0.000527,1,0,0,0,0,0,0,-0.150681,-0.081518,0.006257,1,0,0,0,0,0,0,0.191712,-0.109598,-0.010312,1,0,0,0,0,0,0
2.600000,0.000988,0.216074,-0.000485,1,0,0,0,0,0,0,-0.153265,-0.083026,0.006483,1,0,0,0,0,0,0,0.189184,-0.109385,-0.010289,1,0,0,0,0,0,0
2.610000,0.000580,0.217201,-0.000447,1,0,0,0,0,0,0,-0.155340,-0.084253,0.006669,1,0,0,0,0,0,0,0.186059,-0.108943,-0.010215,1,0,0,0,0,0,0
2.620000,-0.000040,0.217533,-0.000414,1,0,0,0,0,0,0,-0.157028,-0.085180,0.006809,1,0,0,0,0,0,0,0.182376,-0.108264,-0.010089,1,0,0,0,0,0,0
2.630000,-0.000809,0.216773,-0.000386,1,0,0,0,0,0,0,-0.158483,-0.085789,0.006900,1,0,0,0,0,0,0,0.178196,-0.107367,-0.009918,1,0,0,0,0,0,0
2.640000,-0.001660,0.214764,-0.000362,1,0,0,0,0,0,0,-0.159719,-0.086122,0.006948,1,0,0,0,0,0,0,0.173623,-0.106286,-0.009710,1,0,0,0,0,0,0
2.650000,-0.002552,0.211569,-0.000341,1,0,0,0,0,0,0,-0.160600,-0.086254,0.006965,1,0,0,0,0,0,0,0.168726,-0.105009,-0.009465,1,0,0,0,0,0,0
2.660000,-0.003468,0.207425,-0.000320,1,0,0,0,0,0,0,-0.161003,-0.086251,0.006963,1,0,0,0,0,0,0,0.163488,-0.103453,-0.009172,1,0,0,0,0,0,0
2.670000,-0.004402,0.202595,-0.000300,1,0,0,0,0,0,0,-0.160925,-0.086129,0.006942,1,0,0,0,0,0,0,0.157855,-0.101508,-0.008817,1,0,0,0,0,0,0
2.680000,-0.005338,0.197256,-0.000279,1,0,0,0,0,0,0,-0.160494,-0.085859,0.006898,1,0,0,0,0,0,0,0.151854,-0.099117,-0.008398,1,0,0,0,0,0,0
2.690000,-0.006233,0.191483,-0.000257,1,0,0,0,0,0,0,-0.159953,-0.085452,0.006832,1,0,0,0,0,0,0,0.145656,-0.096328,-0.007929,1,0,0,0,0,0,0
2.700000,-0.007024,0.185317,-0.000233,1,0,0,0,0,0,0,-0.159513,-0.084991,0.006759,1,0,0,0,0,0,0,0.139520,-0.093262,-0.007434,1,0,0,0,0,0,0
2.710000,-0.007650,0.178841,-0.000207,1,0,0,0,0,0,0,-0.159276,-0.084610,0.006699,1,0,0,0,0,0,0,0.133680,-0.090044,-0.006935,1,0,0,0,0,0,0
2.720000,-0.008084,0.172188,-0.000180,1,0,0,0,0,0,0,-0.159261,-0.084409,0.006670,1,0,0,0,0,0,0,0.128270,-0.086750,-0.006445,1,0,0,0,0,0,0
2.730000,-0.008346,0.165506,-0.000154,1,0,0,0,0,0,0,-0.159446,-0.084395,0.006671,1,0,0,0,0,0,0,0.123301,-0.083396,-0.005966,1,0,0,0,0,0,0
2.740000,-0.008492,0.158910,-0.000129,1,0,0,0,0,0,0,-0.159764,-0.084474,0.006688,1,0,0,0,0,0,0,0.118691,-0.079982,-0.005499,1,0,0,0,0,0,0
2.750000,-0.008583,0.152454,-0.000106,1,0,0,0,0,0,0,-0.160049,-0.084512,0.006699,1,0,0,0,0,0,0,0.114371,-0.076541,-0.005047,1,0,0,0,0,0,0
2.760000,-0.008659,0.146152,-0.000084,1,0,0,0,0,0,0,-0.160065,-0.084408,0.006687,1,0,0,0,0,0,0,0.110338,-0.073172,-0.004623,1,0,0,0,0,0,0
2.770000,-0.008736,0.140000,-0.000063,1,0,0,0,0,0,0,-0.159631,-0.084139,0.006648,1,0,0,0,0,0,0,0.106604,-0.070001,-0.004239,1,0,0,0,0,0,0
2.780000,-0.008825,0.134008,-0.000043,1,0,0,0,0,0,0,-0.158669,-0.083740,0.006589,1,0,0,0,0,0,0,0.103128,-0.067116,-0.003901,1,0,0,0,0,0,0
2.790000,-0.008954,0.128224,-0.000024,1,0,0,0,0,0,0,-0.157089,-0.083191,0.006506,1,0,0,0,0,0,0,0.099790,-0.064532,-0.003609,1,0,0,0,0,0,0
2.800000,-0.009170,0.122757,-0.000008,1,0,0,0,0,0,0,-0.154858,-0.082406,0.006385,1,0,0,0,0,0,0,0.096407,-0.062203,-0.003353,1,0,0,0,0,0,0
2.810000,-0.009532,0.117754,0.000006,1,0,0,0,0,0,0,-0.152057,-0.081324,0.006219,1,0,0,0,0,0,0,0.092818,-0.060082,-0.003129,1,0,0,0,0,0,0
2.820000,-0.010078,0.113319,0.000016,1,0,0,0,0,0,0,-0.148824,-0.079938,0.006008,1,0,0,0,0,0,0,0.088943,-0.058145,-0.002930,1,0,0,0,0,0,0
2.830000,-0.010802,0.109439,0.000021,1,0,0,0,0,0,0,-0.145300,-0.078286,0.005761,1,0,0,0,0,0,0,0.084781,-0.056379,-0.002755,1,0,0,0,0,0,0
2.840000,-0.011666,0.106043,0.000023,1,0,0,0,0,0,0,-0.141597,-0.076428,0.005488,1,0,0,0,0,0,0,0.080387,-0.054773,-0.002600,1,0,0,0,0,0,0
2.850000,-0.012619,0.103001,0.000023,1,0,0,0,0,0,0,-0.137792,-0.074426,0.005202,1,0,0,0,0,0,0,0.075839,-0.053310,-0.002461,1,0,0,0,0,0,0
2.860000,-0.013627,0.100172,0.000020,1,0,0,0,0,0,0,-0.133914,-0.072316,0.004909,1,0,0,0,0,0,0,0.071220,-0.051964,-0.002337,1,0,0,0,0,0,0
2.870000,-0.014691,0.097460,0.000017,1,0,0,0,0,0,0,-0.129926,-0.070109,0.004612,1,0,0,0,0,0,0,0.066632,-0.050734,-0.002223,1,0,0,0,0,0,0
2.880000,-0.015830,0.094821,0.000014,1,0,0,0,0,0,0,-0.125787,-0.067819,0.004313,1,0,0,0,0,0,0,0.062198,-0.049653,-0.002123,1,0,0,0,0,0,0
2.890000,-0.017053,0.092214,0.000012,1,0,0,0,0,0,0,-0.121498,-0.065488,0.004019,1,0,0,0,0,0,0,0.058023,-0.048749,-0.002035,1,0,0,0,0,0,0
2.900000,-0.018339,0.089588,0.000012,1,0,0,0,0,0,0,-0.117037,-0.063151,0.003736,1,0,0,0,0,0,0,0.054164,-0.048032,-0.001959,1,0,0,0,0,0,0
2.910000,-0.019660,0.086927,0.000013,1,0,0,0,0,0,0,-0.112403,-0.060824,0.003465,1,0,0,0,0,0,0,0.050630,-0.047482,-0.001891,1,0,0,0,0,0,0
2.920000,-0.020972,0.084213,0.000018,1,0,0,0,0,0,0,-0.107650,-0.058501,0.003205,1,0,0,0,0,0,0,0.047423,-0.047073,-0.001831,1,0,0,0,0,0,0
2.930000,-0.022226,0.081406,0.000025,1,0,0,0,0,0,0,-0.102893,-0.056171,0.002955,1,0,0,0,0,0,0,0.044550,-0.046775,-0.001775,1,0,0,0,0,0,0
2.940000,-0.023391,0.078455,0.000038,1,0,0,0,0,0,0,-0.098262,-0.053822,0.002714,1,0,0,0,0,0,0,0.042019,-0.046545,-0.001722,1,0,0,0,0,0,0
2.950000,-0.024440,0.075303,0.000057,1,0,0,0,0,0,0,-0.093817,-0.051447,0.002480,1,0,0,0,0,0,0,0.039826,-0.046325,-0.001669,1,0,0,0,0,0,0
2.960000,-0.025342,0.071930,0.000083,1,0,0,0,0,0,0,-0.089555,-0.049061,0.002256,1,0,0,0,0,0,0,0.037952,-0.046055,-0.001614,1,0,0,0,0,0,0
2.970000,-0.026063,0.068390,0.000115,1,0,0,0,0,0,0,-0.085432,-0.046703,0.002045,1,0,0,0,0,0,0,0.036406,-0.045695,-0.001556,1,0,0,0,0,0,0
2.980000,-0.026588,0.064845,0.000149,1,0,0,0,0,0,0,-0.081355,-0.044396,0.001849,1,0,0,0,0,0,0,0.035230,-0.045236,-0.001496,1,0,0,0,0,0,0
2.990000,-0.026918,0.061527,0.000177,1,0,0,0,0,0,0,-0.077292,-0.042166,0.001668,1,0,0,0,0,0,0,0.034470,-0.044696,-0.001434,1,0,0,0,0,0,0
3.000000,-0.027074,0.058668,0.000194,1,0,0,0,0,0,0,-0.073315,-0.040057,0.001506,1,0,0,0,0,0,0,0.034196,-0.044125,-0.001374,1,0,0,0,0,0,0
3.010000,-0.027078,0.056347,0.000197,1,0,0,0,0,0,0,-0.069496,-0.038090,0.001363,1,0,0,0,0,0,0,0.034486,-0.043593,-0.001317,1,0,0,0,0,0,0
3.020000,-0.026930,0.054518,0.000189,1,0,0,0,0,0,0,-0.065931,-0.036284,0.001237,1,0,0,0,0,0,0,0.035381,-0.043160,-0.001267,1,0,0,0,0,0,0
3.030000,-0.026612,0.053087,0.000171,1,0,0,0,0,0,0,-0.062725,-0.034663,0.001130,1,0,0,0,0,0,0,0.036863,-0.042865,-0.001224,1,0,0,0,0,0,0
3.040000,-0.026107,0.051994,0.000146,1,0,0,0,0,0,0,-0.059948,-0.033249,0.001041,1,0,0,0,0,0,0,0.038866,-0.042717,-0.001191,1,0,0,0,0,0,0
3.050000,-0.025426,0.051226,0.000115,1,0,0,0,0,0,0,-0.057616,-0.032048,0.000967,1,0,0,0,0,0,0,0.041304,-0.042717,-0.001167,1,0,0,0,0,0,0
3.060000,-0.024613,0.050853,0.000076,1,0,0,0,0,0,0,-0.055744,-0.031073,0.000909,1,0,0,0,0,0,0,0.044072,-0.042861,-0.001154,1,0,0,0,0,0,0
3.070000,-0.023736,0.050993,0.000029,1,0,0,0,0,0,0,-0.054377,-0.030355,0.000867,1,0,0,0,0,0,0,0.047073,-0.043154,-0.001152,1,0,0,0,0,0,0
3.080000,-0.022862,0.051767,-0.000029,1,0,0,0,0,0,0,-0.053538,-0.029908,0.000840,1,0,0,0,0,0,0,0.050200,-0.043609,-0.001164,1,0,0,0,0,0,0
3.090000,-0.022046,0.053173,-0.000097,1,0,0,0,0,0,0,-0.053210,-0.029720,0.000828,1,0,0,0,0,0,0,0.053375,-0.044251,-0.001191,1,0,0,0,0,0,0
3.100000,-0.021307,0.055147,-0.000171,1,0,0,0,0,0,0,-0.053407,-0.029787,0.000829,1,0,0,0,0,0,0,0.056566,-0.045133,-0.001237,1,0,0,0,0,0,0
3.110000,-0.020651,0.057612,-0.000250,1,0,0,0,0,0,0,-0.054169,-0.030112,0.000845,1,0,0,0,0,0,0,0.059749,-0.046304,-0.001305,1,0,0,0,0,0,0
3.120000,-0.020084,0.060526,-0.000333,1,0,0,0,0,0,0,-0.055466,-0.030672,0.000873,1,0,0,0,0,0,0,0.062862,-0.047767,-0.001398,1,0,0,0,0,0,0
3.130000,-0.019626,0.063893,-0.000419,1,0,0,0,0,0,0,-0.057191,-0.031421,0.000914,1,0,0,0,0,0,0,0.065791,-0.049462,-0.001513,1,0,0,0,0,0,0
3.140000,-0.019300,0.067694,-0.000508,1,0,0,0,0,0,0,-0.059206,-0.032323,0.000965,1,0,0,0,0,0,0,0.068409,-0.051301,-0.001643,1,0,0,0,0,0,0
3.150000,-0.019122,0.071881,-0.000599,1,0,0,0,0,0,0,-0.061397,-0.033371,0.001028,1,0,0,0,0,0,0,0.070632,-0.053203,-0.001782,1,0,0,0,0,0,0
3.160000,-0.019098,0.076391,-0.000693,1,0,0,0,0,0,0,-0.063590,-0.034535,0.001100,1,0,0,0,0,0,0,0.072471,-0.055128,-0.001926,1,0,0,0,0,0,0
3.170000,-0.019228,0.081144,-0.000788,1,0,0,0,0,0,0,-0.065612,-0.035736,0.001178,1,0,0,0,0,0,0,0.074037,-0.057100,-0.002075,1,0,0,0,0,0,0
3.180000,-0.019505,0.086042,-0.000884,1,0,0,0,0,0,0,-0.067433,-0.036906,0.001255,1,0,0,0,0,0,0,0.075495,-0.059185,-0.002235,1,0,0,0,0,0,0
3.190000,-0.019922,0.090978,-0.000981,1,0,0,0,0,0,0,-0.069153,-0.038021,0.001331,1,0,0,0,0,0,0,0.076991,-0.061424,-0.002407,1,0,0,0,0,0,0
3.200000,-0.020463,0.095813,-0.001075,1,0,0,0,0,0,0,-0.070882,-0.039078,0.001404,1,0,0,0,0,0,0,0.078589,-0.063795,-0.002591,1,0,0,0,0,0,0
3.210000,-0.021104,0.100402,-0.001166,1,0,0,0,0,0,0,-0.072678,-0.040086,0.001476,1,0,0,0,0,0,0,0.080282,-0.066236,-0.002782,1,0,0,0,0,0,0
3.220000,-0.021823,0.104642,-0.001252,1,0,0,0,0,0,0,-0.074578,-0.041095,0.001549,1,0,0,0,0,0,0,0.082031,-0.068679,-0.002975,1,0,0,0,0,0,0
3.230000,-0.022611,0.108502,-0.001332,1,0,0,0,0,0,0,-0.076616,-0.042167,0.001630,1,0,0,0,0,0,0,0.083803,-0.071069,-0.003166,1,0,0,0,0,0,0
3.240000,-0.023469,0.111999,-0.001406,1,0,0,0,0,0,0,-0.078794,-0.043334,0.001720,1,0,0,0,0,0,0,0.085596,-0.073367,-0.003351,1,0,0,0,0,0,0
3.250000,-0.024387,0.115142,-0.001476,1,0,0,0,0,0,0,-0.081127,-0.044589,0.001819,1,0,0,0,0,0,0,0.087409,-0.075529,-0.003527,1,0,0,0,0,0,0
3.260000,-0.025320,0.117896,-0.001540,1,0,0,0,0,0,0,-0.083643,-0.045912,0.001928,1,0,0,0,0,0,0,0.089229,-0.077485,-0.003688,1,0,0,0,0,0,0
3.270000,-0.026196,0.120205,-0.001597,1,0,0,0,0,0,0,-0.086297,-0.047266,0.002043,1,0,0,0,0,0,0,0.091027,-0.079157,-0.003826,1,0,0,0,0,0,0
3.280000,-0.026947,0.122053,-0.001644,1,0,0,0,0,0,0,-0.088973,-0.048615,0.002161,1,0,0,0,0,0,0,0.092787,-0.080490,-0.003936,1,0,0,0,0,0,0
3.290000,-0.027540,0.123503,-0.001683,1,0,0,0,0,0,0,-0.091566,-0.049938,0.002281,1,0,0,0,0,0,0,0.094524,-0.081484,-0.004018,1,0,0,0,0,0,0
3.300000,-0.027994,0.124689,-0.001717,1,0,0,0,0,0,0,-0.094034,-0.051214,0.002400,1,0,0,0,0,0,0,0.096280,-0.082189,-0.004075,1,0,0,0,0,0,0
3.310000,-0.028358,0.125775,-0.001749,1,0,0,0,0,0,0,-0.096451,-0.052419,0.002516,1,0,0,0,0,0,0,0.098102,-0.082690,-0.004115,1,0,0,0,0,0,0
3.320000,-0.028670,0.126909,-0.001784,1,0,0,0,0,0,0,-0.098946,-0.053524,0.002625,1,0,0,0,0,0,0,0.100020,-0.083075,-0.004149,1,0,0,0,0,0,0
3.330000,-0.028937,0.128191,-0.001823,1,0,0,0,0,0,0,-0.101654,-0.054513,0.002726,1,0,0,0,0,0,0,0.102021,-0.083424,-0.004183,1,0,0,0,0,0,0
3.340000,-0.029142,0.129661,-0.001868,1,0,0,0,0,0,0,-0.104616,-0.055403,0.002820,1,0,0,0,0,0,0,0.104057,-0.083790,-0.004224,1,0,0,0,0,0,0
3.350000,-0.029273,0.131302,-0.001918,1,0,0,0,0,0,0,-0.107773,-0.056254,0.002915,1,0,0,0,0,0,0,0.106052,-0.084202,-0.004274,1,0,0,0,0,0,0
3.360000,-0.029347,0.133070,-0.001971,1,0,0,0,0,0,0,-0.111042,-0.057162,0.003021,1,0,0,0,0,0,0,0.107914,-0.084668,-0.004334,1,0,0,0,0,0,0
3.370000,-0.029397,0.134893,-0.002025,1,0,0,0,0,0,0,-0.114359,-0.058210,0.003148,1,0,0,0,0,0,0,0.109537,-0.085176,-0.004403,1,0,0,0,0,0,0
3.380000,-0.029452,0.136695,-0.002077,1,0,0,0,0,0,0,-0.117684,-0.059402,0.003297,1,0,0,0,0,0,0,0.110826,-0.085711,-0.004477,1,0,0,0,0,0,0
3.390000,-0.029516,0.138444,-0.002126,1,0,0,0,0,0,0,-0.121038,-0.060683,0.003462,1,0,0,0,0,0,0,0.111719,-0.086263,-0.004555,1,0,0,0,0,0,0
3.400000,-0.029588,0.140212,-0.002174,1,0,0,0,0,0,0,-0.124511,-0.062011,0.003639,1,0,0,0,0,0,0,0.112206,-0.086847,-0.004637,1,0,0,0,0,0,0
3.410000,-0.029673,0.142119,-0.002226,1,0,0,0,0,0,0,-0.128167,-0.063380,0.003826,1,0,0,0,0,0,0,0.112324,-0.087494,-0.004725,1,0,0,0,0,0,0
3.420000,-0.029774,0.144203,-0.002283,1,0,0,0,0,0,0,-0.131987,-0.064808,0.004027,1,0,0,0,0,0,0,0.112132,-0.088221,-0.004821,1,0,0,0,0,0,0
3.430000,-0.029881,0.146392,-0.002341,1,0,0,0,0,0,0,-0.135904,-0.066331,0.004248,1,0,0,0,0,0,0,0.111682,-0.089004,-0.004919,1,0,0,0,0,0,0
3.440000,-0.029964,0.148551,-0.002398,1,0,0,0,0,0,0,-0.139799,-0.067950,0.004488,1,0,0,0,0,0,0,0.110994,-0.089782,-0.005012,1,0,0,0,0,0,0
3.450000,-0.029972,0.150539,-0.002449,1,0,0,0,0,0,0,-0.143532,-0.069626,0.004744,1,0,0,0,0,0,0,0.110083,-0.090481,-0.005091,1,0,0,0,0,0,0
3.460000,-0.029865,0.152271,-0.002490,1,0,0,0,0,0,0,-0.146973,-0.071304,0.005006,1,0,0,0,0,0,0,0.108993,-0.091056,-0.005151,1,0,0,0,0,0,0
3.470000,-0.029632,0.153730,-0.002522,1,0,0,0,0,0,0,-0.150015,-0.072942,0.005266,1,0,0,0,0,0,0,0.107836,-0.091515,-0.005193,1,0,0,0,0,0,0
3.480000,-0.029296,0.154926,-0.002544,1,0,0,0,0,0,0,-0.152591,-0.074535,0.005524,1,0,0,0,0,0,0,0.106784,-0.091921,-0.005224,1,0,0,0,0,0,0
3.490000,-0.028897,0.155840,-0.002556,1,0,0,0,0,0,0,-0.154635,-0.076079,0.005775,1,0,0,0,0,0,0,0.105994,-0.092335,-0.005252,1,0,0,0,0,0,0
3.500000,-0.028466,0.156389,-0.002555,1,0,0,0,0,0,0,-0.156063,-0.077518,0.006010,1,0,0,0,0,0,0,0.105514,-0.092754,-0.005277,1,0,0,0,0,0,0
3.510000,-0.028005,0.156418,-0.002537,1,0,0,0,0,0,0,-0.156779,-0.078743,0.006209,1,0,0,0,0,0,0,0.105265,-0.093103,-0.005293,1,0,0,0,0,0,0
3.520000,-0.027503,0.155793,-0.002499,1,0,0,0,0,0,0,-0.156731,-0.079664,0.006356,1,0,0,0,0,0,0,0.105112,-0.093268,-0.005288,1,0,0,0,0,0,0
3.530000,-0.026942,0.154470,-0.002442,1,0,0,0,0,0,0,-0.155937,-0.080247,0.006444,1,0,0,0,0,0,0,0.104945,-0.093152,-0.005253,1,0,0,0,0,0,0
3.540000,-0.026330,0.152535,-0.002369,1,0,0,0,0,0,0,-0.154493,-0.080518,0.006479,1,0,0,0,0,0,0,0.104702,-0.092692,-0.005182,1,0,0,0,0,0,0
3.550000,-0.025693,0.150152,-0.002285,1,0,0,0,0,0,0,-0.152550,-0.080533,0.006469,1,0,0,0,0,0,0,0.104378,-0.091868,-0.005075,1,0,0,0,0,0,0
3.560000,-0.025056,0.147469,-0.002194,1,0,0,0,0,0,0,-0.150299,-0.080343,0.006423,1,0,0,0,0,0,0,0.104011,-0.090694,-0.004935,1,0,0,0,0,0,0
3.570000,-0.024413,0.144548,-0.002100,1,0,0,0,0,0,0,-0.147939,-0.079973,0.006347,1,0,0,0,0,0,0,0.103643,-0.089202,-0.004764,1,0,0,0,0,0,0
3.580000,-0.023731,0.141387,-0.002003,1,0,0,0,0,0,0,-0.145601,-0.079426,0.006243,1,0,0,0,0,0,0,0.103302,-0.087438,-0.004570,1,0,0,0,0,0,0
3.590000,-0.022974,0.138001,-0.001903,1,0,0,0,0,0,0,-0.143293,-0.078707,0.006112,1,0,0,0,0,0,0,0.102986,-0.085463,-0.004359,1,0,0,0,0,0,0
3.600000,-0.022139,0.134493,-0.001804,1,0,0,0,0,0,0,-0.140955,-0.077850,0.005962,1,0,0,0,0,0,0,0.102664,-0.083354,-0.004141,1,0,0,0,0,0,0
3.610000,-0.021264,0.131044,-0.001709,1,0,0,0,0,0,0,-0.138498,-0.076890,0.005799,1,0,0,0,0,0,0,0.102307,-0.081212,-0.003926,1,0,0,0,0,0,0
3.620000,-0.020421,0.127834,-0.001623,1,0,0,0,0,0,0,-0.135873,-0.075835,0.005625,1,0,0,0,0,0,0,0.101916,-0.079156,-0.003726,1,0,0,0,0,0,0
3.630000,-0.019669,0.124953,-0.001546,1,0,0,0,0,0,0,-0.133093,-0.074648,0.005436,1,0,0,0,0,0,0,0.101496,-0.077298,-0.003551,1,0,0,0,0,0,0
3.640000,-0.019040,0.122421,-0.001477,1,0,0,0,0,0,0,-0.130236,-0.073271,0.005225,1,0,0,0,0,0,0,0.101016,-0.075695,-0.003408,1,0,0,0,0,0,0
3.650000,-0.018535,0.120231,-0.001417,1,0,0,0,0,0,0,-0.127411,-0.071683,0.004992,1,0,0,0,0,0,0,0.100391,-0.074333,-0.003294,1,0,0,0,0,0,0
3.660000,-0.018142,0.118363,-0.001364,1,0,0,0,0,0,0,-0.124707,-0.069913,0.004741,1,0,0,0,0,0,0,0.099514,-0.073157,-0.003201,1,0,0,0,0,0,0
3.670000,-0.017844,0.116776,-0.001317,1,0,0,0,0,0,0,-0.122151,-0.068033,0.004484,1,0,0,0,0,0,0,0.098321,-0.072116,-0.003123,1,0,0,0,0,0,0
3.680000,-0.017625,0.115413,-0.001276,1,0,0,0,0,0,0,-0.119764,-0.066126,0.004230,1,0,0,0,0,0,0,0.096840,-0.071199,-0.003059,1,0,0,0,0,0,0
3.690000,-0.017457,0.114184,-0.001238,1,0,0,0,0,0,0,-0.117565,-0.064260,0.003990,1,0,0,0,0,0,0,0.095181,-0.070440,-0.003010,1,0,0,0,0,0,0
3.700000,-0.017314,0.113034,-0.001203,1,0,0,0,0,0,0,-0.115538,-0.062455,0.003764,1,0,0,0,0,0,0,0.093459,-0.069866,-0.002977,1,0,0,0,0,0,0
3.710000,-0.017183,0.112009,-0.001172,1,0,0,0,0,0,0,-0.113705,-0.060730,0.003554,1,0,0,0,0,0,0,0.091748,-0.069461,-0.002958,1,0,0,0,0,0,0
3.720000,-0.017064,0.111212,-0.001145,1,0,0,0,0,0,0,-0.112081,-0.059120,0.003363,1,0,0,0,0,0,0,0.090101,-0.069186,-0.002949,1,0,0,0,0,0,0
3.730000,-0.016950,0.110722,-0.001124,1,0,0,0,0,0,0,-0.110623,-0.057673,0.003196,1,0,0,0,0,0,0,0.088589,-0.069004,-0.002945,1,0,0,0,0,0,0
3.740000,-0.016808,0.110524,-0.001109,1,0,0,0,0,0,0,-0.109260,-0.056433,0.003057,1,0,0,0,0,0,0,0.087302,-0.068892,-0.002944,1,0,0,0,0,0,0
3.750000,-0.016582,0.110497,-0.001098,1,0,0,0,0,0,0,-0.107905,-0.055399,0.002945,1,0,0,0,0,0,0,0.086330,-0.068824,-0.002943,1,0,0,0,0,0,0
3.760000,-0.016220,0.110490,-0.001087,1,0,0,0,0,0,0,-0.106506,-0.054529,0.002853,1,0,0,0,0,0,0,0.085719,-0.068771,-0.002942,1,0,0,0,0,0,0
3.770000,-0.015708,0.110404,-0.001074,1,0,0,0,0,0,0,-0.105068,-0.053762,0.002774,1,0,0,0,0,0,0,0.085483,-0.068698,-0.002937,1,0,0,0,0,0,0
3.780000,-0.015075,0.110213,-0.001059,1,0,0,0,0,0,0,-0.103639,-0.053061,0.002704,1,0,0,0,0,0,0,0.085637,-0.068600,-0.002930,1,0,0,0,0,0,0
3.790000,-0.014370,0.109902,-0.001041,1,0,0,0,0,0,0,-0.102308,-0.052458,0.002644,1,0,0,0,0,0,0,0.086184,-0.068485,-0.002921,1,0,0,0,0,0,0
3.800000,-0.013638,0.109458,-0.001020,1,0,0,0,0,0,0,-0.101071,-0.051976,0.002598,1,0,0,0,0,0,0,0.087079,-0.068338,-0.002909,1,0,0,0,0,0,0
3.810000,-0.012901,0.108872,-0.000997,1,0,0,0,0,0,0,-0.099839,-0.051624,0.002564,1,0,0,0,0,0,0,0.088207,-0.068097,-0.002892,1,0,0,0,0,0,0
3.820000,-0.012180,0.108135,-0.000971,1,0,0,0,0,0,0,-0.098490,-0.051392,0.002542,1,0,0,0,0,0,0,0.089411,-0.067663,-0.002859,1,0,0,0,0,0,0
3.830000,-0.011498,0.107231,-0.000942,1,0,0,0,0,0,0,-0.096905,-0.051240,0.002527,1,0,0,0,0,0,0,0.090539,-0.066946,-0.002802,1,0,0,0,0,0,0
3.840000,-0.010886,0.106146,-0.000910,1,0,0,0,0,0,0,-0.095000,-0.051109,0.002513,1,0,0,0,0,0,0,0.091505,-0.065912,-0.002720,1,0,0,0,0,0,0
3.850000,-0.010355,0.104860,-0.000877,1,0,0,0,0,0,0,-0.092759,-0.050929,0.002492,1,0,0,0,0,0,0,0.092330,-0.064613,-0.002616,1,0,0,0,0,0,0
3.860000,-0.009883,0.103384,-0.000842,1,0,0,0,0,0,0,-0.090227,-0.050656,0.002461,1,0,0,0,0,0,0,0.093099,-0.063155,-0.002500,1,0,0,0,0,0,0
3.870000,-0.009436,0.101797,-0.000807,1,0,0,0,0,0,0,-0.087486,-0.050265,0.002417,1,0,0,0,0,0,0,0.093888,-0.061659,-0.002384,1,0,0,0,0,0,0
3.880000,-0.008993,0.100257,-0.000773,1,0,0,0,0,0,0,-0.084619,-0.049735,0.002359,1,0,0,0,0,0,0,0.094731,-0.060229,-0.002277,1,0,0,0,0,0,0
3.890000,-0.008565,0.098928,-0.000742,1,0,0,0,0,0,0,-0.081694,-0.049046,0.002288,1,0,0,0,0,0,0,0.095602,-0.058944,-0.002187,1,0,0,0,0,0,0
3.900000,-0.008177,0.097909,-0.000714,1,0,0,0,0,0,0,-0.078764,-0.048202,0.002204,1,0,0,0,0,0,0,0.096451,-0.057867,-0.002119,1,0,0,0,0,0,0
3.910000,-0.007849,0.097199,-0.000689,1,0,0,0,0,0,0,-0.075872,-0.047237,0.002112,1,0,0,0,0,0,0,0.097218,-0.057053,-0.002079,1,0,0,0,0,0,0
3.920000,-0.007572,0.096754,-0.000667,1,0,0,0,0,0,0,-0.073096,-0.046216,0.002017,1,0,0,0,0,0,0,0.097862,-0.056539,-0.002070,1,0,0,0,0,0,0
3.930000,-0.007322,0.096552,-0.000647,1,0,0,0,0,0,0,-0.070540,-0.045207,0.001925,1,0,0,0,0,0,0,0.098380,-0.056355,-0.002093,1,0,0,0,0,0,0
3.940000,-0.007090,0.096631,-0.000630,1,0,0,0,0,0,0,-0.068304,-0.044255,0.001839,1,0,0,0,0,0,0,0.098794,-0.056511,-0.002150,1,0,0,0,0,0,0
3.950000,-0.006897,0.097095,-0.000616,1,0,0,0,0,0,0,-0.066473,-0.043372,0.001760,1,0,0,0,0,0,0,0.099112,-0.056976,-0.002235,1,0,0,0,0,0,0
3.960000,-0.006778,0.098008,-0.000605,1,0,0,0,0,0,0,-0.065073,-0.042551,0.001686,1,0,0,0,0,0,0,0.099318,-0.057683,-0.002343,1,0,0,0,0,0,0
3.970000,-0.006747,0.099327,-0.000597,1,0,0,0,0,0,0,-0.064069,-0.041791,0.001619,1,0,0,0,0,0,0,0.099406,-0.058562,-0.002464,1,0,0,0,0,0,0
3.980000,-0.006771,0.100910,-0.000592,1,0,0,0,0,0,0,-0.063350,-0.041102,0.001557,1,0,0,0,0,0,0,0.099414,-0.059567,-0.002593,1,0,0,0,0,0,0
3.990000,-0.006781,0.102604,-0.000588,1,0,0,0,0,0,0,-0.062785,-0.040492,0.001503,1,0,0,0,0,0,0,0.099446,-0.060690,-0.002730,1,0,0,0,0,0,0
4.000000,-0.006702,0.104299,-0.000585,1,0,0,0,0,0,0,-0.062306,-0.039971,0.001455,1,0,0,0,0,0,0,0.099648,-0.061955,-0.002877,1,0,0,0,0,0,0
4.010000,-0.006499,0.106042,-0.000582,1,0,0,0,0,0,0,-0.061927,-0.039543,0.001416,1,0,0,0,0,0,0,0.100221,-0.063405,-0.003038,1,0,0,0,0,0,0
4.020000,-0.006196,0.108118,-0.000581,1,0,0,0,0,0,0,-0.061830,-0.039270,0.001386,1,0,0,0,0,0,0,0.101451,-0.065137,-0.003224,1,0,0,0,0,0,0
4.030000,-0.005822,0.110619,-0.000581,1,0,0,0,0,0,0,-0.062105,-0.039150,0.001368,1,0,0,0,0,0,0,0.103361,-0.067104,-0.003434,1,0,0,0,0,0,0
4.040000,-0.005397,0.113526,-0.000583,1,0,0,0,0,0,0,-0.062800,-0.039190,0.001361,1,0,0,0,0,0,0,0.105877,-0.069209,-0.003659,1,0,0,0,0,0,0
4.050000,-0.004916,0.116765,-0.000583,1,0,0,0,0,0,0,-0.063908,-0.039413,0.001367,1,0,0,0,0,0,0,0.108907,-0.071361,-0.003894,1,0,0,0,0,0,0
4.060000,-0.004361,0.120231,-0.000582,1,0,0,0,0,0,0,-0.065385,-0.039846,0.001388,1,0,0,0,0,0,0,0.112369,-0.073498,-0.004132,1,0,0,0,0,0,0
4.070000,-0.003714,0.123807,-0.000578,1,0,0,0,0,0,0,-0.067191,-0.040516,0.001426,1,0,0,0,0,0,0,0.116179,-0.075577,-0.004371,1,0,0,0,0,0,0
4.080000,-0.002979,0.127380,-0.000570,1,0,0,0,0,0,0,-0.069254,-0.041420,0.001483,1,0,0,0,0,0,0,0.120244,-0.077563,-0.004609,1,0,0,0,0,0,0
4.090000,-0.002177,0.130841,-0.000557,1,0,0,0,0,0,0,-0.071491,-0.042521,0.001558,1,0,0,0,0,0,0,0.124448,-0.079407,-0.004839,1,0,0,0,0,0,0
4.100000,-0.001347,0.134097,-0.000539,1,0,0,0,0,0,0,-0.073814,-0.043770,0.001646,1,0,0,0,0,0,0,0.128656,-0.081051,-0.005054,1,0,0,0,0,0,0
4.110000,-0.000535,0.137084,-0.000516,1,0,0,0,0,0,0,-0.076166,-0.045134,0.001746,1,0,0,0,0,0,0,0.132725,-0.082424,-0.005243,1,0,0,0,0,0,0
4.120000,0.000217,0.139766,-0.000489,1,0,0,0,0,0,0,-0.078486,-0.046576,0.001856,1,0,0,0,0,0,0,0.136517,-0.083467,-0.005397,1,0,0,0,0,0,0
4.130000,0.000877,0.142138,-0.000458,1,0,0,0,0,0,0,-0.080702,-0.048047,0.001972,1,0,0,0,0,0,0,0.139926,-0.084148,-0.005509,1,0,0,0,0,0,0
4.140000,0.001426,0.144204,-0.000425,1,0,0,0,0,0,0,-0.082758,-0.049488,0.002088,1,0,0,0,0,0,0,0.142896,-0.084476,-0.005577,1,0,0,0,0,0,0
4.150000,0.001866,0.145960,-0.000391,1,0,0,0,0,0,0,-0.084627,-0.050858,0.002201,1,0,0,0,0,0,0,0.145402,-0.084499,-0.005606,1,0,0,0,0,0,0
4.160000,0.002202,0.147406,-0.000356,1,0,0,0,0,0,0,-0.086315,-0.052141,0.002308,1,0,0,0,0,0,0,0.147440,-0.084272,-0.005603,1,0,0,0,0,0,0
4.170000,0.002446,0.148530,-0.000322,1,0,0,0,0,0,0,-0.087837,-0.053327,0.002409,1,0,0,0,0,0,0,0.149032,-0.083857,-0.005576,1,0,0,0,0,0,0
4.180000,0.002620,0.149296,-0.000290,1,0,0,0,0,0,0,-0.089185,-0.054395,0.002500,1,0,0,0,0,0,0,0.150208,-0.083317,-0.005534,1,0,0,0,0,0,0
4.190000,0.002740,0.149688,-0.000259,1,0,0,0,0,0,0,-0.090344,-0.055328,0.002580,1,0,0,0,0,0,0,0.150987,-0.082716,-0.005485,1,0,0,0,0,0,0
4.200000,0.002808,0.149731,-0.000230,1,0,0,0,0,0,0,-0.091299,-0.056117,0.002647,1,0,0,0,0,0,0,0.151377,-0.082108,-0.005437,1,0,0,0,0,0,0
4.210000,0.002820,0.149474,-0.000204,1,0,0,0,0,0,0,-0.092023,-0.056754,0.002701,1,0,0,0,0,0,0,0.151368,-0.081535,-0.005396,1,0,0,0,0,0,0
4.220000,0.002773,0.148980,-0.000179,1,0,0,0,0,0,0,-0.092485,-0.057235,0.002741,1,0,0,0,0,0,0,0.150933,-0.081012,-0.005364,1,0,0,0,0,0,0
4.230000,0.002660,0.148312,-0.000157,1,0,0,0,0,0,0,-0.092646,-0.057547,0.002764,1,0,0,0,0,0,0,0.150042,-0.080534,-0.005338,1,0,0,0,0,0,0
4.240000,0.002480,0.147514,-0.000137,1,0,0,0,0,0,0,-0.092489,-0.057688,0.002772,1,0,0,0,0,0,0,0.148672,-0.080083,-0.005314,1,0,0,0,0,0,0
4.250000,0.002232,0.146612,-0.000118,1,0,0,0,0,0,0,-0.092005,-0.057650,0.002762,1,0,0,0,0,0,0,0.146835,-0.079641,-0.005289,1,0,0,0,0,0,0
4.260000,0.001926,0.145592,-0.000102,1,0,0,0,0,0,0,-0.091191,-0.057424,0.002735,1,0,0,0,0,0,0,0.144575,-0.079200,-0.005261,1,0,0,0,0,0,0
4.270000,0.001577,0.144390,-0.000089,1,0,0,0,0,0,0,-0.090063,-0.057018,0.002692,1,0,0,0,0,0,0,0.141955,-0.078725,-0.005223,1,0,0,0,0,0,0
4.280000,0.001194,0.142993,-0.000077,1,0,0,0,0,0,0,-0.088637,-0.056439,0.002632,1,0,0,0,0,0,0,0.139037,-0.078192,-0.005173,1,0,0,0,0,0,0
4.290000,0.000778,0.141419,-0.000068,1,0,0,0,0,0,0,-0.086927,-0.055679,0.002558,1,0,0,0,0,0,0,0.135906,-0.077642,-0.005117,1,0,0,0,0,0,0
4.300000,0.000332,0.139684,-0.000060,1,0,0,0,0,0,0,-0.084945,-0.054731,0.002468,1,0,0,0,0,0,0,0.132626,-0.077086,-0.005055,1,0,0,0,0,0,0
4.310000,-0.000140,0.137813,-0.000054,1,0,0,0,0,0,0,-0.082706,-0.053588,0.002364,1,0,0,0,0,0,0,0.129241,-0.076515,-0.004987,1,0,0,0,0,0,0
4.320000,-0.000630,0.135837,-0.000049,1,0,0,0,0,0,0,-0.080228,-0.052254,0.002246,1,0,0,0,0,0,0,0.125798,-0.075921,-0.004912,1,0,0,0,0,0,0
