time,drone0_roll,drone0_pitch,drone0_yaw,drone0_des_qw,drone0_des_qx,drone0_des_qy,drone0_des_qz,drone0_err_x,drone0_err_y,drone0_err_z,drone1_roll,drone1_pitch,drone1_yaw,drone1_des_qw,drone1_des_qx,drone1_des_qy,drone1_des_qz,drone1_err_x,drone1_err_y,drone1_err_z,drone2_roll,drone2_pitch,drone2_yaw,drone2_des_qw,drone2_des_qx,drone2_des_qy,drone2_des_qz,drone2_err_x,drone2_err_y,drone2_err_z
0.000000,0.000000,0.000000,0.000000,1,0,0,0,0,0,0,0.000000,0.000000,0.000000,1,0,0,0,0,0,0,0.000000,0.000000,0.000000,1,0,0,0,0,0,0
0.010000,0.000001,-0.000001,-0.000000,1,0,0,0,0,0,0,0.000001,-0.000001,-0.000000,1,0,0,0,0,0,0,0.000446,-0.000248,-0.000000,1,0,0,0,0,0,0
0.020000,0.000003,-0.000006,-0.000000,1,0,0,0,0,0,0,0.000003,-0.000006,-0.000000,1,0,0,0,0,0,0,0.001425,-0.000806,-0.000001,1,0,0,0,0,0,0
0.030000,0.000008,-0.000016,-0.000000,1,0,0,0,0,0,0,0.000008,-0.000016,-0.000000,1,0,0,0,0,0,0,0.002764,-0.001579,-0.000002,1,0,0,0,0,0,0
0.040000,0.000015,-0.000030,-0.000000,1,0,0,0,0,0,0,0.000015,-0.000030,-0.000000,1,0,0,0,0,0,0,0.004422,-0.002541,-0.000006,1,0,0,0,0,0,0
0.050000,0.000025,0.000068,0.000000,1,0,0,0,0,0,0,0.000025,-0.000049,-0.000000,1,0,0,0,0,0,0,0.006384,-0.003682,-0.000012,1,0,0,0,0,0,0
0.060000,0.000037,0.000220,0.000000,1,0,0,0,0,0,0,0.000022,-0.000081,-0.000000,1,0,0,0,0,0,0,0.008639,-0.004997,-0.000021,1,0,0,0,0,0,0
0.070000,0.000050,0.000460,0.000000,1,0,0,0,0,0,0,-0.000193,-0.000237,0.000000,1,0,0,0,0,0,0,0.011169,-0.006473,-0.000036,1,0,0,0,0,0,0
0.080000,0.000066,0.000806,0.000000,1,0,0,0,0,0,0,-0.000336,-0.000361,0.000000,1,0,0,0,0,0,0,0.013938,-0.008092,-0.000056,1,0,0,0,0,0,0
0.090000,0.000084,0.001285,0.000000,1,0,0,0,0,0,0,-0.000583,-0.000546,0.000000,1,0,0,0,0,0,0,0.016902,-0.009827,-0.000083,1,0,0,0,0,0,0
0.100000,0.000103,0.001849,0.000000,1,0,0,0,0,0,0,-0.000938,-0.000800,0.000000,1,0,0,0,0,0,0,0.020019,-0.011653,-0.000116,1,0,0,0,0,0,0
0.110000,0.000123,0.002552,0.000000,1,0,0,0,0,0,0,-0.001318,-0.001071,0.000001,1,0,0,0,0,0,0,0.023256,-0.013552,-0.000157,1,0,0,0,0,0,0
0.120000,0.000145,0.003381,0.000000,1,0,0,0,0,0,0,-0.001828,-0.001421,0.000001,1,0,0,0,0,0,0,0.026545,-0.015484,-0.000205,1,0,0,0,0,0,0
0.130000,0.000167,0.004335,0.000000,1,0,0,0,0,0,0,-0.002382,-0.001800,0.000002,1,0,0,0,0,0,0,0.029722,-0.017356,-0.000258,1,0,0,0,0,0,0
0.140000,0.000191,0.005431,0.000001,1,0,0,0,0,0,0,-0.003046,-0.002243,0.000003,1,0,0,0,0,0,0,0.032749,-0.019144,-0.000313,1,0,0,0,0,0,0
0.150000,0.000216,0.006679,0.000001,1,0,0,0,0,0,0,-0.003799,-0.002741,0.000005,1,0,0,0,0,0,0,0.035690,-0.020881,-0.000373,1,0,0,0,0,0,0
0.160000,0.000241,0.008083,0.000001,1,0,0,0,0,0,0,-0.004651,-0.003297,0.000007,1,0,0,0,0,0,0,0.038548,-0.022571,-0.000435,1,0,0,0,0,0,0
0.170000,0.000267,0.009608,0.000002,1,0,0,0,0,0,0,-0.005626,-0.003926,0.000010,1,0,0,0,0,0,0,0.041312,-0.024206,-0.000500,1,0,0,0,0,0,0
0.180000,0.000293,0.011201,0.000002,1,0,0,0,0,0,0,-0.006707,-0.004617,0.000015,1,0,0,0,0,0,0,0.043967,-0.025779,-0.000567,1,0,0,0,0,0,0
0.190000,0.000320,0.012836,0.000002,1,0,0,0,0,0,0,-0.007911,-0.005380,0.000020,1,0,0,0,0,0,0,0.046498,-0.027281,-0.000635,1,0,0,0,0,0,0
0.200000,0.000347,0.014506,0.000003,1,0,0,0,0,0,0,-0.009235,-0.006213,0.000027,1,0,0,0,0,0,0,0.048888,-0.028701,-0.000703,1,0,0,0,0,0,0
0.210000,0.000374,0.016196,0.000004,1,0,0,0,0,0,0,-0.010649,-0.007099,0.000036,1,0,0,0,0,0,0,0.051120,-0.030030,-0.000769,1,0,0,0,0,0,0
0.220000,0.000401,0.017875,0.000004,1,0,0,0,0,0,0,-0.012102,-0.008008,0.000047,1,0,0,0,0,0,0,0.053176,-0.031257,-0.000833,1,0,0,0,0,0,0
0.230000,0.000428,0.019502,0.000005,1,0,0,0,0,0,0,-0.013575,-0.008929,0.000059,1,0,0,0,0,0,0,0.055042,-0.032374,-0.000893,1,0,0,0,0,0,0
0.240000,0.000454,0.021062,0.000005,1,0,0,0,0,0,0,-0.015066,-0.009859,0.000072,1,0,0,0,0,0,0,0.056714,-0.033378,-0.000949,1,0,0,0,0,0,0
0.250000,0.000481,0.022570,0.000006,1,0,0,0,0,0,0,-0.016557,-0.010789,0.000087,1,0,0,0,0,0,0,0.058189,-0.034267,-0.001000,1,0,0,0,0,0,0
0.260000,0.000506,0.024031,0.000007,1,0,0,0,0,0,0,-0.018003,-0.011692,0.000102,1,0,0,0,0,0,0,0.059465,-0.035040,-0.001046,1,0,0,0,0,0,0
0.270000,0.000531,0.025453,0.000008,1,0,0,0,0,0,0,-0.019351,-0.012538,0.000118,1,0,0,0,0,0,0,0.060538,-0.035694,-0.001085,1,0,0,0,0,0,0
0.280000,0.000554,0.026837,0.000008,1,0,0,0,0,0,0,-0.020613,-0.013331,0.000134,1,0,0,0,0,0,0,0.061406,-0.036229,-0.001117,1,0,0,0,0,0,0
0.290000,0.000577,0.028178,0.000009,1,0,0,0,0,0,0,-0.021804,-0.014080,0.000150,1,0,0,0,0,0,0,0.062068,-0.036643,-0.001142,1,0,0,0,0,0,0
0.300000,0.000599,0.029459,0.000010,1,0,0,0,0,0,0,-0.022930,-0.014789,0.000166,1,0,0,0,0,0,0,0.062521,-0.036936,-0.001160,1,0,0,0,0,0,0
0.310000,0.000620,0.030655,0.000010,1,0,0,0,0,0,0,-0.023999,-0.015461,0.000182,1,0,0,0,0,0,0,0.062770,-0.037109,-0.001171,1,0,0,0,0,0,0
0.320000,0.000640,0.031744,0.000011,1,0,0,0,0,0,0,-0.025016,-0.016099,0.000198,1,0,0,0,0,0,0,0.062819,-0.037164,-0.001174,1,0,0,0,0,0,0
0.330000,0.000659,0.032712,0.000012,1,0,0,0,0,0,0,-0.025971,-0.016699,0.000214,1,0,0,0,0,0,0,0.062676,-0.037107,-0.001170,1,0,0,0,0,0,0
0.340000,0.000676,0.033551,0.000012,1,0,0,0,0,0,0,-0.026847,-0.017251,0.000228,1,0,0,0,0,0,0,0.062349,-0.036942,-0.001159,1,0,0,0,0,0,0
0.350000,0.000692,0.034253,0.000012,1,0,0,0,0,0,0,-0.027628,-0.017745,0.000242,1,0,0,0,0,0,0,0.061849,-0.036674,-0.001142,1,0,0,0,0,0,0
0.360000,0.000708,0.034803,0.000013,1,0,0,0,0,0,0,-0.028301,-0.018174,0.000254,1,0,0,0,0,0,0,0.061187,-0.036311,-0.001120,1,0,0,0,0,0,0
0.370000,0.000722,0.035187,0.000013,1,0,0,0,0,0,0,-0.028860,-0.018534,0.000265,1,0,0,0,0,0,0,0.060375,-0.035860,-0.001092,1,0,0,0,0,0,0
0.380000,0.000734,0.035401,0.000013,1,0,0,0,0,0,0,-0.029300,-0.018821,0.000273,1,0,0,0,0,0,0,0.059427,-0.035327,-0.001059,1,0,0,0,0,0,0
0.390000,0.000746,0.035445,0.000013,1,0,0,0,0,0,0,-0.029616,-0.019034,0.000280,1,0,0,0,0,0,0,0.058352,-0.034720,-0.001023,1,0,0,0,0,0,0
0.400000,0.000756,0.035325,0.000013,1,0,0,0,0,0,0,-0.029797,-0.019166,0.000284,1,0,0,0,0,0,0,0.057159,-0.034042,-0.000983,1,0,0,0,0,0,0
0.410000,0.000764,0.035049,0.000013,1,0,0,0,0,0,0,-0.029838,-0.019213,0.000285,1,0,0,0,0,0,0,0.055859,-0.033300,-0.000940,1,0,0,0,0,0,0
0.420000,0.000772,0.034623,0.000013,1,0,0,0,0,0,0,-0.029739,-0.019177,0.000284,1,0,0,0,0,0,0,0.054460,-0.032500,-0.000895,1,0,0,0,0,0,0
0.430000,0.000777,0.034055,0.000012,1,0,0,0,0,0,0,-0.029505,-0.019059,0.000281,1,0,0,0,0,0,0,0.052973,-0.031646,-0.000849,1,0,0,0,0,0,0
0.440000,0.000782,0.033351,0.000012,1,0,0,0,0,0,0,-0.029138,-0.018860,0.000275,1,0,0,0,0,0,0,0.051408,-0.030746,-0.000801,1,0,0,0,0,0,0
0.450000,0.000785,0.032519,0.000011,1,0,0,0,0,0,0,-0.028641,-0.018583,0.000267,1,0,0,0,0,0,0,0.049777,-0.029806,-0.000753,1,0,0,0,0,0,0
0.460000,0.000786,0.031567,0.000010,1,0,0,0,0,0,0,-0.028016,-0.018229,0.000257,1,0,0,0,0,0,0,0.048098,-0.028836,-0.000705,1,0,0,0,0,0,0
0.470000,0.000785,0.030505,0.000010,1,0,0,0,0,0,0,-0.027266,-0.017799,0.000245,1,0,0,0,0,0,0,0.046385,-0.027845,-0.000657,1,0,0,0,0,0,0
0.480000,0.000783,0.029343,0.000009,1,0,0,0,0,0,0,-0.026396,-0.017296,0.000231,1,0,0,0,0,0,0,0.044650,-0.026840,-0.000611,1,0,0,0,0,0,0
0.490000,0.000778,0.028090,0.000008,1,0,0,0,0,0,0,-0.025414,-0.016726,0.000216,1,0,0,0,0,0,0,0.042904,-0.025829,-0.000565,1,0,0,0,0,0,0
0.500000,0.000770,0.026760,0.000007,1,0,0,0,0,0,0,-0.024328,-0.016092,0.000200,1,0,0,0,0,0,0,0.041160,-0.024818,-0.000522,1,0,0,0,0,0,0
0.510000,0.000759,0.025364,0.000006,1,0,0,0,0,0,0,-0.023147,-0.015401,0.000184,1,0,0,0,0,0,0,0.039428,-0.023814,-0.000481,1,0,0,0,0,0,0
0.520000,0.000745,0.023912,0.000005,1,0,0,0,0,0,0,-0.021882,-0.014658,0.000167,1,0,0,0,0,0,0,0.037721,-0.022824,-0.000442,1,0,0,0,0,0,0
0.530000,0.000725,0.022422,0.000005,1,0,0,0,0,0,0,-0.020543,-0.013869,0.000149,1,0,0,0,0,0,0,0.036049,-0.021856,-0.000406,1,0,0,0,0,0,0
0.540000,0.000697,0.020914,0.000004,1,0,0,0,0,0,0,-0.019140,-0.013040,0.000133,1,0,0,0,0,0,0,0.034424,-0.020917,-0.000372,1,0,0,0,0,0,0
0.550000,0.000659,0.019407,0.000003,1,0,0,0,0,0,0,-0.017685,-0.012176,0.000116,1,0,0,0,0,0,0,0.032860,-0.020016,-0.000341,1,0,0,0,0,0,0
0.560000,0.000609,0.017928,0.000002,1,0,0,0,0,0,0,-0.016188,-0.011285,0.000101,1,0,0,0,0,0,0,0.031372,-0.019161,-0.000312,1,0,0,0,0,0,0
0.570000,0.000542,0.016505,0.000002,1,0,0,0,0,0,0,-0.014661,-0.010371,0.000086,1,0,0,0,0,0,0,0.029973,-0.018363,-0.000287,1,0,0,0,0,0,0
0.580000,0.000452,0.015177,0.000001,1,0,0,0,0,0,0,-0.013114,-0.009441,0.000072,1,0,0,0,0,0,0,0.028677,-0.017629,-0.000265,1,0,0,0,0,0,0
0.590000,0.000334,0.013989,0.000001,1,0,0,0,0,0,0,-0.011561,-0.008500,0.000060,1,0,0,0,0,0,0,0.027497,-0.016969,-0.000246,1,0,0,0,0,0,0
0.600000,0.000181,0.012994,0.000001,1,0,0,0,0,0,0,-0.010017,-0.007556,0.000049,1,0,0,0,0,0,0,0.026444,-0.016389,-0.000229,1,0,0,0,0,0,0
0.610000,-0.000016,0.012245,0.000001,1,0,0,0,0,0,0,-0.008499,-0.006617,0.000040,1,0,0,0,0,0,0,0.025525,-0.015895,-0.000216,1,0,0,0,0,0,0
0.620000,-0.000259,0.011782,0.000001,1,0,0,0,0,0,0,-0.007027,-0.005691,0.000032,1,0,0,0,0,0,0,0.024745,-0.015491,-0.000205,1,0,0,0,0,0,0
0.630000,-0.000547,0.011614,0.000001,1,0,0,0,0,0,0,-0.005626,-0.004789,0.000025,1,0,0,0,0,0,0,0.024108,-0.015179,-0.000196,1,0,0,0,0,0,0
0.640000,-0.000873,0.011717,0.000000,1,0,0,0,0,0,0,-0.004328,-0.003924,0.000020,1,0,0,0,0,0,0,0.023612,-0.014957,-0.000190,1,0,0,0,0,0,0
0.650000,-0.001236,0.012089,-0.000000,1,0,0,0,0,0,0,-0.003173,-0.003113,0.000017,1,0,0,0,0,0,0,0.023253,-0.014822,-0.000186,1,0,0,0,0,0,0
0.660000,-0.001623,0.012667,-0.000002,1,0,0,0,0,0,0,-0.002207,-0.002375,0.000014,1,0,0,0,0,0,0,0.023029,-0.014770,-0.000184,1,0,0,0,0,0,0
0.670000,-0.002015,0.013342,-0.000003,1,0,0,0,0,0,0,-0.001478,-0.001732,0.000012,1,0,0,0,0,0,0,0.022938,-0.014799,-0.000184,1,0,0,0,0,0,0
0.680000,-0.002393,0.014003,-0.000005,1,0,0,0,0,0,0,-0.001025,-0.001203,0.000011,1,0,0,0,0,0,0,0.022979,-0.014905,-0.000186,1,0,0,0,0,0,0
0.690000,-0.002748,0.014592,-0.000007,1,0,0,0,0,0,0,-0.000870,-0.000797,0.000010,1,0,0,0,0,0,0,0.023153,-0.015087,-0.000189,1,0,0,0,0,0,0
0.700000,-0.003076,0.015095,-0.000010,1,0,0,0,0,0,0,-0.001005,-0.000518,0.000009,1,0,0,0,0,0,0,0.023460,-0.015343,-0.000194,1,0,0,0,0,0,0
0.710000,-0.003381,0.015529,-0.000012,1,0,0,0,0,0,0,-0.001432,-0.000368,0.000008,1,0,0,0,0,0,0,0.023900,-0.015671,-0.000201,1,0,0,0,0,0,0
0.720000,-0.003669,0.015947,-0.000014,1,0,0,0,0,0,0,-0.002133,-0.000342,0.000008,1,0,0,0,0,0,0,0.024473,-0.016071,-0.000210,1,0,0,0,0,0,0
0.730000,-0.003947,0.016404,-0.000017,1,0,0,0,0,0,0,-0.003016,-0.000409,0.000007,1,0,0,0,0,0,0,0.025179,-0.016546,-0.000221,1,0,0,0,0,0,0
0.740000,-0.004215,0.016917,-0.000020,1,0,0,0,0,0,0,-0.003957,-0.000521,0.000007,1,0,0,0,0,0,0,0.026022,-0.017099,-0.000234,1,0,0,0,0,0,0
0.750000,-0.004470,0.017482,-0.000023,1,0,0,0,0,0,0,-0.004862,-0.000642,0.000007,1,0,0,0,0,0,0,0.027007,-0.017736,-0.000250,1,0,0,0,0,0,0
0.760000,-0.004705,0.018076,-0.000027,1,0,0,0,0,0,0,-0.005688,-0.000751,0.000008,1,0,0,0,0,0,0,0.028141,-0.018461,-0.000270,1,0,0,0,0,0,0
0.770000,-0.004917,0.018672,-0.000031,1,0,0,0,0,0,0,-0.006430,-0.000847,0.000008,1,0,0,0,0,0,0,0.029428,-0.019278,-0.000292,1,0,0,0,0,0,0
0.780000,-0.005099,0.019244,-0.000034,1,0,0,0,0,0,0,-0.007117,-0.000940,0.000008,1,0,0,0,0,0,0,0.030867,-0.020188,-0.000319,1,0,0,0,0,0,0
0.790000,-0.005250,0.019760,-0.000038,1,0,0,0,0,0,0,-0.007819,-0.001061,0.000009,1,0,0,0,0,0,0,0.032454,-0.021183,-0.000350,1,0,0,0,0,0,0
0.800000,-0.005371,0.020207,-0.000041,1,0,0,0,0,0,0,-0.008581,-0.001231,0.000010,1,0,0,0,0,0,0,0.034174,-0.022254,-0.000385,1,0,0,0,0,0,0
0.810000,-0.005461,0.020582,-0.000044,1,0,0,0,0,0,0,-0.009414,-0.001458,0.000012,1,0,0,0,0,0,0,0.036007,-0.023386,-0.000425,1,0,0,0,0,0,0
0.820000,-0.005525,0.020892,-0.000046,1,0,0,0,0,0,0,-0.010311,-0.001742,0.000014,1,0,0,0,0,0,0,0.037930,-0.024562,-0.000468,1,0,0,0,0,0,0
0.830000,-0.005563,0.021146,-0.000049,1,0,0,0,0,0,0,-0.011281,-0.002090,0.000018,1,0,0,0,0,0,0,0.039913,-0.025765,-0.000515,1,0,0,0,0,0,0
0.840000,-0.005578,0.021356,-0.000050,1,0,0,0,0,0,0,-0.012336,-0.002512,0.000022,1,0,0,0,0,0,0,0.041930,-0.026979,-0.000564,1,0,0,0,0,0,0
0.850000,-0.005574,0.021536,-0.000052,1,0,0,0,0,0,0,-0.013473,-0.003011,0.000028,1,0,0,0,0,0,0,0.043951,-0.028191,-0.000616,1,0,0,0,0,0,0
0.860000,-0.005555,0.021708,-0.000053,1,0,0,0,0,0,0,-0.014667,-0.003579,0.000036,1,0,0,0,0,0,0,0.045956,-0.029389,-0.000670,1,0,0,0,0,0,0
0.870000,-0.005524,0.021895,-0.000055,1,0,0,0,0,0,0,-0.015872,-0.004193,0.000045,1,0,0,0,0,0,0,0.047933,-0.030570,-0.000726,1,0,0,0,0,0,0
0.880000,-0.005485,0.022125,-0.000057,1,0,0,0,0,0,0,-0.017034,-0.004818,0.000054,1,0,0,0,0,0,0,0.049885,-0.031735,-0.000783,1,0,0,0,0,0,0
0.890000,-0.005440,0.022426,-0.000059,1,0,0,0,0,0,0,-0.018119,-0.005430,0.000064,1,0,0,0,0,0,0,0.051823,-0.032890,-0.000842,1,0,0,0,0,0,0
0.900000,-0.005393,0.022822,-0.000061,1,0,0,0,0,0,0,-0.019126,-0.006026,0.000074,1,0,0,0,0,0,0,0.053762,-0.034040,-0.000904,1,0,0,0,0,0,0
0.910000,-0.005343,0.023328,-0.000064,1,0,0,0,0,0,0,-0.020047,-0.006597,0.000085,1,0,0,0,0,0,0,0.055712,-0.035191,-0.000967,1,0,0,0,0,0,0
0.920000,-0.005290,0.023948,-0.000067,1,0,0,0,0,0,0,-0.020874,-0.007135,0.000095,1,0,0,0,0,0,0,0.057679,-0.036340,-0.001033,1,0,0,0,0,0,0
0.930000,-0.005234,0.024669,-0.000071,1,0,0,0,0,0,0,-0.021608,-0.007639,0.000104,1,0,0,0,0,0,0,0.059658,-0.037486,-0.001101,1,0,0,0,0,0,0
0.940000,-0.005173,0.025471,-0.000074,1,0,0,0,0,0,0,-0.022253,-0.008109,0.000113,1,0,0,0,0,0,0,0.061642,-0.038621,-0.001171,1,0,0,0,0,0,0
0.950000,-0.005105,0.026327,-0.000078,1,0,0,0,0,0,0,-0.022818,-0.008549,0.000122,1,0,0,0,0,0,0,0.063618,-0.039738,-0.001242,1,0,0,0,0,0,0
0.960000,-0.005029,0.027205,-0.000082,1,0,0,0,0,0,0,-0.023319,-0.008966,0.000130,1,0,0,0,0,0,0,0.065579,-0.040831,-0.001314,1,0,0,0,0,0,0
0.970000,-0.004943,0.028077,-0.000086,1,0,0,0,0,0,0,-0.023786,-0.009370,0.000138,1,0,0,0,0,0,0,0.067520,-0.041897,-0.001387,1,0,0,0,0,0,0
0.980000,-0.004850,0.028936,-0.000089,1,0,0,0,0,0,0,-0.024251,-0.009777,0.000146,1,0,0,0,0,0,0,0.069435,-0.042934,-0.001459,1,0,0,0,0,0,0
0.990000,-0.004750,0.029785,-0.000092,1,0,0,0,0,0,0,-0.024744,-0.010201,0.000155,1,0,0,0,0,0,0,0.071312,-0.043934,-0.001532,1,0,0,0,0,0,0
1.000000,-0.004646,0.030624,-0.000095,1,0,0,0,0,0,0,-0.025275,-0.010649,0.000164,1,0,0,0,0,0,0,0.073132,-0.044891,-0.001603,1,0,0,0,0,0,0
1.010000,-0.004547,0.031532,-0.000098,1,0,0,0,0,0,0,-0.025840,-0.011119,0.000175,1,0,0,0,0,0,0,0.074884,-0.045803,-0.001673,1,0,0,0,0,0,0
1.020000,-0.004461,0.032569,-0.000101,1,0,0,0,0,0,0,-0.026417,-0.011605,0.000186,1,0,0,0,0,0,0,0.076590,-0.046690,-0.001743,1,0,0,0,0,0,0
1.030000,-0.004395,0.033747,-0.000105,1,0,0,0,0,0,0,-0.026998,-0.012102,0.000197,1,0,0,0,0,0,0,0.078260,-0.047566,-0.001813,1,0,0,0,0,0,0
1.040000,-0.004349,0.035047,-0.000108,1,0,0,0,0,0,0,-0.027597,-0.012620,0.000209,1,0,0,0,0,0,0,0.079894,-0.048436,-0.001885,1,0,0,0,0,0,0
1.050000,-0.004323,0.036440,-0.000113,1,0,0,0,0,0,0,-0.028227,-0.013168,0.000222,1,0,0,0,0,0,0,0.081498,-0.049308,-0.001959,1,0,0,0,0,0,0
1.060000,-0.004321,0.037930,-0.000117,1,0,0,0,0,0,0,-0.028870,-0.013737,0.000236,1,0,0,0,0,0,0,0.083073,-0.050183,-0.002034,1,0,0,0,0,0,0
1.070000,-0.004343,0.039520,-0.000122,1,0,0,0,0,0,0,-0.029479,-0.014304,0.000251,1,0,0,0,0,0,0,0.084608,-0.051056,-0.002110,1,0,0,0,0,0,0
1.080000,-0.004385,0.041172,-0.000127,1,0,0,0,0,0,0,-0.030035,-0.014850,0.000265,1,0,0,0,0,0,0,0.086082,-0.051914,-0.002187,1,0,0,0,0,0,0
1.090000,-0.004436,0.042814,-0.000132,1,0,0,0,0,0,0,-0.030532,-0.015369,0.000278,1,0,0,0,0,0,0,0.087470,-0.052737,-0.002262,1,0,0,0,0,0,0
1.100000,-0.004484,0.044380,-0.000137,1,0,0,0,0,0,0,-0.030972,-0.015861,0.000290,1,0,0,0,0,0,0,0.088745,-0.053510,-0.002333,1,0,0,0,0,0,0
1.110000,-0.004532,0.045879,-0.000141,1,0,0,0,0,0,0,-0.031359,-0.016323,0.000302,1,0,0,0,0,0,0,0.089890,-0.054219,-0.002399,1,0,0,0,0,0,0
1.120000,-0.004586,0.047372,-0.000146,1,0,0,0,0,0,0,-0.031696,-0.016755,0.000313,1,0,0,0,0,0,0,0.090897,-0.054861,-0.002460,1,0,0,0,0,0,0
1.130000,-0.004648,0.048872,-0.000151,1,0,0,0,0,0,0,-0.031979,-0.017152,0.000323,1,0,0,0,0,0,0,0.091769,-0.055436,-0.002515,1,0,0,0,0,0,0
1.140000,-0.004715,0.050375,-0.000155,1,0,0,0,0,0,0,-0.032213,-0.017517,0.000332,1,0,0,0,0,0,0,0.092515,-0.055950,-0.002564,1,0,0,0,0,0,0
1.150000,-0.004790,0.051887,-0.000160,1,0,0,0,0,0,0,-0.032405,-0.017850,0.000340,1,0,0,0,0,0,0,0.093140,-0.056408,-0.002609,1,0,0,0,0,0,0
1.160000,-0.004873,0.053417,-0.000166,1,0,0,0,0,0,0,-0.032554,-0.018150,0.000346,1,0,0,0,0,0,0,0.093651,-0.056813,-0.002648,1,0,0,0,0,0,0
1.170000,-0.004967,0.054960,-0.000171,1,0,0,0,0,0,0,-0.032670,-0.018418,0.000352,1,0,0,0,0,0,0,0.094052,-0.057171,-0.002683,1,0,0,0,0,0,0
1.180000,-0.005071,0.056487,-0.000177,1,0,0,0,0,0,0,-0.032772,-0.018662,0.000357,1,0,0,0,0,0,0,0.094349,-0.057487,-0.002714,1,0,0,0,0,0,0
1.190000,-0.005186,0.057966,-0.000182,1,0,0,0,0,0,0,-0.032868,-0.018882,0.000361,1,0,0,0,0,0,0,0.094548,-0.057764,-0.002740,1,0,0,0,0,0,0
1.200000,-0.005312,0.059379,-0.000188,1,0,0,0,0,0,0,-0.032953,-0.019075,0.000364,1,0,0,0,0,0,0,0.094648,-0.058003,-0.002763,1,0,0,0,0,0,0
1.210000,-0.005443,0.060671,-0.000193,1,0,0,0,0,0,0,-0.033022,-0.019238,0.000367,1,0,0,0,0,0,0,0.094647,-0.058204,-0.002781,1,0,0,0,0,0,0
1.220000,-0.005561,0.061738,-0.000197,1,0,0,0,0,0,0,-0.033080,-0.019374,0.000368,1,0,0,0,0,0,0,0.094544,-0.058362,-0.002795,1,0,0,0,0,0,0
1.230000,-0.005663,0.062567,-0.000200,1,0,0,0,0,0,0,-0.033122,-0.019482,0.000369,1,0,0,0,0,0,0,0.094333,-0.058471,-0.002804,1,0,0,0,0,0,0
1.240000,-0.005758,0.063200,-0.000202,1,0,0,0,0,0,0,-0.033121,-0.019552,0.000369,1,0,0,0,0,0,0,0.094007,-0.058521,-0.002806,1,0,0,0,0,0,0
1.250000,-0.005850,0.063643,-0.000203,1,0,0,0,0,0,0,-0.033070,-0.019582,0.000367,1,0,0,0,0,0,0,0.093552,-0.058498,-0.002801,1,0,0,0,0,0,0
1.260000,-0.005937,0.063890,-0.000204,1,0,0,0,0,0,0,-0.032968,-0.019573,0.000364,1,0,0,0,0,0,0,0.092962,-0.058391,-0.002788,1,0,0,0,0,0,0
1.270000,-0.006015,0.063934,-0.000203,1,0,0,0,0,0,0,-0.032821,-0.019527,0.000360,1,0,0,0,0,0,0,0.092234,-0.058191,-0.002765,1,0,0,0,0,0,0
1.280000,-0.006080,0.063772,-0.000201,1,0,0,0,0,0,0,-0.032647,-0.019453,0.000355,1,0,0,0,0,0,0,0.091368,-0.057897,-0.002733,1,0,0,0,0,0,0
1.290000,-0.006130,0.063404,-0.000199,1,0,0,0,0,0,0,-0.032468,-0.019360,0.000350,1,0,0,0,0,0,0,0.090372,-0.057508,-0.002693,1,0,0,0,0,0,0
1.300000,-0.006162,0.062836,-0.000195,1,0,0,0,0,0,0,-0.032294,-0.019254,0.000344,1,0,0,0,0,0,0,0.089256,-0.057033,-0.002645,1,0,0,0,0,0,0
1.310000,-0.006174,0.062079,-0.000190,1,0,0,0,0,0,0,-0.032131,-0.019138,0.000338,1,0,0,0,0,0,0,0.088035,-0.056478,-0.002590,1,0,0,0,0,0,0
1.320000,-0.006166,0.061149,-0.000184,1,0,0,0,0,0,0,-0.031988,-0.019018,0.000332,1,0,0,0,0,0,0,0.086728,-0.055854,-0.002529,1,0,0,0,0,0,0
1.330000,-0.006138,0.060069,-0.000178,1,0,0,0,0,0,0,-0.031881,-0.018902,0.000327,1,0,0,0,0,0,0,0.085358,-0.055174,-0.002464,1,0,0,0,0,0,0
1.340000,-0.006090,0.058863,-0.000171,1,0,0,0,0,0,0,-0.031822,-0.018799,0.000322,1,0,0,0,0,0,0,0.083958,-0.054451,-0.002396,1,0,0,0,0,0,0
1.350000,-0.006022,0.057556,-0.000163,1,0,0,0,0,0,0,-0.031810,-0.018708,0.000318,1,0,0,0,0,0,0,0.082549,-0.053693,-0.002326,1,0,0,0,0,0,0
1.360000,-0.005936,0.056171,-0.000155,1,0,0,0,0,0,0,-0.031825,-0.018623,0.000314,1,0,0,0,0,0,0,0.081150,-0.052904,-0.002255,1,0,0,0,0,0,0
1.370000,-0.005834,0.054725,-0.000147,1,0,0,0,0,0,0,-0.031834,-0.018529,0.000310,1,0,0,0,0,0,0,0.079769,-0.052082,-0.002182,1,0,0,0,0,0,0
1.380000,-0.005718,0.053236,-0.000140,1,0,0,0,0,0,0,-0.031822,-0.018420,0.000305,1,0,0,0,0,0,0,0.078401,-0.051221,-0.002108,1,0,0,0,0,0,0
1.390000,-0.005593,0.051721,-0.000132,1,0,0,0,0,0,0,-0.031800,-0.018300,0.000301,1,0,0,0,0,0,0,0.077044,-0.050319,-0.002031,1,0,0,0,0,0,0
1.400000,-0.005463,0.050199,-0.000124,1,0,0,0,0,0,0,-0.031767,-0.018168,0.000296,1,0,0,0,0,0,0,0.075694,-0.049375,-0.001953,1,0,0,0,0,0,0
1.410000,-0.005332,0.048689,-0.000117,1,0,0,0,0,0,0,-0.031706,-0.018017,0.000290,1,0,0,0,0,0,0,0.074343,-0.048387,-0.001874,1,0,0,0,0,0,0
1.420000,-0.005201,0.047201,-0.000110,1,0,0,0,0,0,0,-0.031586,-0.017833,0.000284,1,0,0,0,0,0,0,0.072983,-0.047360,-0.001793,1,0,0,0,0,0,0
1.430000,-0.005071,0.045734,-0.000103,1,0,0,0,0,0,0,-0.031396,-0.017612,0.000277,1,0,0,0,0,0,0,0.071615,-0.046299,-0.001712,1,0,0,0,0,0,0
1.440000,-0.004939,0.044286,-0.000096,1,0,0,0,0,0,0,-0.031157,-0.017362,0.000269,1,0,0,0,0,0,0,0.070242,-0.045213,-0.001631,1,0,0,0,0,0,0
1.450000,-0.004801,0.042856,-0.000090,1,0,0,0,0,0,0,-0.030889,-0.017092,0.000261,1,0,0,0,0,0,0,0.068871,-0.044112,-0.001551,1,0,0,0,0,0,0
1.460000,-0.004654,0.041454,-0.000084,1,0,0,0,0,0,0,-0.030601,-0.016804,0.000252,1,0,0,0,0,0,0,0.067513,-0.043005,-0.001473,1,0,0,0,0,0,0
1.470000,-0.004491,0.040083,-0.000079,1,0,0,0,0,0,0,-0.030292,-0.016501,0.000243,1,0,0,0,0,0,0,0.066178,-0.041903,-0.001398,1,0,0,0,0,0,0
1.480000,-0.004307,0.038730,-0.000073,1,0,0,0,0,0,0,-0.029959,-0.016181,0.000234,1,0,0,0,0,0,0,0.064877,-0.040813,-0.001325,1,0,0,0,0,0,0
1.490000,-0.004097,0.037376,-0.000068,1,0,0,0,0,0,0,-0.029592,-0.015844,0.000224,1,0,0,0,0,0,0,0.063612,-0.039741,-0.001256,1,0,0,0,0,0,0
1.500000,-0.003857,0.036005,-0.000063,1,0,0,0,0,0,0,-0.029180,-0.015487,0.000214,1,0,0,0,0,0,0,0.062381,-0.038689,-0.001190,1,0,0,0,0,0,0
1.510000,-0.003584,0.034608,-0.000059,1,0,0,0,0,0,0,-0.028713,-0.015112,0.000204,1,0,0,0,0,0,0,0.061192,-0.037662,-0.001127,1,0,0,0,0,0,0
1.520000,-0.003279,0.033161,-0.000054,1,0,0,0,0,0,0,-0.028192,-0.014721,0.000194,1,0,0,0,0,0,0,0.060051,-0.036668,-0.001068,1,0,0,0,0,0,0
1.530000,-0.002946,0.031635,-0.000049,1,0,0,0,0,0,0,-0.027619,-0.014317,0.000183,1,0,0,0,0,0,0,0.058959,-0.035709,-0.001012,1,0,0,0,0,0,0
1.540000,-0.002592,0.030020,-0.000045,1,0,0,0,0,0,0,-0.027001,-0.013907,0.000173,1,0,0,0,0,0,0,0.057918,-0.034785,-0.000960,1,0,0,0,0,0,0
1.550000,-0.002221,0.028322,-0.000040,1,0,0,0,0,0,0,-0.026342,-0.013495,0.000163,1,0,0,0,0,0,0,0.056929,-0.033897,-0.000912,1,0,0,0,0,0,0
1.560000,-0.001836,0.026550,-0.000036,1,0,0,0,0,0,0,-0.025639,-0.013080,0.000153,1,0,0,0,0,0,0,0.055992,-0.033045,-0.000867,1,0,0,0,0,0,0
1.570000,-0.001434,0.024715,-0.000033,1,0,0,0,0,0,0,-0.024885,-0.012661,0.000143,1,0,0,0,0,0,0,0.055110,-0.032230,-0.000824,1,0,0,0,0,0,0
1.580000,-0.001015,0.022827,-0.000030,1,0,0,0,0,0,0,-0.024069,-0.012231,0.000133,1,0,0,0,0,0,0,0.054283,-0.031451,-0.000785,1,0,0,0,0,0,0
1.590000,-0.000578,0.020897,-0.000027,1,0,0,0,0,0,0,-0.023177,-0.011784,0.000124,1,0,0,0,0,0,0,0.053512,-0.030710,-0.000749,1,0,0,0,0,0,0
1.600000,-0.000127,0.018940,-0.000025,1,0,0,0,0,0,0,-0.022197,-0.011314,0.000114,1,0,0,0,0,0,0,0.052796,-0.030010,-0.000716,1,0,0,0,0,0,0
1.610000,0.000332,0.016969,-0.000024,1,0,0,0,0,0,0,-0.021120,-0.010815,0.000104,1,0,0,0,0,0,0,0.052138,-0.029356,-0.000686,1,0,0,0,0,0,0
1.620000,0.000796,0.014998,-0.000023,1,0,0,0,0,0,0,-0.019948,-0.010286,0.000093,1,0,0,0,0,0,0,0.051543,-0.028757,-0.000660,1,0,0,0,0,0,0
1.630000,0.001262,0.013040,-0.000024,1,0,0,0,0,0,0,-0.018689,-0.009732,0.000083,1,0,0,0,0,0,0,0.051021,-0.028224,-0.000637,1,0,0,0,0,0,0
1.640000,0.001728,0.011102,-0.000025,1,0,0,0,0,0,0,-0.017360,-0.009158,0.000073,1,0,0,0,0,0,0,0.050582,-0.027767,-0.000619,1,0,0,0,0,0,0
1.650000,0.002188,0.009189,-0.000027,1,0,0,0,0,0,0,-0.015984,-0.008574,0.000064,1,0,0,0,0,0,0,0.050235,-0.027396,-0.000605,1,0,0,0,0,0,0
1.660000,0.002634,0.007296,-0.000029,1,0,0,0,0,0,0,-0.014581,-0.007986,0.000055,1,0,0,0,0,0,0,0.049985,-0.027116,-0.000596,1,0,0,0,0,0,0
1.670000,0.003062,0.005426,-0.000032,1,0,0,0,0,0,0,-0.013166,-0.007401,0.000047,1,0,0,0,0,0,0,0.049827,-0.026927,-0.000592,1,0,0,0,0,0,0
1.680000,0.003473,0.003583,-0.000036,1,0,0,0,0,0,0,-0.011750,-0.006823,0.000040,1,0,0,0,0,0,0,0.049748,-0.026821,-0.000591,1,0,0,0,0,0,0
1.690000,0.003870,0.001787,-0.000040,1,0,0,0,0,0,0,-0.010345,-0.006257,0.000034,1,0,0,0,0,0,0,0.049731,-0.026788,-0.000594,1,0,0,0,0,0,0
1.700000,0.004260,0.000055,-0.000044,1,0,0,0,0,0,0,-0.008957,-0.005705,0.000029,1,0,0,0,0,0,0,0.049762,-0.026818,-0.000600,1,0,0,0,0,0,0
1.710000,0.004642,-0.001596,-0.000049,1,0,0,0,0,0,0,-0.007590,-0.005167,0.000024,1,0,0,0,0,0,0,0.049826,-0.026902,-0.000608,1,0,0,0,0,0,0
1.720000,0.005018,-0.003151,-0.000054,1,0,0,0,0,0,0,-0.006245,-0.004640,0.000020,1,0,0,0,0,0,0,0.049912,-0.027031,-0.000619,1,0,0,0,0,0,0
1.730000,0.005387,-0.004590,-0.000058,1,0,0,0,0,0,0,-0.004921,-0.004124,0.000017,1,0,0,0,0,0,0,0.050011,-0.027194,-0.000630,1,0,0,0,0,0,0
1.740000,0.005751,-0.005883,-0.000063,1,0,0,0,0,0,0,-0.003620,-0.003616,0.000014,1,0,0,0,0,0,0,0.050120,-0.027387,-0.000643,1,0,0,0,0,0,0
1.750000,0.006109,-0.006999,-0.000067,1,0,0,0,0,0,0,-0.002347,-0.003121,0.000012,1,0,0,0,0,0,0,0.050240,-0.027603,-0.000657,1,0,0,0,0,0,0
1.760000,0.006459,-0.007910,-0.000070,1,0,0,0,0,0,0,-0.001108,-0.002641,0.000011,1,0,0,0,0,0,0,0.050378,-0.027842,-0.000671,1,0,0,0,0,0,0
1.770000,0.006801,-0.008588,-0.000071,1,0,0,0,0,0,0,0.000096,-0.002179,0.000010,1,0,0,0,0,0,0,0.050541,-0.028102,-0.000687,1,0,0,0,0,0,0
1.780000,0.007132,-0.009013,-0.000072,1,0,0,0,0,0,0,0.001263,-0.001734,0.000010,1,0,0,0,0,0,0,0.050734,-0.028381,-0.000702,1,0,0,0,0,0,0
1.790000,0.007451,-0.009173,-0.000071,1,0,0,0,0,0,0,0.002395,-0.001305,0.000010,1,0,0,0,0,0,0,0.050962,-0.028678,-0.000719,1,0,0,0,0,0,0
1.800000,0.007757,-0.009077,-0.000068,1,0,0,0,0,0,0,0.003488,-0.000895,0.000011,1,0,0,0,0,0,0,0.051222,-0.028989,-0.000736,1,0,0,0,0,0,0
1.810000,0.008047,-0.008749,-0.000063,1,0,0,0,0,0,0,0.004535,-0.000508,0.000011,1,0,0,0,0,0,0,0.051513,-0.029311,-0.000753,1,0,0,0,0,0,0
1.820000,0.008320,-0.008215,-0.000057,1,0,0,0,0,0,0,0.005524,-0.000151,0.000012,1,0,0,0,0,0,0,0.051847,-0.029647,-0.000770,1,0,0,0,0,0,0
1.830000,0.008574,-0.007489,-0.000049,1,0,0,0,0,0,0,0.006442,0.000165,0.000014,1,0,0,0,0,0,0,0.052233,-0.029999,-0.000789,1,0,0,0,0,0,0
1.840000,0.008809,-0.006603,-0.000040,1,0,0,0,0,0,0,0.007273,0.000431,0.000015,1,0,0,0,0,0,0,0.052671,-0.030366,-0.000808,1,0,0,0,0,0,0
1.850000,0.009020,-0.005596,-0.000030,1,0,0,0,0,0,0,0.008008,0.000642,0.000015,1,0,0,0,0,0,0,0.053160,-0.030741,-0.000827,1,0,0,0,0,0,0
1.860000,0.009205,-0.004510,-0.000020,1,0,0,0,0,0,0,0.008641,0.000794,0.000016,1,0,0,0,0,0,0,0.053696,-0.031119,-0.000847,1,0,0,0,0,0,0
1.870000,0.009361,-0.003381,-0.000009,1,0,0,0,0,0,0,0.009169,0.000887,0.000016,1,0,0,0,0,0,0,0.054273,-0.031491,-0.000867,1,0,0,0,0,0,0
1.880000,0.009487,-0.002234,0.000001,1,0,0,0,0,0,0,0.009588,0.000915,0.000016,1,0,0,0,0,0,0,0.054877,-0.031848,-0.000885,1,0,0,0,0,0,0
1.890000,0.009580,-0.001080,0.000012,1,0,0,0,0,0,0,0.009891,0.000873,0.000014,1,0,0,0,0,0,0,0.055492,-0.032180,-0.000903,1,0,0,0,0,0,0
1.900000,0.009643,0.000070,0.000022,1,0,0,0,0,0,0,0.010075,0.000757,0.000013,1,0,0,0,0,0,0,0.056100,-0.032479,-0.000919,1,0,0,0,0,0,0
1.910000,0.009673,0.001205,0.000032,1,0,0,0,0,0,0,0.010138,0.000564,0.000010,1,0,0,0,0,0,0,0.056681,-0.032737,-0.000933,1,0,0,0,0,0,0
1.920000,0.009671,0.002335,0.000041,1,0,0,0,0,0,0,0.010087,0.000299,0.000007,1,0,0,0,0,0,0,0.057218,-0.032950,-0.000945,1,0,0,0,0,0,0
1.930000,0.009636,0.003461,0.000050,1,0,0,0,0,0,0,0.009918,-0.000043,0.000003,1,0,0,0,0,0,0,0.057701,-0.033120,-0.000955,1,0,0,0,0,0,0
1.940000,0.009567,0.004570,0.000059,1,0,0,0,0,0,0,0.009621,-0.000469,-0.000001,1,0,0,0,0,0,0,0.058125,-0.033252,-0.000962,1,0,0,0,0,0,0
1.950000,0.009460,0.005649,0.000067,1,0,0,0,0,0,0,0.009192,-0.000985,-0.000006,1,0,0,0,0,0,0,0.058495,-0.033354,-0.000968,1,0,0,0,0,0,0
1.960000,0.009314,0.006688,0.000075,1,0,0,0,0,0,0,0.008629,-0.001592,-0.000012,1,0,0,0,0,0,0,0.058817,-0.033433,-0.000973,1,0,0,0,0,0,0
1.970000,0.009129,0.007680,0.000081,1,0,0,0,0,0,0,0.007935,-0.002289,-0.000017,1,0,0,0,0,0,0,0.059096,-0.033496,-0.000978,1,0,0,0,0,0,0
1.980000,0.008904,0.008625,0.000087,1,0,0,0,0,0,0,0.007119,-0.003068,-0.000023,1,0,0,0,0,0,0,0.059338,-0.033548,-0.000981,1,0,0,0,0,0,0
1.990000,0.008640,0.009524,0.000092,1,0,0,0,0,0,0,0.006198,-0.003915,-0.000028,1,0,0,0,0,0,0,0.059542,-0.033588,-0.000984,1,0,0,0,0,0,0
2.000000,0.008336,0.010384,0.000097,1,0,0,0,0,0,0,0.005202,-0.004804,-0.000032,1,0,0,0,0,0,0,0.059707,-0.033613,-0.000987,1,0,0,0,0,0,0
2.010000,0.007983,0.011214,0.000100,1,0,0,0,0,0,0,0.004154,-0.005708,-0.000035,1,0,0,0,0,0,0,0.059799,-0.033604,-0.000987,1,0,0,0,0,0,0
2.020000,0.007555,0.012019,0.000103,1,0,0,0,0,0,0,0.003011,-0.006640,-0.000037,1,0,0,0,0,0,0,0.059714,-0.033504,-0.000982,1,0,0,0,0,0,0
2.030000,0.007055,0.012806,0.000106,1,0,0,0,0,0,0,0.001739,-0.007626,-0.000038,1,0,0,0,0,0,0,0.059427,-0.033296,-0.000971,1,0,0,0,0,0,0
2.040000,0.006496,0.013581,0.000107,1,0,0,0,0,0,0,0.000333,-0.008673,-0.000038,1,0,0,0,0,0,0,0.058958,-0.032991,-0.000954,1,0,0,0,0,0,0
2.050000,0.005892,0.014343,0.000108,1,0,0,0,0,0,0,-0.001190,-0.009766,-0.000035,1,0,0,0,0,0,0,0.058342,-0.032609,-0.000933,1,0,0,0,0,0,0
2.060000,0.005255,0.015085,0.000109,1,0,0,0,0,0,0,-0.002793,-0.010871,-0.000031,1,0,0,0,0,0,0,0.057619,-0.032176,-0.000909,1,0,0,0,0,0,0
2.070000,0.004592,0.015806,0.000108,1,0,0,0,0,0,0,-0.004436,-0.011950,-0.000024,1,0,0,0,0,0,0,0.056831,-0.031716,-0.000883,1,0,0,0,0,0,0
2.080000,0.003907,0.016512,0.000107,1,0,0,0,0,0,0,-0.006095,-0.012975,-0.000016,1,0,0,0,0,0,0,0.056016,-0.031254,-0.000858,1,0,0,0,0,0,0
2.090000,0.003200,0.017215,0.000105,1,0,0,0,0,0,0,-0.007753,-0.013929,-0.000006,1,0,0,0,0,0,0,0.055217,-0.030816,-0.000835,1,0,0,0,0,0,0
2.100000,0.002467,0.017933,0.000103,1,0,0,0,0,0,0,-0.009402,-0.014802,0.000004,1,0,0,0,0,0,0,0.054474,-0.030427,-0.000815,1,0,0,0,0,0,0
2.110000,0.001704,0.018674,0.000099,1,0,0,0,0,0,0,-0.011027,-0.015590,0.000016,1,0,0,0,0,0,0,0.053831,-0.030114,-0.000799,1,0,0,0,0,0,0
2.120000,0.000911,0.019435,0.000096,1,0,0,0,0,0,0,-0.012618,-0.016290,0.000028,1,0,0,0,0,0,0,0.053334,-0.029906,-0.000788,1,0,0,0,0,0,0
2.130000,0.000097,0.020201,0.000091,1,0,0,0,0,0,0,-0.014168,-0.016904,0.000041,1,0,0,0,0,0,0,0.053024,-0.029832,-0.000785,1,0,0,0,0,0,0
2.140000,-0.000728,0.020956,0.000085,1,0,0,0,0,0,0,-0.015666,-0.017434,0.000053,1,0,0,0,0,0,0,0.052930,-0.029914,-0.000790,1,0,0,0,0,0,0
2.150000,-0.001557,0.021708,0.000079,1,0,0,0,0,0,0,-0.017106,-0.017881,0.000066,1,0,0,0,0,0,0,0.053069,-0.030165,-0.000803,1,0,0,0,0,0,0
2.160000,-0.002379,0.022468,0.000072,1,0,0,0,0,0,0,-0.018484,-0.018249,0.000077,1,0,0,0,0,0,0,0.053457,-0.030591,-0.000826,1,0,0,0,0,0,0
2.170000,-0.003189,0.023248,0.000064,1,0,0,0,0,0,0,-0.019799,-0.018540,0.000088,1,0,0,0,0,0,0,0.054111,-0.031193,-0.000858,1,0,0,0,0,0,0
2.180000,-0.003988,0.024108,0.000055,1,0,0,0,0,0,0,-0.021048,-0.018757,0.000098,1,0,0,0,0,0,0,0.055052,-0.031970,-0.000900,1,0,0,0,0,0,0
2.190000,-0.004783,0.025123,0.000044,1,0,0,0,0,0,0,-0.022235,-0.018901,0.000107,1,0,0,0,0,0,0,0.056299,-0.032919,-0.000952,1,0,0,0,0,0,0
2.200000,-0.005576,0.026354,0.000032,1,0,0,0,0,0,0,-0.023393,-0.018977,0.000115,1,0,0,0,0,0,0,0.057879,-0.034042,-0.001015,1,0,0,0,0,0,0
2.210000,-0.006370,0.027822,0.000017,1,0,0,0,0,0,0,-0.024554,-0.018981,0.000121,1,0,0,0,0,0,0,0.059827,-0.035353,-0.001090,1,0,0,0,0,0,0
2.220000,-0.007164,0.029521,-0.000001,1,0,0,0,0,0,0,-0.025732,-0.018903,0.000126,1,0,0,0,0,0,0,0.062202,-0.036882,-0.001182,1,0,0,0,0,0,0
2.230000,-0.007954,0.031446,-0.000022,1,0,0,0,0,0,0,-0.026908,-0.018723,0.000128,1,0,0,0,0,0,0,0.065071,-0.038666,-0.001293,1,0,0,0,0,0,0
2.240000,-0.008736,0.033628,-0.000046,1,0,0,0,0,0,0,-0.028061,-0.018434,0.000127,1,0,0,0,0,0,0,0.068464,-0.040723,-0.001429,1,0,0,0,0,0,0
2.250000,-0.009495,0.036116,-0.000075,1,0,0,0,0,0,0,-0.029176,-0.018040,0.000124,1,0,0,0,0,0,0,0.072337,-0.043033,-0.001589,1,0,0,0,0,0,0
2.260000,-0.010210,0.038983,-0.000109,1,0,0,0,0,0,0,-0.030261,-0.017564,0.000118,1,0,0,0,0,0,0,0.076584,-0.045547,-0.001775,1,0,0,0,0,0,0
2.270000,-0.010869,0.042380,-0.000150,1,0,0,0,0,0,0,-0.031344,-0.017040,0.000110,1,0,0,0,0,0,0,0.081073,-0.048211,-0.001983,1,0,0,0,0,0,0
2.280000,-0.011470,0.046564,-0.000202,1,0,0,0,0,0,0,-0.032503,-0.016511,0.000102,1,0,0,0,0,0,0,0.085696,-0.050980,-0.002213,1,0,0,0,0,0,0
2.290000,-0.012023,0.051734,-0.000267,1,0,0,0,0,0,0,-0.033857,-0.016049,0.000097,1,0,0,0,0,0,0,0.090380,-0.053833,-0.002463,1,0,0,0,0,0,0
2.300000,-0.012526,0.057830,-0.000345,1,0,0,0,0,0,0,-0.035522,-0.015742,0.000096,1,0,0,0,0,0,0,0.095092,-0.056763,-0.002734,1,0,0,0,0,0,0
2.310000,-0.012969,0.064648,-0.000434,1,0,0,0,0,0,0,-0.037568,-0.015672,0.000105,1,0,0,0,0,0,0,0.099813,-0.059773,-0.003026,1,0,0,0,0,0,0
2.320000,-0.013338,0.072032,-0.000531,1,0,0,0,0,0,0,-0.040075,-0.015912,0.000125,1,0,0,0,0,0,0,0.104545,-0.062864,-0.003341,1,0,0,0,0,0,0
2.330000,-0.013634,0.079848,-0.000635,1,0,0,0,0,0,0,-0.043171,-0.016538,0.000163,1,0,0,0,0,0,0,0.109296,-0.066022,-0.003677,1,0,0,0,0,0,0
2.340000,-0.013889,0.087938,-0.000742,1,0,0,0,0,0,0,-0.047019,-0.017617,0.000223,1,0,0,0,0,0,0,0.114062,-0.069205,-0.004031,1,0,0,0,0,0,0
2.350000,-0.014157,0.096194,-0.000852,1,0,0,0,0,0,0,-0.051776,-0.019190,0.000312,1,0,0,0,0,0,0,0.118801,-0.072354,-0.004395,1,0,0,0,0,0,0
2.360000,-0.014482,0.104630,-0.000964,1,0,0,0,0,0,0,-0.057464,-0.021235,0.000435,1,0,0,0,0,0,0,0.123437,-0.075412,-0.004763,1,0,0,0,0,0,0
2.370000,-0.014863,0.113336,-0.001081,1,0,0,0,0,0,0,-0.063959,-0.023694,0.000595,1,0,0,0,0,0,0,0.127916,-0.078364,-0.005130,1,0,0,0,0,0,0
2.380000,-0.015222,0.122254,-0.001203,1,0,0,0,0,0,0,-0.071156,-0.026561,0.000798,1,0,0,0,0,0,0,0.132274,-0.081242,-0.005501,1,0,0,0,0,0,0
2.390000,-0.015450,0.131120,-0.001325,1,0,0,0,0,0,0,-0.078915,-0.029839,0.001053,1,0,0,0,0,0,0,0.136610,-0.084084,-0.005880,1,0,0,0,0,0,0
2.400000,-0.015490,0.139592,-0.001440,1,0,0,0,0,0,0,-0.087014,-0.033485,0.001364,1,0,0,0,0,0,0,0.140990,-0.086884,-0.006265,1,0,0,0,0,0,0
2.410000,-0.015374,0.147344,-0.001540,1,0,0,0,0,0,0,-0.095170,-0.037385,0.001726,1,0,0,0,0,0,0,0.145387,-0.089585,-0.006647,1,0,0,0,0,0,0
2.420000,-0.015183,0.154180,-0.001623,1,0,0,0,0,0,0,-0.102959,-0.041300,0.002119,1,0,0,0,0,0,0,0.149726,-0.092121,-0.007018,1,0,0,0,0,0,0
2.430000,-0.014938,0.160190,-0.001689,1,0,0,0,0,0,0,-0.110097,-0.045056,0.002521,1,0,0,0,0,0,0,0.153964,-0.094463,-0.007371,1,0,0,0,0,0,0
2.440000,-0.014561,0.165672,-0.001743,1,0,0,0,0,0,0,-0.116684,-0.048765,0.002942,1,0,0,0,0,0,0,0.158116,-0.096605,-0.007704,1,0,0,0,0,0,0
2.450000,-0.013943,0.170912,-0.001788,1,0,0,0,0,0,0,-0.123044,-0.052759,0.003419,1,0,0,0,0,0,0,0.162195,-0.098538,-0.008014,1,0,0,0,0,0,0
2.460000,-0.013061,0.175929,-0.001823,1,0,0,0,0,0,0,-0.129407,-0.057275,0.003984,1,0,0,0,0,0,0,0.166174,-0.100244,-0.008296,1,0,0,0,0,0,0
2.470000,-0.011986,0.180528,-0.001843,1,0,0,0,0,0,0,-0.135555,-0.062059,0.004608,1,0,0,0,0,0,0,0.170016,-0.101736,-0.008552,1,0,0,0,0,0,0
2.480000,-0.010817,0.184521,-0.001846,1,0,0,0,0,0,0,-0.141172,-0.066753,0.005242,1,0,0,0,0,0,0,0.173704,-0.103064,-0.008789,1,0,0,0,0,0,0
2.490000,-0.009629,0.187869,-0.001833,1,0,0,0,0,0,0,-0.146001,-0.070989,0.005827,1,0,0,0,0,0,0,0.177213,-0.104284,-0.009016,1,0,0,0,0,0,0
2.500000,-0.008449,0.190702,-0.001806,1,0,0,0,0,0,0,-0.149980,-0.074543,0.006323,1,0,0,0,0,0,0,0.180439,-0.105405,-0.009233,1,0,0,0,0,0,0
2.510000,-0.007299,0.193188,-0.001768,1,0,0,0,0,0,0,-0.153277,-0.077504,0.006736,1,0,0,0,0,0,0,0.183208,-0.106385,-0.009431,1,0,0,0,0,0,0
2.520000,-0.006216,0.195414,-0.001721,1,0,0,0,0,0,0,-0.156056,-0.080048,0.007089,1,0,0,0,0,0,0,0.185336,-0.107172,-0.009598,1,0,0,0,0,0,0
2.530000,-0.005240,0.197364,-0.001667,1,0,0,0,0,0,0,-0.158324,-0.082223,0.007386,1,0,0,0,0,0,0,0.186697,-0.107739,-0.009727,1,0,0,0,0,0,0
2.540000,-0.004389,0.198994,-0.001607,1,0,0,0,0,0,0,-0.160055,-0.083974,0.007618,1,0,0,0,0,0,0,0.187246,-0.108096,-0.009817,1,0,0,0,0,0,0
2.550000,-0.003664,0.200327,-0.001543,1,0,0,0,0,0,0,-0.161325,-0.085292,0.007780,1,0,0,0,0,0,0,0.187007,-0.108287,-0.009874,1,0,0,0,0,0,0
2.560000,-0.003081,0.201471,-0.001476,1,0,0,0,0,0,0,-0.162294,-0.086272,0.007887,1,0,0,0,0,0,0,0.186049,-0.108363,-0.009907,1,0,0,0,0,0,0
2.570000,-0.002668,0.202559,-0.001409,1,0,0,0,0,0,0,-0.163047,-0.087025,0.007959,1,0,0,0,0,0,0,0.184459,-0.108361,-0.009922,1,0,0,0,0,0,0
2.580000,-0.002437,0.203670,-0.001343,1,0,0,0,0,0,0,-0.163530,-0.087564,0.007996,1,0,0,0,0,0,0,0.182303,-0.108287,-0.009917,1,0,0,0,0,0,0
2.590000,-0.002380,0.204794,-0.001278,1,0,0,0,0,0,0,-0.163686,-0.087838,0.007992,1,0,0,0,0,0,0,0.179604,-0.108101,-0.009886,1,0,0,0,0,0,0
2.600000,-0.002490,0.205825,-0.001216,1,0,0,0,0,0,0,-0.163626,-0.087867,0.007948,1,0,0,0,0,0,0,0.176362,-0.107734,-0.009815,1,0,0,0,0,0,0
2.610000,-0.002785,0.206585,-0.001158,1,0,0,0,0,0,0,-0.163577,-0.087801,0.007891,1,0,0,0,0,0,0,0.172616,-0.107130,-0.009695,1,0,0,0,0,0,0
2.620000,-0.003291,0.206863,-0.001104,1,0,0,0,0,0,0,-0.163818,-0.087892,0.007863,1,0,0,0,0,0,0,0.168472,-0.106267,-0.009524,1,0,0,0,0,0,0
2.630000,-0.004001,0.206464,-0.001053,1,0,0,0,0,0,0,-0.164412,-0.088294,0.007890,1,0,0,0,0,0,0,0.164077,-0.105151,-0.009307,1,0,0,0,0,0,0
2.640000,-0.004868,0.205306,-0.001006,1,0,0,0,0,0,0,-0.165271,-0.088970,0.007964,1,0,0,0,0,0,0,0.159565,-0.103786,-0.009048,1,0,0,0,0,0,0
2.650000,-0.005829,0.203450,-0.000961,1,0,0,0,0,0,0,-0.166365,-0.089799,0.008067,1,0,0,0,0,0,0,0.155031,-0.102158,-0.008746,1,0,0,0,0,0,0
2.660000,-0.006830,0.201047,-0.000919,1,0,0,0,0,0,0,-0.167705,-0.090650,0.008176,1,0,0,0,0,0,0,0.150535,-0.100229,-0.008402,1,0,0,0,0,0,0
2.670000,-0.007854,0.198255,-0.000880,1,0,0,0,0,0,0,-0.169222,-0.091423,0.008273,1,0,0,0,0,0,0,0.146096,-0.097957,-0.008011,1,0,0,0,0,0,0
2.680000,-0.008872,0.195095,-0.000843,1,0,0,0,0,0,0,-0.170703,-0.092038,0.008347,1,0,0,0,0,0,0,0.141691,-0.095302,-0.007575,1,0,0,0,0,0,0
2.690000,-0.009839,0.191432,-0.000805,1,0,0,0,0,0,0,-0.171992,-0.092465,0.008392,1,0,0,0,0,0,0,0.137275,-0.092260,-0.007097,1,0,0,0,0,0,0
2.700000,-0.010712,0.187095,-0.000764,1,0,0,0,0,0,0,-0.172927,-0.092658,0.008399,1,0,0,0,0,0,0,0.132829,-0.088871,-0.006587,1,0,0,0,0,0,0
2.710000,-0.011479,0.182025,-0.000718,1,0,0,0,0,0,0,-0.173373,-0.092555,0.008357,1,0,0,0,0,0,0,0.128383,-0.085224,-0.006064,1,0,0,0,0,0,0
2.720000,-0.012178,0.176352,-0.000667,1,0,0,0,0,0,0,-0.173204,-0.092100,0.008257,1,0,0,0,0,0,0,0.123978,-0.081417,-0.005541,1,0,0,0,0,0,0
2.730000,-0.012868,0.170341,-0.000613,1,0,0,0,0,0,0,-0.172368,-0.091279,0.008096,1,0,0,0,0,0,0,0.119607,-0.077528,-0.005031,1,0,0,0,0,0,0
2.740000,-0.013587,0.164286,-0.000558,1,0,0,0,0,0,0,-0.170846,-0.090110,0.007878,1,0,0,0,0,0,0,0.115211,-0.073603,-0.004539,1,0,0,0,0,0,0
2.750000,-0.014331,0.158390,-0.000506,1,0,0,0,0,0,0,-0.168651,-0.088614,0.007610,1,0,0,0,0,0,0,0.110714,-0.069678,-0.004071,1,0,0,0,0,0,0
2.760000,-0.015058,0.152690,-0.000458,1,0,0,0,0,0,0,-0.165848,-0.086816,0.007296,1,0,0,0,0,0,0,0.106072,-0.065797,-0.003632,1,0,0,0,0,0,0
2.770000,-0.015736,0.147092,-0.000410,1,0,0,0,0,0,0,-0.162569,-0.084752,0.006947,1,0,0,0,0,0,0,0.101275,-0.062003,-0.003225,1,0,0,0,0,0,0
2.780000,-0.016371,0.141488,-0.000363,1,0,0,0,0,0,0,-0.159003,-0.082483,0.006574,1,0,0,0,0,0,0,0.096330,-0.058331,-0.002852,1,0,0,0,0,0,0
2.790000,-0.017008,0.135825,-0.000314,1,0,0,0,0,0,0,-0.155283,-0.080059,0.006187,1,0,0,0,0,0,0,0.091240,-0.054810,-0.002515,1,0,0,0,0,0,0
2.800000,-0.017710,0.130121,-0.000263,1,0,0,0,0,0,0,-0.151397,-0.077467,0.005786,1,0,0,0,0,0,0,0.086017,-0.051477,-0.002216,1,0,0,0,0,0,0
2.810000,-0.018517,0.124457,-0.000212,1,0,0,0,0,0,0,-0.147251,-0.074643,0.005364,1,0,0,0,0,0,0,0.080714,-0.048394,-0.001956,1,0,0,0,0,0,0
2.820000,-0.019429,0.118939,-0.000162,1,0,0,0,0,0,0,-0.142734,-0.071488,0.004909,1,0,0,0,0,0,0,0.075437,-0.045643,-0.001740,1,0,0,0,0,0,0
2.830000,-0.020403,0.113654,-0.000115,1,0,0,0,0,0,0,-0.137792,-0.067922,0.004414,1,0,0,0,0,0,0,0.070316,-0.043292,-0.001566,1,0,0,0,0,0,0
2.840000,-0.021379,0.108649,-0.000071,1,0,0,0,0,0,0,-0.132453,-0.063961,0.003888,1,0,0,0,0,0,0,0.065460,-0.041366,-0.001433,1,0,0,0,0,0,0
2.850000,-0.022315,0.103959,-0.000032,1,0,0,0,0,0,0,-0.126846,-0.059722,0.003353,1,0,0,0,0,0,0,0.060920,-0.039833,-0.001331,1,0,0,0,0,0,0
2.860000,-0.023188,0.099572,0.000002,1,0,0,0,0,0,0,-0.121139,-0.055395,0.002836,1,0,0,0,0,0,0,0.056705,-0.038637,-0.001254,1,0,0,0,0,0,0
2.870000,-0.024003,0.095453,0.000031,1,0,0,0,0,0,0,-0.115480,-0.051177,0.002361,1,0,0,0,0,0,0,0.052830,-0.037739,-0.001197,1,0,0,0,0,0,0
2.880000,-0.024775,0.091578,0.000056,1,0,0,0,0,0,0,-0.109964,-0.047215,0.001945,1,0,0,0,0,0,0,0.049330,-0.037120,-0.001154,1,0,0,0,0,0,0
2.890000,-0.025517,0.087957,0.000076,1,0,0,0,0,0,0,-0.104621,-0.043571,0.001588,1,0,0,0,0,0,0,0.046257,-0.036764,-0.001124,1,0,0,0,0,0,0
2.900000,-0.026225,0.084630,0.000091,1,0,0,0,0,0,0,-0.099441,-0.040239,0.001286,1,0,0,0,0,0,0,0.043668,-0.036653,-0.001103,1,0,0,0,0,0,0
2.910000,-0.026868,0.081633,0.000098,1,0,0,0,0,0,0,-0.094433,-0.037197,0.001031,1,0,0,0,0,0,0,0.041615,-0.036766,-0.001091,1,0,0,0,0,0,0
2.920000,-0.027413,0.078972,0.000099,1,0,0,0,0,0,0,-0.089687,-0.034487,0.000823,1,0,0,0,0,0,0,0.040137,-0.037069,-0.001085,1,0,0,0,0,0,0
2.930000,-0.027838,0.076601,0.000093,1,0,0,0,0,0,0,-0.085220,-0.032097,0.000656,1,0,0,0,0,0,0,0.039255,-0.037521,-0.001083,1,0,0,0,0,0,0
2.940000,-0.028145,0.074442,0.000084,1,0,0,0,0,0,0,-0.081029,-0.030018,0.000525,1,0,0,0,0,0,0,0.038976,-0.038080,-0.001084,1,0,0,0,0,0,0
2.950000,-0.028354,0.072406,0.000073,1,0,0,0,0,0,0,-0.077172,-0.028297,0.000430,1,0,0,0,0,0,0,0.039284,-0.038694,-0.001088,1,0,0,0,0,0,0
2.960000,-0.028480,0.070392,0.000063,1,0,0,0,0,0,0,-0.073756,-0.027020,0.000374,1,0,0,0,0,0,0,0.040135,-0.039310,-0.001093,1,0,0,0,0,0,0
2.970000,-0.028512,0.068336,0.000057,1,0,0,0,0,0,0,-0.070861,-0.026245,0.000356,1,0,0,0,0,0,0,0.041463,-0.039881,-0.001097,1,0,0,0,0,0,0
2.980000,-0.028416,0.066268,0.000053,1,0,0,0,0,0,0,-0.068481,-0.025943,0.000370,1,0,0,0,0,0,0,0.043191,-0.040375,-0.001101,1,0,0,0,0,0,0
2.990000,-0.028150,0.064297,0.000048,1,0,0,0,0,0,0,-0.066588,-0.026051,0.000410,1,0,0,0,0,0,0,0.045248,-0.040787,-0.001104,1,0,0,0,0,0,0
3.000000,-0.027685,0.062552,0.000038,1,0,0,0,0,0,0,-0.065139,-0.026474,0.000467,1,0,0,0,0,0,0,0.047583,-0.041137,-0.001108,1,0,0,0,0,0,0
3.010000,-0.027020,0.061103,0.000022,1,0,0,0,0,0,0,-0.064104,-0.027121,0.000535,1,0,0,0,0,0,0,0.050163,-0.041461,-0.001115,1,0,0,0,0,0,0
3.020000,-0.026173,0.059946,0.000001,1,0,0,0,0,0,0,-0.063466,-0.027916,0.000608,1,0,0,0,0,0,0,0.052954,-0.041798,-0.001126,1,0,0,0,0,0,0
3.030000,-0.025171,0.059034,-0.000025,1,0,0,0,0,0,0,-0.063188,-0.028798,0.000682,1,0,0,0,0,0,0,0.055900,-0.042174,-0.001144,1,0,0,0,0,0,0
3.040000,-0.024042,0.058311,-0.000052,1,0,0,0,0,0,0,-0.063234,-0.029726,0.000756,1,0,0,0,0,0,0,0.058917,-0.042599,-0.001169,1,0,0,0,0,0,0
3.050000,-0.022816,0.057750,-0.000080,1,0,0,0,0,0,0,-0.063611,-0.030686,0.000830,1,0,0,0,0,0,0,0.061905,-0.043071,-0.001201,1,0,0,0,0,0,0
3.060000,-0.021531,0.057392,-0.000109,1,0,0,0,0,0,0,-0.064212,-0.031615,0.000900,1,0,0,0,0,0,0,0.064767,-0.043592,-0.001240,1,0,0,0,0,0,0
3.070000,-0.020240,0.057316,-0.000140,1,0,0,0,0,0,0,-0.064923,-0.032439,0.000961,1,0,0,0,0,0,0,0.067420,-0.044171,-0.001287,1,0,0,0,0,0,0
3.080000,-0.019004,0.057593,-0.000174,1,0,0,0,0,0,0,-0.065663,-0.033104,0.001011,1,0,0,0,0,0,0,0.069807,-0.044829,-0.001344,1,0,0,0,0,0,0
3.090000,-0.017879,0.058323,-0.000212,1,0,0,0,0,0,0,-0.066368,-0.033591,0.001048,1,0,0,0,0,0,0,0.071899,-0.045599,-0.001411,1,0,0,0,0,0,0
3.100000,-0.016909,0.059624,-0.000255,1,0,0,0,0,0,0,-0.067027,-0.033933,0.001076,1,0,0,0,0,0,0,0.073708,-0.046518,-0.001491,1,0,0,0,0,0,0
3.110000,-0.016113,0.061547,-0.000304,1,0,0,0,0,0,0,-0.067676,-0.034185,0.001097,1,0,0,0,0,0,0,0.075285,-0.047628,-0.001587,1,0,0,0,0,0,0
3.120000,-0.015488,0.064035,-0.000357,1,0,0,0,0,0,0,-0.068366,-0.034393,0.001115,1,0,0,0,0,0,0,0.076706,-0.048963,-0.001702,1,0,0,0,0,0,0
3.130000,-0.015041,0.066992,-0.000412,1,0,0,0,0,0,0,-0.069158,-0.034560,0.001130,1,0,0,0,0,0,0,0.078046,-0.050538,-0.001835,1,0,0,0,0,0,0
3.140000,-0.014806,0.070317,-0.000469,1,0,0,0,0,0,0,-0.070121,-0.034653,0.001140,1,0,0,0,0,0,0,0.079358,-0.052341,-0.001987,1,0,0,0,0,0,0
3.150000,-0.014825,0.073879,-0.000527,1,0,0,0,0,0,0,-0.071322,-0.034637,0.001144,1,0,0,0,0,0,0,0.080675,-0.054337,-0.002154,1,0,0,0,0,0,0
3.160000,-0.015101,0.077529,-0.000584,1,0,0,0,0,0,0,-0.072788,-0.034507,0.001139,1,0,0,0,0,0,0,0.082021,-0.056481,-0.002333,1,0,0,0,0,0,0
3.170000,-0.015615,0.081236,-0.000642,1,0,0,0,0,0,0,-0.074523,-0.034289,0.001130,1,0,0,0,0,0,0,0.083418,-0.058726,-0.002520,1,0,0,0,0,0,0
3.180000,-0.016369,0.085149,-0.000705,1,0,0,0,0,0,0,-0.076495,-0.034016,0.001117,1,0,0,0,0,0,0,0.084880,-0.061024,-0.002711,1,0,0,0,0,0,0
3.190000,-0.017365,0.089458,-0.000777,1,0,0,0,0,0,0,-0.078606,-0.033695,0.001102,1,0,0,0,0,0,0,0.086399,-0.063324,-0.002904,1,0,0,0,0,0,0
3.200000,-0.018548,0.094156,-0.000862,1,0,0,0,0,0,0,-0.080772,-0.033304,0.001083,1,0,0,0,0,0,0,0.087974,-0.065584,-0.003093,1,0,0,0,0,0,0
3.210000,-0.019849,0.099077,-0.000957,1,0,0,0,0,0,0,-0.082944,-0.032824,0.001059,1,0,0,0,0,0,0,0.089632,-0.067777,-0.003278,1,0,0,0,0,0,0
3.220000,-0.021235,0.104059,-0.001061,1,0,0,0,0,0,0,-0.085106,-0.032282,0.001030,1,0,0,0,0,0,0,0.091442,-0.069881,-0.003456,1,0,0,0,0,0,0
3.230000,-0.022686,0.108972,-0.001171,1,0,0,0,0,0,0,-0.087326,-0.031782,0.001006,1,0,0,0,0,0,0,0.093459,-0.071860,-0.003625,1,0,0,0,0,0,0
3.240000,-0.024187,0.113724,-0.001286,1,0,0,0,0,0,0,-0.089754,-0.031504,0.001003,1,0,0,0,0,0,0,0.095670,-0.073644,-0.003779,1,0,0,0,0,0,0
3.250000,-0.025735,0.118306,-0.001406,1,0,0,0,0,0,0,-0.092636,-0.031689,0.001044,1,0,0,0,0,0,0,0.097982,-0.075151,-0.003911,1,0,0,0,0,0,0
3.260000,-0.027332,0.122762,-0.001531,1,0,0,0,0,0,0,-0.096033,-0.032458,0.001142,1,0,0,0,0,0,0,0.100279,-0.076325,-0.004013,1,0,0,0,0,0,0
3.270000,-0.028946,0.127102,-0.001662,1,0,0,0,0,0,0,-0.099814,-0.033738,0.001292,1,0,0,0,0,0,0,0.102475,-0.077155,-0.004086,1,0,0,0,0,0,0
3.280000,-0.030497,0.131253,-0.001796,1,0,0,0,0,0,0,-0.103866,-0.035404,0.001487,1,0,0,0,0,0,0,0.104543,-0.077680,-0.004132,1,0,0,0,0,0,0
3.290000,-0.031879,0.135088,-0.001928,1,0,0,0,0,0,0,-0.108102,-0.037334,0.001714,1,0,0,0,0,0,0,0.106492,-0.077956,-0.004155,1,0,0,0,0,0,0
3.300000,-0.033011,0.138494,-0.002053,1,0,0,0,0,0,0,-0.112428,-0.039429,0.001966,1,0,0,0,0,0,0,0.108316,-0.078031,-0.004161,1,0,0,0,0,0,0
3.310000,-0.033862,0.141424,-0.002165,1,0,0,0,0,0,0,-0.116783,-0.041643,0.002237,1,0,0,0,0,0,0,0.109980,-0.077936,-0.004153,1,0,0,0,0,0,0
3.320000,-0.034441,0.143921,-0.002265,1,0,0,0,0,0,0,-0.121158,-0.043986,0.002531,1,0,0,0,0,0,0,0.111439,-0.077697,-0.004133,1,0,0,0,0,0,0
3.330000,-0.034754,0.146092,-0.002354,1,0,0,0,0,0,0,-0.125574,-0.046476,0.002849,1,0,0,0,0,0,0,0.112655,-0.077344,-0.004103,1,0,0,0,0,0,0
3.340000,-0.034771,0.148068,-0.002436,1,0,0,0,0,0,0,-0.130005,-0.049085,0.003191,1,0,0,0,0,0,0,0.113598,-0.076907,-0.004067,1,0,0,0,0,0,0
3.350000,-0.034433,0.149949,-0.002511,1,0,0,0,0,0,0,-0.134427,-0.051772,0.003551,1,0,0,0,0,0,0,0.114237,-0.076412,-0.004027,1,0,0,0,0,0,0
3.360000,-0.033709,0.151756,-0.002580,1,0,0,0,0,0,0,-0.138760,-0.054463,0.003919,1,0,0,0,0,0,0,0.114545,-0.075887,-0.003986,1,0,0,0,0,0,0
3.370000,-0.032634,0.153435,-0.002638,1,0,0,0,0,0,0,-0.142888,-0.057066,0.004282,1,0,0,0,0,0,0,0.114529,-0.075376,-0.003948,1,0,0,0,0,0,0
3.380000,-0.031309,0.154914,-0.002681,1,0,0,0,0,0,0,-0.146693,-0.059479,0.004624,1,0,0,0,0,0,0,0.114256,-0.074947,-0.003920,1,0,0,0,0,0,0
3.390000,-0.029854,0.156159,-0.002708,1,0,0,0,0,0,0,-0.149997,-0.061573,0.004924,1,0,0,0,0,0,0,0.113843,-0.074680,-0.003912,1,0,0,0,0,0,0
3.400000,-0.028367,0.157171,-0.002719,1,0,0,0,0,0,0,-0.152644,-0.063256,0.005165,1,0,0,0,0,0,0,0.113413,-0.074641,-0.003928,1,0,0,0,0,0,0
3.410000,-0.026885,0.158025,-0.002718,1,0,0,0,0,0,0,-0.154589,-0.064533,0.005344,1,0,0,0,0,0,0,0.113046,-0.074849,-0.003972,1,0,0,0,0,0,0
3.420000,-0.025423,0.158833,-0.002707,1,0,0,0,0,0,0,-0.155869,-0.065499,0.005476,1,0,0,0,0,0,0,0.112768,-0.075286,-0.004038,1,0,0,0,0,0,0
3.430000,-0.024005,0.159673,-0.002690,1,0,0,0,0,0,0,-0.156541,-0.066279,0.005578,1,0,0,0,0,0,0,0.112580,-0.075909,-0.004123,1,0,0,0,0,0,0
3.440000,-0.022688,0.160536,-0.002667,1,0,0,0,0,0,0,-0.156616,-0.066936,0.005660,1,0,0,0,0,0,0,0.112478,-0.076671,-0.004221,1,0,0,0,0,0,0
3.450000,-0.021532,0.161316,-0.002637,1,0,0,0,0,0,0,-0.156077,-0.067443,0.005716,1,0,0,0,0,0,0,0.112462,-0.077522,-0.004325,1,0,0,0,0,0,0
3.460000,-0.020573,0.161854,-0.002596,1,0,0,0,0,0,0,-0.154944,-0.067734,0.005736,1,0,0,0,0,0,0,0.112525,-0.078407,-0.004430,1,0,0,0,0,0,0
3.470000,-0.019815,0.162019,-0.002545,1,0,0,0,0,0,0,-0.153344,-0.067785,0.005716,1,0,0,0,0,0,0,0.112653,-0.079271,-0.004529,1,0,0,0,0,0,0
3.480000,-0.019244,0.161749,-0.002484,1,0,0,0,0,0,0,-0.151487,-0.067650,0.005666,1,0,0,0,0,0,0,0.112838,-0.080064,-0.004617,1,0,0,0,0,0,0
3.490000,-0.018852,0.161094,-0.002416,1,0,0,0,0,0,0,-0.149576,-0.067426,0.005601,1,0,0,0,0,0,0,0.113088,-0.080756,-0.004691,1,0,0,0,0,0,0
3.500000,-0.018643,0.160168,-0.002344,1,0,0,0,0,0,0,-0.147700,-0.067169,0.005530,1,0,0,0,0,0,0,0.113422,-0.081325,-0.004750,1,0,0,0,0,0,0
3.510000,-0.018622,0.159096,-0.002271,1,0,0,0,0,0,0,-0.145795,-0.066842,0.005448,1,0,0,0,0,0,0,0.113839,-0.081741,-0.004791,1,0,0,0,0,0,0
3.520000,-0.018777,0.157956,-0.002201,1,0,0,0,0,0,0,-0.143743,-0.066357,0.005344,1,0,0,0,0,0,0,0.114293,-0.081962,-0.004809,1,0,0,0,0,0,0
3.530000,-0.019075,0.156749,-0.002132,1,0,0,0,0,0,0,-0.141518,-0.065671,0.005211,1,0,0,0,0,0,0,0.114709,-0.081936,-0.004798,1,0,0,0,0,0,0
3.540000,-0.019469,0.155409,-0.002066,1,0,0,0,0,0,0,-0.139153,-0.064817,0.005057,1,0,0,0,0,0,0,0.114996,-0.081624,-0.004756,1,0,0,0,0,0,0
3.550000,-0.019924,0.153843,-0.001999,1,0,0,0,0,0,0,-0.136744,-0.063907,0.004897,1,0,0,0,0,0,0,0.115081,-0.081014,-0.004681,1,0,0,0,0,0,0
3.560000,-0.020415,0.151967,-0.001930,1,0,0,0,0,0,0,-0.134388,-0.063080,0.004752,1,0,0,0,0,0,0,0.114916,-0.080124,-0.004576,1,0,0,0,0,0,0
3.570000,-0.020930,0.149736,-0.001858,1,0,0,0,0,0,0,-0.132107,-0.062418,0.004632,1,0,0,0,0,0,0,0.114500,-0.079000,-0.004447,1,0,0,0,0,0,0
3.580000,-0.021450,0.147162,-0.001783,1,0,0,0,0,0,0,-0.129952,-0.061957,0.004540,1,0,0,0,0,0,0,0.113872,-0.077696,-0.004301,1,0,0,0,0,0,0
3.590000,-0.021945,0.144317,-0.001705,1,0,0,0,0,0,0,-0.128006,-0.061698,0.004476,1,0,0,0,0,0,0,0.113081,-0.076259,-0.004143,1,0,0,0,0,0,0
3.600000,-0.022363,0.141311,-0.001628,1,0,0,0,0,0,0,-0.126330,-0.061613,0.004434,1,0,0,0,0,0,0,0.112146,-0.074709,-0.003976,1,0,0,0,0,0,0
3.610000,-0.022638,0.138267,-0.001554,1,0,0,0,0,0,0,-0.124969,-0.061695,0.004412,1,0,0,0,0,0,0,0.111038,-0.073046,-0.003801,1,0,0,0,0,0,0
3.620000,-0.022698,0.135247,-0.001483,1,0,0,0,0,0,0,-0.123917,-0.061938,0.004410,1,0,0,0,0,0,0,0.109707,-0.071271,-0.003618,1,0,0,0,0,0,0
3.630000,-0.022486,0.132244,-0.001416,1,0,0,0,0,0,0,-0.123083,-0.062288,0.004420,1,0,0,0,0,0,0,0.108130,-0.069418,-0.003431,1,0,0,0,0,0,0
3.640000,-0.021980,0.129220,-0.001351,1,0,0,0,0,0,0,-0.122320,-0.062629,0.004428,1,0,0,0,0,0,0,0.106361,-0.067558,-0.003249,1,0,0,0,0,0,0
3.650000,-0.021199,0.126189,-0.001289,1,0,0,0,0,0,0,-0.121508,-0.062829,0.004417,1,0,0,0,0,0,0,0.104521,-0.065780,-0.003080,1,0,0,0,0,0,0
3.660000,-0.020197,0.123223,-0.001230,1,0,0,0,0,0,0,-0.120596,-0.062794,0.004377,1,0,0,0,0,0,0,0.102747,-0.064165,-0.002933,1,0,0,0,0,0,0
3.670000,-0.019027,0.120476,-0.001177,1,0,0,0,0,0,0,-0.119593,-0.062495,0.004306,1,0,0,0,0,0,0,0.101145,-0.062761,-0.002811,1,0,0,0,0,0,0
3.680000,-0.017724,0.118103,-0.001133,1,0,0,0,0,0,0,-0.118512,-0.061960,0.004207,1,0,0,0,0,0,0,0.099766,-0.061586,-0.002714,1,0,0,0,0,0,0
3.690000,-0.016315,0.116164,-0.001096,1,0,0,0,0,0,0,-0.117381,-0.061250,0.004090,1,0,0,0,0,0,0,0.098628,-0.060637,-0.002641,1,0,0,0,0,0,0
3.700000,-0.014838,0.114591,-0.001064,1,0,0,0,0,0,0,-0.116277,-0.060432,0.003963,1,0,0,0,0,0,0,0.097733,-0.059900,-0.002590,1,0,0,0,0,0,0
3.710000,-0.013349,0.113249,-0.001034,1,0,0,0,0,0,0,-0.115201,-0.059536,0.003831,1,0,0,0,0,0,0,0.097062,-0.059345,-0.002556,1,0,0,0,0,0,0
3.720000,-0.011935,0.112044,-0.001004,1,0,0,0,0,0,0,-0.114057,-0.058528,0.003689,1,0,0,0,0,0,0,0.096574,-0.058932,-0.002536,1,0,0,0,0,0,0
3.730000,-0.010686,0.110923,-0.000973,1,0,0,0,0,0,0,-0.112749,-0.057346,0.003532,1,0,0,0,0,0,0,0.096213,-0.058623,-0.002525,1,0,0,0,0,0,0
3.740000,-0.009676,0.109921,-0.000941,1,0,0,0,0,0,0,-0.111193,-0.055925,0.003353,1,0,0,0,0,0,0,0.095947,-0.058399,-0.002522,1,0,0,0,0,0,0
3.750000,-0.008950,0.109141,-0.000911,1,0,0,0,0,0,0,-0.109274,-0.054220,0.003147,1,0,0,0,0,0,0,0.095777,-0.058254,-0.002525,1,0,0,0,0,0,0
3.760000,-0.008521,0.108645,-0.000882,1,0,0,0,0,0,0,-0.106926,-0.052250,0.002920,1,0,0,0,0,0,0,0.095736,-0.058192,-0.002536,1,0,0,0,0,0,0
3.770000,-0.008359,0.108384,-0.000855,1,0,0,0,0,0,0,-0.104195,-0.050105,0.002683,1,0,0,0,0,0,0,0.095852,-0.058209,-0.002553,1,0,0,0,0,0,0
3.780000,-0.008424,0.108231,-0.000829,1,0,0,0,0,0,0,-0.101210,-0.047925,0.002452,1,0,0,0,0,0,0,0.096112,-0.058282,-0.002575,1,0,0,0,0,0,0
3.790000,-0.008676,0.108034,-0.000804,1,0,0,0,0,0,0,-0.098129,-0.045864,0.002242,1,0,0,0,0,0,0,0.096470,-0.058379,-0.002599,1,0,0,0,0,0,0
3.800000,-0.009090,0.107677,-0.000780,1,0,0,0,0,0,0,-0.095063,-0.044023,0.002063,1,0,0,0,0,0,0,0.096877,-0.058476,-0.002622,1,0,0,0,0,0,0
3.810000,-0.009663,0.107125,-0.000756,1,0,0,0,0,0,0,-0.092054,-0.042417,0.001913,1,0,0,0,0,0,0,0.097302,-0.058565,-0.002644,1,0,0,0,0,0,0
3.820000,-0.010387,0.106417,-0.000733,1,0,0,0,0,0,0,-0.089120,-0.041004,0.001786,1,0,0,0,0,0,0,0.097733,-0.058654,-0.002665,1,0,0,0,0,0,0
3.830000,-0.011227,0.105633,-0.000712,1,0,0,0,0,0,0,-0.086300,-0.039730,0.001676,1,0,0,0,0,0,0,0.098150,-0.058753,-0.002687,1,0,0,0,0,0,0
3.840000,-0.012112,0.104872,-0.000694,1,0,0,0,0,0,0,-0.083657,-0.038564,0.001579,1,0,0,0,0,0,0,0.098538,-0.058875,-0.002711,1,0,0,0,0,0,0
3.850000,-0.012948,0.104216,-0.000681,1,0,0,0,0,0,0,-0.081275,-0.037531,0.001495,1,0,0,0,0,0,0,0.098906,-0.059046,-0.002740,1,0,0,0,0,0,0
3.860000,-0.013648,0.103669,-0.000671,1,0,0,0,0,0,0,-0.079203,-0.036683,0.001429,1,0,0,0,0,0,0,0.099309,-0.059299,-0.002777,1,0,0,0,0,0,0
3.870000,-0.014174,0.103177,-0.000665,1,0,0,0,0,0,0,-0.077428,-0.036060,0.001381,1,0,0,0,0,0,0,0.099813,-0.059653,-0.002823,1,0,0,0,0,0,0
3.880000,-0.014525,0.102642,-0.000660,1,0,0,0,0,0,0,-0.075885,-0.035667,0.001352,1,0,0,0,0,0,0,0.100449,-0.060100,-0.002878,1,0,0,0,0,0,0
3.890000,-0.014698,0.101946,-0.000654,1,0,0,0,0,0,0,-0.074535,-0.035511,0.001341,1,0,0,0,0,0,0,0.101190,-0.060599,-0.002937,1,0,0,0,0,0,0
3.900000,-0.014661,0.101031,-0.000646,1,0,0,0,0,0,0,-0.073336,-0.035582,0.001346,1,0,0,0,0,0,0,0.101988,-0.061109,-0.002998,1,0,0,0,0,0,0
3.910000,-0.014356,0.099929,-0.000635,1,0,0,0,0,0,0,-0.072275,-0.035883,0.001366,1,0,0,0,0,0,0,0.102824,-0.061619,-0.003058,1,0,0,0,0,0,0
3.920000,-0.013735,0.098766,-0.000624,1,0,0,0,0,0,0,-0.071369,-0.036438,0.001402,1,0,0,0,0,0,0,0.103733,-0.062153,-0.003121,1,0,0,0,0,0,0
3.930000,-0.012780,0.097717,-0.000613,1,0,0,0,0,0,0,-0.070634,-0.037254,0.001455,1,0,0,0,0,0,0,0.104792,-0.062753,-0.003190,1,0,0,0,0,0,0
3.940000,-0.011509,0.096930,-0.000605,1,0,0,0,0,0,0,-0.070095,-0.038311,0.001523,1,0,0,0,0,0,0,0.106076,-0.063452,-0.003271,1,0,0,0,0,0,0
3.950000,-0.009952,0.096461,-0.000599,1,0,0,0,0,0,0,-0.069780,-0.039556,0.001600,1,0,0,0,0,0,0,0.107629,-0.064258,-0.003363,1,0,0,0,0,0,0
3.960000,-0.008127,0.096293,-0.000592,1,0,0,0,0,0,0,-0.069750,-0.040948,0.001686,1,0,0,0,0,0,0,0.109438,-0.065147,-0.003466,1,0,0,0,0,0,0
3.970000,-0.006043,0.096385,-0.000583,1,0,0,0,0,0,0,-0.070045,-0.042444,0.001776,1,0,0,0,0,0,0,0.111445,-0.066076,-0.003576,1,0,0,0,0,0,0
3.980000,-0.003741,0.096719,-0.000570,1,0,0,0,0,0,0,-0.070652,-0.043991,0.001869,1,0,0,0,0,0,0,0.113556,-0.067001,-0.003687,1,0,0,0,0,0,0
3.990000,-0.001316,0.097315,-0.000551,1,0,0,0,0,0,0,-0.071491,-0.045508,0.001959,1,0,0,0,0,0,0,0.115660,-0.067885,-0.003796,1,0,0,0,0,0,0
4.000000,0.001098,0.098221,-0.000525,1,0,0,0,0,0,0,-0.072456,-0.046899,0.002040,1,0,0,0,0,0,0,0.117664,-0.068705,-0.003900,1,0,0,0,0,0,0
4.010000,0.003360,0.099546,-0.000490,1,0,0,0,0,0,0,-0.073508,-0.048102,0.002108,1,0,0,0,0,0,0,0.119612,-0.069511,-0.004005,1,0,0,0,0,0,0
4.020000,0.005377,0.101493,-0.000445,1,0,0,0,0,0,0,-0.074767,-0.049166,0.002167,1,0,0,0,0,0,0,0.121772,-0.070470,-0.004131,1,0,0,0,0,0,0
4.030000,0.007113,0.104023,-0.000388,1,0,0,0,0,0,0,-0.076257,-0.050115,0.002219,1,0,0,0,0,0,0,0.124187,-0.071613,-0.004282,1,0,0,0,0,0,0
4.040000,0.008558,0.107028,-0.000320,1,0,0,0,0,0,0,-0.077987,-0.050981,0.002267,1,0,0,0,0,0,0,0.126796,-0.072905,-0.004455,1,0,0,0,0,0,0
4.050000,0.009698,0.110391,-0.000244,1,0,0,0,0,0,0,-0.079953,-0.051807,0.002315,1,0,0,0,0,0,0,0.129517,-0.074302,-0.004646,1,0,0,0,0,0,0
4.060000,0.010500,0.113979,-0.000161,1,0,0,0,0,0,0,-0.082114,-0.052617,0.002365,1,0,0,0,0,0,0,0.132276,-0.075765,-0.004850,1,0,0,0,0,0,0
4.070000,0.010919,0.117665,-0.000075,1,0,0,0,0,0,0,-0.084392,-0.053404,0.002418,1,0,0,0,0,0,0,0.135007,-0.077264,-0.005062,1,0,0,0,0,0,0
4.080000,0.010934,0.121337,0.000009,1,0,0,0,0,0,0,-0.086716,-0.054136,0.002470,1,0,0,0,0,0,0,0.137641,-0.078775,-0.005280,1,0,0,0,0,0,0
4.090000,0.010552,0.124935,0.000089,1,0,0,0,0,0,0,-0.089038,-0.054780,0.002518,1,0,0,0,0,0,0,0.140101,-0.080267,-0.005498,1,0,0,0,0,0,0
4.100000,0.009790,0.128462,0.000162,1,0,0,0,0,0,0,-0.091313,-0.055318,0.002560,1,0,0,0,0,0,0,0.142310,-0.081717,-0.005714,1,0,0,0,0,0,0
4.110000,0.008693,0.131920,0.000225,1,0,0,0,0,0,0,-0.093476,-0.055747,0.002597,1,0,0,0,0,0,0,0.144228,-0.083108,-0.005922,1,0,0,0,0,0,0
4.120000,0.007334,0.135270,0.000277,1,0,0,0,0,0,0,-0.095456,-0.056076,0.002627,1,0,0,0,0,0,0,0.145858,-0.084438,-0.006123,1,0,0,0,0,0,0
4.130000,0.005796,0.138408,0.000315,1,0,0,0,0,0,0,-0.097202,-0.056313,0.002652,1,0,0,0,0,0,0,0.147241,-0.085704,-0.006315,1,0,0,0,0,0,0
4.140000,0.004152,0.141207,0.000339,1,0,0,0,0,0,0,-0.098688,-0.056462,0.002671,1,0,0,0,0,0,0,0.148409,-0.086888,-0.006493,1,0,0,0,0,0,0
4.150000,0.002466,0.143556,0.000348,1,0,0,0,0,0,0,-0.099902,-0.056521,0.002683,1,0,0,0,0,0,0,0.149358,-0.087949,-0.006652,1,0,0,0,0,0,0
4.160000,0.000774,0.145414,0.000345,1,0,0,0,0,0,0,-0.100842,-0.056485,0.002687,1,0,0,0,0,0,0,0.150062,-0.088844,-0.006785,1,0,0,0,0,0,0
4.170000,-0.000914,0.146801,0.000332,1,0,0,0,0,0,0,-0.101528,-0.056356,0.002683,1,0,0,0,0,0,0,0.150499,-0.089546,-0.006887,1,0,0,0,0,0,0
4.180000,-0.002584,0.147773,0.000310,1,0,0,0,0,0,0,-0.101996,-0.056150,0.002672,1,0,0,0,0,0,0,0.150660,-0.090038,-0.006955,1,0,0,0,0,0,0
4.190000,-0.004207,0.148391,0.000281,1,0,0,0,0,0,0,-0.102272,-0.055885,0.002656,1,0,0,0,0,0,0,0.150559,-0.090316,-0.006989,1,0,0,0,0,0,0
4.200000,-0.005754,0.148708,0.000247,1,0,0,0,0,0,0,-0.102400,-0.055592,0.002638,1,0,0,0,0,0,0,0.150220,-0.090387,-0.006990,1,0,0,0,0,0,0
4.210000,-0.007194,0.148745,0.000209,1,0,0,0,0,0,0,-0.102416,-0.055300,0.002620,1,0,0,0,0,0,0,0.149661,-0.090253,-0.006959,1,0,0,0,0,0,0
4.220000,-0.008498,0.148516,0.000169,1,0,0,0,0,0,0,-0.102306,-0.055004,0.002602,1,0,0,0,0,0,0,0.148905,-0.089924,-0.006898,1,0,0,0,0,0,0
4.230000,-0.009638,0.147999,0.000127,1,0,0,0,0,0,0,-0.102054,-0.054693,0.002583,1,0,0,0,0,0,0,0.147972,-0.089411,-0.006810,1,0,0,0,0,0,0
4.240000,-0.010592,0.147151,0.000087,1,0,0,0,0,0,0,-0.101591,-0.054313,0.002557,1,0,0,0,0,0,0,0.146881,-0.088727,-0.006697,1,0,0,0,0,0,0
4.250000,-0.011351,0.145915,0.000049,1,0,0,0,0,0,0,-0.100871,-0.053822,0.002519,1,0,0,0,0,0,0,0.145653,-0.087884,-0.006562,1,0,0,0,0,0,0
4.260000,-0.011915,0.144261,0.000017,1,0,0,0,0,0,0,-0.099926,-0.053229,0.002472,1,0,0,0,0,0,0,0.144292,-0.086888,-0.006407,1,0,0,0,0,0,0
4.270000,-0.012271,0.142196,-0.000011,1,0,0,0,0,0,0,-0.098786,-0.052544,0.002415,1,0,0,0,0,0,0,0.142781,-0.085734,-0.006231,1,0,0,0,0,0,0
4.280000,-0.012410,0.139752,-0.000032,1,0,0,0,0,0,0,-0.097480,-0.051768,0.002350,1,0,0,0,0,0,0,0.141101,-0.084416,-0.006036,1,0,0,0,0,0,0
4.290000,-0.012338,0.136978,-0.000049,1,0,0,0,0,0,0,-0.096016,-0.050897,0.002276,1,0,0,0,0,0,0,0.139257,-0.082940,-0.005822,1,0,0,0,0,0,0
4.300000,-0.012060,0.133942,-0.000060,1,0,0,0,0,0,0,-0.094389,-0.049925,0.002193,1,0,0,0,0,0,0,0.137222,-0.081310,-0.005591,1,0,0,0,0,0,0
4.310000,-0.011578,0.130733,-0.000068,1,0,0,0,0,0,0,-0.092605,-0.048861,0.002104,1,0,0,0,0,0,0,0.134968,-0.079535,-0.005346,1,0,0,0,0,0,0
4.320000,-0.010890,0.127435,-0.000074,1,0,0,0,0,0,0,-0.090688,-0.047733,0.002009,1,0,0,0,0,0,0,0.132486,-0.077640,-0.005091,1,0,0,0,0,0,0
