time,drone0_roll,drone0_pitch,drone0_yaw,drone0_des_qw,drone0_des_qx,drone0_des_qy,drone0_des_qz,drone0_err_x,drone0_err_y,drone0_err_z,drone1_roll,drone1_pitch,drone1_yaw,drone1_des_qw,drone1_des_qx,drone1_des_qy,drone1_des_qz,drone1_err_x,drone1_err_y,drone1_err_z,drone2_roll,drone2_pitch,drone2_yaw,drone2_des_qw,drone2_des_qx,drone2_des_qy,drone2_des_qz,drone2_err_x,drone2_err_y,drone2_err_z
0.000000,0.000000,0.000000,0.000000,1,0,0,0,0,0,0,0.000000,0.000000,0.000000,1,0,0,0,0,0,0,0.000000,0.000000,0.000000,1,0,0,0,0,0,0
0.010000,0.000000,0.000184,0.000000,1,0,0,0,0,0,0,0.000000,0.000000,0.000000,1,0,0,0,0,0,0,0.000000,0.000000,0.000000,1,0,0,0,0,0,0
0.020000,0.000000,0.000643,0.000000,1,0,0,0,0,0,0,0.000000,0.000000,0.000000,1,0,0,0,0,0,0,0.000000,0.000000,0.000000,1,0,0,0,0,0,0
0.030000,0.000000,0.001329,0.000000,1,0,0,0,0,0,0,0.000000,0.000000,0.000000,1,0,0,0,0,0,0,0.000000,0.000000,0.000000,1,0,0,0,0,0,0
0.040000,0.000000,0.002239,0.000000,1,0,0,0,0,0,0,0.000000,0.000000,0.000000,1,0,0,0,0,0,0,0.000000,0.000000,0.000000,1,0,0,0,0,0,0
0.050000,0.000000,0.003379,0.000000,1,0,0,0,0,0,0,0.000000,0.000000,0.000000,1,0,0,0,0,0,0,0.000157,-0.000088,-0.000000,1,0,0,0,0,0,0
0.060000,0.000000,0.004754,0.000000,1,0,0,0,0,0,0,0.000000,0.000000,0.000000,1,0,0,0,0,0,0,0.000294,-0.000167,-0.000000,1,0,0,0,0,0,0
0.070000,0.000000,0.006348,0.000000,1,0,0,0,0,0,0,-0.000108,-0.000112,0.000000,1,0,0,0,0,0,0,0.000614,-0.000348,-0.000000,1,0,0,0,0,0,0
0.080000,0.000000,0.008115,0.000000,1,0,0,0,0,0,0,-0.000271,-0.000289,0.000000,1,0,0,0,0,0,0,0.000979,-0.000557,-0.000000,1,0,0,0,0,0,0
0.090000,0.000000,0.010007,0.000000,1,0,0,0,0,0,0,-0.000396,-0.000426,0.000000,1,0,0,0,0,0,0,0.001465,-0.000836,-0.000001,1,0,0,0,0,0,0
0.100000,0.000000,0.011987,0.000000,1,0,0,0,0,0,0,-0.000656,-0.000703,0.000000,1,0,0,0,0,0,0,0.002070,-0.001184,-0.000001,1,0,0,0,0,0,0
0.110000,0.000000,0.014038,0.000000,1,0,0,0,0,0,0,-0.000958,-0.001030,0.000000,1,0,0,0,0,0,0,0.002781,-0.001592,-0.000002,1,0,0,0,0,0,0
0.120000,0.000000,0.016126,0.000000,1,0,0,0,0,0,0,-0.001276,-0.001374,0.000001,1,0,0,0,0,0,0,0.003608,-0.002068,-0.000004,1,0,0,0,0,0,0
0.130000,0.000000,0.018171,0.000000,1,0,0,0,0,0,0,-0.001713,-0.001841,0.000002,1,0,0,0,0,0,0,0.004560,-0.002616,-0.000006,1,0,0,0,0,0,0
0.140000,0.000000,0.020176,0.000000,1,0,0,0,0,0,0,-0.002152,-0.002311,0.000002,1,0,0,0,0,0,0,0.005644,-0.003240,-0.000009,1,0,0,0,0,0,0
0.150000,0.000000,0.022175,0.000000,1,0,0,0,0,0,0,-0.002707,-0.002897,0.000004,1,0,0,0,0,0,0,0.006865,-0.003944,-0.000013,1,0,0,0,0,0,0
0.160000,0.000000,0.024176,0.000000,1,0,0,0,0,0,0,-0.003293,-0.003513,0.000006,1,0,0,0,0,0,0,0.008193,-0.004710,-0.000019,1,0,0,0,0,0,0
0.170000,0.000000,0.026168,0.000000,1,0,0,0,0,0,0,-0.003991,-0.004235,0.000008,1,0,0,0,0,0,0,0.009585,-0.005513,-0.000026,1,0,0,0,0,0,0
0.180000,0.000000,0.028142,0.000000,1,0,0,0,0,0,0,-0.004751,-0.005015,0.000012,1,0,0,0,0,0,0,0.011016,-0.006340,-0.000035,1,0,0,0,0,0,0
0.190000,0.000000,0.030089,0.000000,1,0,0,0,0,0,0,-0.005617,-0.005891,0.000016,1,0,0,0,0,0,0,0.012479,-0.007186,-0.000045,1,0,0,0,0,0,0
0.200000,0.000000,0.032002,0.000000,1,0,0,0,0,0,0,-0.006570,-0.006841,0.000022,1,0,0,0,0,0,0,0.013963,-0.008045,-0.000056,1,0,0,0,0,0,0
0.210000,-0.000000,0.033876,-0.000000,1,0,0,0,0,0,0,-0.007620,-0.007871,0.000029,1,0,0,0,0,0,0,0.015447,-0.008903,-0.000069,1,0,0,0,0,0,0
0.220000,-0.000000,0.035704,-0.000000,1,0,0,0,0,0,0,-0.008768,-0.008975,0.000038,1,0,0,0,0,0,0,0.016898,-0.009744,-0.000082,1,0,0,0,0,0,0
0.230000,-0.000000,0.037482,-0.000000,1,0,0,0,0,0,0,-0.009974,-0.010114,0.000049,1,0,0,0,0,0,0,0.018292,-0.010552,-0.000096,1,0,0,0,0,0,0
0.240000,-0.000000,0.039198,-0.000000,1,0,0,0,0,0,0,-0.011205,-0.011255,0.000061,1,0,0,0,0,0,0,0.019641,-0.011333,-0.000111,1,0,0,0,0,0,0
0.250000,-0.000000,0.040840,-0.000000,1,0,0,0,0,0,0,-0.012459,-0.012392,0.000075,1,0,0,0,0,0,0,0.020953,-0.012093,-0.000127,1,0,0,0,0,0,0
0.260000,-0.000000,0.042391,-0.000000,1,0,0,0,0,0,0,-0.013728,-0.013514,0.000089,1,0,0,0,0,0,0,0.022231,-0.012833,-0.000142,1,0,0,0,0,0,0
0.270000,-0.000000,0.043834,-0.000000,1,0,0,0,0,0,0,-0.014981,-0.014596,0.000105,1,0,0,0,0,0,0,0.023475,-0.013553,-0.000159,1,0,0,0,0,0,0
0.280000,-0.000000,0.045157,-0.000000,1,0,0,0,0,0,0,-0.016189,-0.015617,0.000121,1,0,0,0,0,0,0,0.024683,-0.014253,-0.000176,1,0,0,0,0,0,0
0.290000,-0.000000,0.046353,-0.000000,1,0,0,0,0,0,0,-0.017354,-0.016573,0.000137,1,0,0,0,0,0,0,0.025848,-0.014927,-0.000193,1,0,0,0,0,0,0
0.300000,-0.000000,0.047413,-0.000000,1,0,0,0,0,0,0,-0.018468,-0.017457,0.000154,1,0,0,0,0,0,0,0.026952,-0.015566,-0.000210,1,0,0,0,0,0,0
0.310000,-0.000000,0.048329,-0.000000,1,0,0,0,0,0,0,-0.019514,-0.018258,0.000169,1,0,0,0,0,0,0,0.027972,-0.016158,-0.000226,1,0,0,0,0,0,0
0.320000,-0.000000,0.049084,-0.000000,1,0,0,0,0,0,0,-0.020492,-0.018974,0.000184,1,0,0,0,0,0,0,0.028894,-0.016693,-0.000241,1,0,0,0,0,0,0
0.330000,-0.000000,0.049671,-0.000000,1,0,0,0,0,0,0,-0.021416,-0.019608,0.000198,1,0,0,0,0,0,0,0.029708,-0.017165,-0.000255,1,0,0,0,0,0,0
0.340000,-0.000000,0.050085,-0.000000,1,0,0,0,0,0,0,-0.022295,-0.020161,0.000211,1,0,0,0,0,0,0,0.030408,-0.017572,-0.000267,1,0,0,0,0,0,0
0.350000,-0.000000,0.050326,-0.000000,1,0,0,0,0,0,0,-0.023126,-0.020627,0.000222,1,0,0,0,0,0,0,0.030986,-0.017909,-0.000277,1,0,0,0,0,0,0
0.360000,-0.000000,0.050396,-0.000000,1,0,0,0,0,0,0,-0.023895,-0.021000,0.000232,1,0,0,0,0,0,0,0.031429,-0.018167,-0.000286,1,0,0,0,0,0,0
0.370000,-0.000000,0.050297,-0.000000,1,0,0,0,0,0,0,-0.024593,-0.021272,0.000239,1,0,0,0,0,0,0,0.031725,-0.018341,-0.000291,1,0,0,0,0,0,0
0.380000,-0.000000,0.050034,-0.000000,1,0,0,0,0,0,0,-0.025210,-0.021440,0.000245,1,0,0,0,0,0,0,0.031874,-0.018430,-0.000294,1,0,0,0,0,0,0
0.390000,-0.000000,0.049618,-0.000000,1,0,0,0,0,0,0,-0.025739,-0.021503,0.000248,1,0,0,0,0,0,0,0.031878,-0.018435,-0.000294,1,0,0,0,0,0,0
0.400000,-0.000000,0.049060,-0.000000,1,0,0,0,0,0,0,-0.026177,-0.021459,0.000248,1,0,0,0,0,0,0,0.031744,-0.018359,-0.000292,1,0,0,0,0,0,0
0.410000,-0.000000,0.048375,-0.000000,1,0,0,0,0,0,0,-0.026519,-0.021309,0.000246,1,0,0,0,0,0,0,0.031478,-0.018207,-0.000287,1,0,0,0,0,0,0
0.420000,-0.000000,0.047578,-0.000000,1,0,0,0,0,0,0,-0.026757,-0.021056,0.000241,1,0,0,0,0,0,0,0.031087,-0.017983,-0.000280,1,0,0,0,0,0,0
0.430000,-0.000000,0.046684,-0.000000,1,0,0,0,0,0,0,-0.026882,-0.020706,0.000234,1,0,0,0,0,0,0,0.030578,-0.017690,-0.000271,1,0,0,0,0,0,0
0.440000,-0.000000,0.045712,-0.000000,1,0,0,0,0,0,0,-0.026889,-0.020264,0.000225,1,0,0,0,0,0,0,0.029956,-0.017332,-0.000260,1,0,0,0,0,0,0
0.450000,-0.000000,0.044689,0.000000,1,0,0,0,0,0,0,-0.026781,-0.019731,0.000213,1,0,0,0,0,0,0,0.029229,-0.016912,-0.000247,1,0,0,0,0,0,0
0.460000,-0.000000,0.043640,0.000000,1,0,0,0,0,0,0,-0.026559,-0.019111,0.000200,1,0,0,0,0,0,0,0.028402,-0.016436,-0.000234,1,0,0,0,0,0,0
0.470000,-0.000001,0.042588,0.000000,1,0,0,0,0,0,0,-0.026227,-0.018407,0.000184,1,0,0,0,0,0,0,0.027484,-0.015907,-0.000219,1,0,0,0,0,0,0
0.480000,-0.000001,0.041552,0.000000,1,0,0,0,0,0,0,-0.025784,-0.017621,0.000167,1,0,0,0,0,0,0,0.026483,-0.015330,-0.000203,1,0,0,0,0,0,0
0.490000,-0.000002,0.040549,0.000000,1,0,0,0,0,0,0,-0.025233,-0.016752,0.000148,1,0,0,0,0,0,0,0.025408,-0.014712,-0.000187,1,0,0,0,0,0,0
0.500000,-0.000003,0.039590,0.000000,1,0,0,0,0,0,0,-0.024577,-0.015807,0.000129,1,0,0,0,0,0,0,0.024269,-0.014056,-0.000171,1,0,0,0,0,0,0
0.510000,-0.000004,0.038681,0.000000,1,0,0,0,0,0,0,-0.023818,-0.014791,0.000108,1,0,0,0,0,0,0,0.023075,-0.013371,-0.000155,1,0,0,0,0,0,0
0.520000,-0.000006,0.037825,0.000000,1,0,0,0,0,0,0,-0.022962,-0.013712,0.000087,1,0,0,0,0,0,0,0.021840,-0.012664,-0.000139,1,0,0,0,0,0,0
0.530000,-0.000009,0.037021,0.000000,1,0,0,0,0,0,0,-0.022013,-0.012578,0.000065,1,0,0,0,0,0,0,0.020580,-0.011944,-0.000123,1,0,0,0,0,0,0
0.540000,-0.000014,0.036267,0.000000,1,0,0,0,0,0,0,-0.020980,-0.011398,0.000044,1,0,0,0,0,0,0,0.019312,-0.011225,-0.000109,1,0,0,0,0,0,0
0.550000,-0.000019,0.035560,-0.000000,1,0,0,0,0,0,0,-0.019870,-0.010180,0.000024,1,0,0,0,0,0,0,0.018057,-0.010518,-0.000096,1,0,0,0,0,0,0
0.560000,-0.000027,0.034898,-0.000000,1,0,0,0,0,0,0,-0.018689,-0.008933,0.000004,1,0,0,0,0,0,0,0.016837,-0.009839,-0.000084,1,0,0,0,0,0,0
0.570000,-0.000037,0.034276,-0.000000,1,0,0,0,0,0,0,-0.017448,-0.007663,-0.000014,1,0,0,0,0,0,0,0.015682,-0.009207,-0.000073,1,0,0,0,0,0,0
0.580000,-0.000050,0.033690,-0.000000,1,0,0,0,0,0,0,-0.016154,-0.006381,-0.000031,1,0,0,0,0,0,0,0.014627,-0.008647,-0.000065,1,0,0,0,0,0,0
0.590000,-0.000066,0.033137,-0.000000,1,0,0,0,0,0,0,-0.014818,-0.005094,-0.000046,1,0,0,0,0,0,0,0.013712,-0.008185,-0.000058,1,0,0,0,0,0,0
0.600000,-0.000087,0.032613,-0.000000,1,0,0,0,0,0,0,-0.013449,-0.003809,-0.000059,1,0,0,0,0,0,0,0.012981,-0.007849,-0.000053,1,0,0,0,0,0,0
0.610000,-0.000113,0.032118,-0.000000,1,0,0,0,0,0,0,-0.012059,-0.002536,-0.000071,1,0,0,0,0,0,0,0.012466,-0.007664,-0.000051,1,0,0,0,0,0,0
0.620000,-0.000145,0.031651,-0.000000,1,0,0,0,0,0,0,-0.010654,-0.001279,-0.000080,1,0,0,0,0,0,0,0.012181,-0.007639,-0.000050,1,0,0,0,0,0,0
0.630000,-0.000184,0.031215,-0.000000,1,0,0,0,0,0,0,-0.009248,-0.000044,-0.000087,1,0,0,0,0,0,0,0.012109,-0.007761,-0.000052,1,0,0,0,0,0,0
0.640000,-0.000231,0.030815,-0.000000,1,0,0,0,0,0,0,-0.007854,0.001158,-0.000092,1,0,0,0,0,0,0,0.012244,-0.008028,-0.000055,1,0,0,0,0,0,0
0.650000,-0.000287,0.030455,-0.000000,1,0,0,0,0,0,0,-0.006488,0.002321,-0.000095,1,0,0,0,0,0,0,0.012556,-0.008418,-0.000059,1,0,0,0,0,0,0
0.660000,-0.000353,0.030143,-0.000000,1,0,0,0,0,0,0,-0.005170,0.003433,-0.000097,1,0,0,0,0,0,0,0.012967,-0.008880,-0.000065,1,0,0,0,0,0,0
0.670000,-0.000429,0.029880,-0.000001,1,0,0,0,0,0,0,-0.003922,0.004483,-0.000096,1,0,0,0,0,0,0,0.013397,-0.009354,-0.000071,1,0,0,0,0,0,0
0.680000,-0.000515,0.029669,-0.000001,1,0,0,0,0,0,0,-0.002774,0.005458,-0.000094,1,0,0,0,0,0,0,0.013790,-0.009802,-0.000076,1,0,0,0,0,0,0
0.690000,-0.000611,0.029508,-0.000001,1,0,0,0,0,0,0,-0.001760,0.006341,-0.000091,1,0,0,0,0,0,0,0.014128,-0.010207,-0.000081,1,0,0,0,0,0,0
0.700000,-0.000715,0.029393,-0.000001,1,0,0,0,0,0,0,-0.000921,0.007114,-0.000087,1,0,0,0,0,0,0,0.014415,-0.010572,-0.000086,1,0,0,0,0,0,0
0.710000,-0.000824,0.029323,-0.000002,1,0,0,0,0,0,0,-0.000299,0.007760,-0.000082,1,0,0,0,0,0,0,0.014679,-0.010916,-0.000091,1,0,0,0,0,0,0
0.720000,-0.000938,0.029298,-0.000002,1,0,0,0,0,0,0,0.000065,0.008262,-0.000078,1,0,0,0,0,0,0,0.014959,-0.011269,-0.000095,1,0,0,0,0,0,0
0.730000,-0.001052,0.029321,-0.000003,1,0,0,0,0,0,0,0.000147,0.008612,-0.000073,1,0,0,0,0,0,0,0.015276,-0.011645,-0.000100,1,0,0,0,0,0,0
0.740000,-0.001166,0.029401,-0.000004,1,0,0,0,0,0,0,-0.000055,0.008810,-0.000068,1,0,0,0,0,0,0,0.015623,-0.012043,-0.000106,1,0,0,0,0,0,0
0.750000,-0.001276,0.029546,-0.000005,1,0,0,0,0,0,0,-0.000524,0.008865,-0.000064,1,0,0,0,0,0,0,0.015983,-0.012449,-0.000111,1,0,0,0,0,0,0
0.760000,-0.001380,0.029772,-0.000006,1,0,0,0,0,0,0,-0.001265,0.008773,-0.000060,1,0,0,0,0,0,0,0.016332,-0.012847,-0.000117,1,0,0,0,0,0,0
0.770000,-0.001479,0.030093,-0.000007,1,0,0,0,0,0,0,-0.002241,0.008550,-0.000056,1,0,0,0,0,0,0,0.016648,-0.013217,-0.000122,1,0,0,0,0,0,0
0.780000,-0.001570,0.030531,-0.000009,1,0,0,0,0,0,0,-0.003356,0.008229,-0.000052,1,0,0,0,0,0,0,0.016914,-0.013544,-0.000127,1,0,0,0,0,0,0
0.790000,-0.001654,0.031112,-0.000011,1,0,0,0,0,0,0,-0.004495,0.007854,-0.000048,1,0,0,0,0,0,0,0.017121,-0.013821,-0.000131,1,0,0,0,0,0,0
0.800000,-0.001732,0.031863,-0.000013,1,0,0,0,0,0,0,-0.005575,0.007457,-0.000044,1,0,0,0,0,0,0,0.017273,-0.014047,-0.000134,1,0,0,0,0,0,0
0.810000,-0.001807,0.032810,-0.000015,1,0,0,0,0,0,0,-0.006557,0.007057,-0.000040,1,0,0,0,0,0,0,0.017377,-0.014228,-0.000137,1,0,0,0,0,0,0
0.820000,-0.001878,0.033966,-0.000018,1,0,0,0,0,0,0,-0.007438,0.006657,-0.000036,1,0,0,0,0,0,0,0.017444,-0.014370,-0.000138,1,0,0,0,0,0,0
0.830000,-0.001949,0.035329,-0.000022,1,0,0,0,0,0,0,-0.008272,0.006235,-0.000032,1,0,0,0,0,0,0,0.017487,-0.014481,-0.000140,1,0,0,0,0,0,0
0.840000,-0.002020,0.036881,-0.000026,1,0,0,0,0,0,0,-0.009111,0.005772,-0.000027,1,0,0,0,0,0,0,0.017518,-0.014569,-0.000140,1,0,0,0,0,0,0
0.850000,-0.002092,0.038592,-0.000030,1,0,0,0,0,0,0,-0.009986,0.005252,-0.000022,1,0,0,0,0,0,0,0.017556,-0.014648,-0.000141,1,0,0,0,0,0,0
0.860000,-0.002163,0.040432,-0.000035,1,0,0,0,0,0,0,-0.010917,0.004666,-0.000016,1,0,0,0,0,0,0,0.017621,-0.014729,-0.000142,1,0,0,0,0,0,0
0.870000,-0.002234,0.042372,-0.000039,1,0,0,0,0,0,0,-0.011907,0.004010,-0.000009,1,0,0,0,0,0,0,0.017733,-0.014828,-0.000143,1,0,0,0,0,0,0
0.880000,-0.002303,0.044387,-0.000044,1,0,0,0,0,0,0,-0.012947,0.003285,-0.000001,1,0,0,0,0,0,0,0.017911,-0.014956,-0.000144,1,0,0,0,0,0,0
0.890000,-0.002370,0.046454,-0.000050,1,0,0,0,0,0,0,-0.014079,0.002462,0.000009,1,0,0,0,0,0,0,0.018172,-0.015126,-0.000147,1,0,0,0,0,0,0
0.900000,-0.002435,0.048555,-0.000055,1,0,0,0,0,0,0,-0.015286,0.001536,0.000021,1,0,0,0,0,0,0,0.018526,-0.015344,-0.000150,1,0,0,0,0,0,0
0.910000,-0.002497,0.050681,-0.000061,1,0,0,0,0,0,0,-0.016533,0.000514,0.000036,1,0,0,0,0,0,0,0.018975,-0.015613,-0.000155,1,0,0,0,0,0,0
0.920000,-0.002557,0.052826,-0.000066,1,0,0,0,0,0,0,-0.017775,-0.000593,0.000053,1,0,0,0,0,0,0,0.019507,-0.015926,-0.000160,1,0,0,0,0,0,0
0.930000,-0.002613,0.054987,-0.000072,1,0,0,0,0,0,0,-0.018956,-0.001755,0.000071,1,0,0,0,0,0,0,0.020106,-0.016272,-0.000167,1,0,0,0,0,0,0
0.940000,-0.002666,0.057159,-0.000078,1,0,0,0,0,0,0,-0.020030,-0.002936,0.000091,1,0,0,0,0,0,0,0.020749,-0.016638,-0.000174,1,0,0,0,0,0,0
0.950000,-0.002713,0.059332,-0.000084,1,0,0,0,0,0,0,-0.020980,-0.004118,0.000112,1,0,0,0,0,0,0,0.021414,-0.017009,-0.000182,1,0,0,0,0,0,0
0.960000,-0.002752,0.061489,-0.000089,1,0,0,0,0,0,0,-0.021806,-0.005300,0.000133,1,0,0,0,0,0,0,0.022084,-0.017375,-0.000190,1,0,0,0,0,0,0
0.970000,-0.002779,0.063614,-0.000095,1,0,0,0,0,0,0,-0.022507,-0.006469,0.000155,1,0,0,0,0,0,0,0.022762,-0.017738,-0.000198,1,0,0,0,0,0,0
0.980000,-0.002792,0.065697,-0.000100,1,0,0,0,0,0,0,-0.023087,-0.007610,0.000176,1,0,0,0,0,0,0,0.023449,-0.018100,-0.000206,1,0,0,0,0,0,0
0.990000,-0.002788,0.067735,-0.000106,1,0,0,0,0,0,0,-0.023553,-0.008721,0.000197,1,0,0,0,0,0,0,0.024177,-0.018482,-0.000216,1,0,0,0,0,0,0
1.000000,-0.002765,0.069734,-0.000111,1,0,0,0,0,0,0,-0.023911,-0.009805,0.000217,1,0,0,0,0,0,0,0.025011,-0.018930,-0.000227,1,0,0,0,0,0,0
1.010000,-0.002724,0.071717,-0.000115,1,0,0,0,0,0,0,-0.024169,-0.010868,0.000237,1,0,0,0,0,0,0,0.025979,-0.019465,-0.000241,1,0,0,0,0,0,0
1.020000,-0.002668,0.073741,-0.000120,1,0,0,0,0,0,0,-0.024341,-0.011930,0.000257,1,0,0,0,0,0,0,0.027073,-0.020087,-0.000258,1,0,0,0,0,0,0
1.030000,-0.002602,0.075837,-0.000124,1,0,0,0,0,0,0,-0.024445,-0.013015,0.000277,1,0,0,0,0,0,0,0.028271,-0.020781,-0.000278,1,0,0,0,0,0,0
1.040000,-0.002528,0.078016,-0.000128,1,0,0,0,0,0,0,-0.024504,-0.014139,0.000297,1,0,0,0,0,0,0,0.029546,-0.021532,-0.000301,1,0,0,0,0,0,0
1.050000,-0.002451,0.080278,-0.000132,1,0,0,0,0,0,0,-0.024533,-0.015306,0.000319,1,0,0,0,0,0,0,0.030894,-0.022339,-0.000326,1,0,0,0,0,0,0
1.060000,-0.002375,0.082604,-0.000136,1,0,0,0,0,0,0,-0.024537,-0.016504,0.000340,1,0,0,0,0,0,0,0.032323,-0.023212,-0.000355,1,0,0,0,0,0,0
1.070000,-0.002306,0.084958,-0.000140,1,0,0,0,0,0,0,-0.024515,-0.017714,0.000362,1,0,0,0,0,0,0,0.033796,-0.024127,-0.000386,1,0,0,0,0,0,0
1.080000,-0.002247,0.087299,-0.000143,1,0,0,0,0,0,0,-0.024483,-0.018926,0.000383,1,0,0,0,0,0,0,0.035251,-0.025042,-0.000419,1,0,0,0,0,0,0
1.090000,-0.002204,0.089576,-0.000145,1,0,0,0,0,0,0,-0.024452,-0.020138,0.000404,1,0,0,0,0,0,0,0.036664,-0.025937,-0.000453,1,0,0,0,0,0,0
1.100000,-0.002181,0.091737,-0.000147,1,0,0,0,0,0,0,-0.024413,-0.021339,0.000424,1,0,0,0,0,0,0,0.038080,-0.026849,-0.000488,1,0,0,0,0,0,0
1.110000,-0.002179,0.093733,-0.000149,1,0,0,0,0,0,0,-0.024361,-0.022534,0.000444,1,0,0,0,0,0,0,0.039523,-0.027795,-0.000526,1,0,0,0,0,0,0
1.120000,-0.002200,0.095525,-0.000150,1,0,0,0,0,0,0,-0.024291,-0.023730,0.000463,1,0,0,0,0,0,0,0.040995,-0.028781,-0.000567,1,0,0,0,0,0,0
1.130000,-0.002243,0.097087,-0.000151,1,0,0,0,0,0,0,-0.024187,-0.024915,0.000481,1,0,0,0,0,0,0,0.042503,-0.029813,-0.000612,1,0,0,0,0,0,0
1.140000,-0.002308,0.098407,-0.000151,1,0,0,0,0,0,0,-0.024033,-0.026063,0.000498,1,0,0,0,0,0,0,0.044051,-0.030899,-0.000660,1,0,0,0,0,0,0
1.150000,-0.002391,0.099487,-0.000151,1,0,0,0,0,0,0,-0.023823,-0.027153,0.000513,1,0,0,0,0,0,0,0.045627,-0.032030,-0.000712,1,0,0,0,0,0,0
1.160000,-0.002491,0.100334,-0.000151,1,0,0,0,0,0,0,-0.023556,-0.028167,0.000526,1,0,0,0,0,0,0,0.047200,-0.033183,-0.000767,1,0,0,0,0,0,0
1.170000,-0.002606,0.100960,-0.000151,1,0,0,0,0,0,0,-0.023239,-0.029100,0.000537,1,0,0,0,0,0,0,0.048736,-0.034333,-0.000823,1,0,0,0,0,0,0
1.180000,-0.002735,0.101377,-0.000151,1,0,0,0,0,0,0,-0.022882,-0.029946,0.000544,1,0,0,0,0,0,0,0.050218,-0.035466,-0.000880,1,0,0,0,0,0,0
1.190000,-0.002875,0.101596,-0.000151,1,0,0,0,0,0,0,-0.022495,-0.030700,0.000550,1,0,0,0,0,0,0,0.051607,-0.036552,-0.000936,1,0,0,0,0,0,0
1.200000,-0.003024,0.101626,-0.000150,1,0,0,0,0,0,0,-0.022079,-0.031349,0.000552,1,0,0,0,0,0,0,0.052833,-0.037531,-0.000988,1,0,0,0,0,0,0
1.210000,-0.003181,0.101480,-0.000150,1,0,0,0,0,0,0,-0.021632,-0.031886,0.000551,1,0,0,0,0,0,0,0.053878,-0.038386,-0.001034,1,0,0,0,0,0,0
1.220000,-0.003344,0.101170,-0.000149,1,0,0,0,0,0,0,-0.021161,-0.032312,0.000548,1,0,0,0,0,0,0,0.054771,-0.039140,-0.001075,1,0,0,0,0,0,0
1.230000,-0.003511,0.100713,-0.000148,1,0,0,0,0,0,0,-0.020674,-0.032627,0.000542,1,0,0,0,0,0,0,0.055508,-0.039787,-0.001110,1,0,0,0,0,0,0
1.240000,-0.003683,0.100125,-0.000148,1,0,0,0,0,0,0,-0.020177,-0.032831,0.000534,1,0,0,0,0,0,0,0.056079,-0.040318,-0.001140,1,0,0,0,0,0,0
1.250000,-0.003857,0.099420,-0.000147,1,0,0,0,0,0,0,-0.019680,-0.032924,0.000524,1,0,0,0,0,0,0,0.056482,-0.040728,-0.001163,1,0,0,0,0,0,0
1.260000,-0.004034,0.098601,-0.000146,1,0,0,0,0,0,0,-0.019199,-0.032906,0.000511,1,0,0,0,0,0,0,0.056727,-0.041020,-0.001178,1,0,0,0,0,0,0
1.270000,-0.004211,0.097670,-0.000145,1,0,0,0,0,0,0,-0.018755,-0.032780,0.000497,1,0,0,0,0,0,0,0.056821,-0.041199,-0.001188,1,0,0,0,0,0,0
1.280000,-0.004389,0.096636,-0.000144,1,0,0,0,0,0,0,-0.018357,-0.032544,0.000481,1,0,0,0,0,0,0,0.056775,-0.041269,-0.001191,1,0,0,0,0,0,0
1.290000,-0.004566,0.095514,-0.000143,1,0,0,0,0,0,0,-0.018011,-0.032205,0.000464,1,0,0,0,0,0,0,0.056600,-0.041238,-0.001188,1,0,0,0,0,0,0
1.300000,-0.004743,0.094320,-0.000142,1,0,0,0,0,0,0,-0.017710,-0.031767,0.000445,1,0,0,0,0,0,0,0.056305,-0.041112,-0.001180,1,0,0,0,0,0,0
1.310000,-0.004916,0.093060,-0.000140,1,0,0,0,0,0,0,-0.017449,-0.031242,0.000426,1,0,0,0,0,0,0,0.055885,-0.040887,-0.001166,1,0,0,0,0,0,0
1.320000,-0.005086,0.091734,-0.000139,1,0,0,0,0,0,0,-0.017230,-0.030642,0.000406,1,0,0,0,0,0,0,0.055346,-0.040568,-0.001147,1,0,0,0,0,0,0
1.330000,-0.005247,0.090338,-0.000137,1,0,0,0,0,0,0,-0.017060,-0.029984,0.000386,1,0,0,0,0,0,0,0.054728,-0.040181,-0.001124,1,0,0,0,0,0,0
1.340000,-0.005398,0.088863,-0.000135,1,0,0,0,0,0,0,-0.016947,-0.029281,0.000366,1,0,0,0,0,0,0,0.054057,-0.039746,-0.001099,1,0,0,0,0,0,0
1.350000,-0.005535,0.087301,-0.000133,1,0,0,0,0,0,0,-0.016894,-0.028550,0.000346,1,0,0,0,0,0,0,0.053350,-0.039276,-0.001072,1,0,0,0,0,0,0
1.360000,-0.005656,0.085639,-0.000130,1,0,0,0,0,0,0,-0.016906,-0.027803,0.000327,1,0,0,0,0,0,0,0.052618,-0.038780,-0.001044,1,0,0,0,0,0,0
1.370000,-0.005755,0.083864,-0.000126,1,0,0,0,0,0,0,-0.016976,-0.027047,0.000308,1,0,0,0,0,0,0,0.051863,-0.038261,-0.001016,1,0,0,0,0,0,0
1.380000,-0.005831,0.081952,-0.000122,1,0,0,0,0,0,0,-0.017104,-0.026290,0.000290,1,0,0,0,0,0,0,0.051075,-0.037714,-0.000986,1,0,0,0,0,0,0
1.390000,-0.005880,0.079895,-0.000117,1,0,0,0,0,0,0,-0.017282,-0.025532,0.000273,1,0,0,0,0,0,0,0.050237,-0.037131,-0.000955,1,0,0,0,0,0,0
1.400000,-0.005901,0.077700,-0.000111,1,0,0,0,0,0,0,-0.017503,-0.024773,0.000256,1,0,0,0,0,0,0,0.049342,-0.036505,-0.000923,1,0,0,0,0,0,0
1.410000,-0.005893,0.075388,-0.000104,1,0,0,0,0,0,0,-0.017760,-0.024011,0.000240,1,0,0,0,0,0,0,0.048384,-0.035835,-0.000888,1,0,0,0,0,0,0
1.420000,-0.005855,0.072975,-0.000097,1,0,0,0,0,0,0,-0.018054,-0.023245,0.000224,1,0,0,0,0,0,0,0.047363,-0.035121,-0.000853,1,0,0,0,0,0,0
1.430000,-0.005785,0.070475,-0.000090,1,0,0,0,0,0,0,-0.018379,-0.022472,0.000209,1,0,0,0,0,0,0,0.046274,-0.034360,-0.000816,1,0,0,0,0,0,0
1.440000,-0.005685,0.067905,-0.000082,1,0,0,0,0,0,0,-0.018728,-0.021684,0.000194,1,0,0,0,0,0,0,0.045104,-0.033543,-0.000777,1,0,0,0,0,0,0
1.450000,-0.005555,0.065284,-0.000074,1,0,0,0,0,0,0,-0.019082,-0.020871,0.000178,1,0,0,0,0,0,0,0.043841,-0.032661,-0.000737,1,0,0,0,0,0,0
1.460000,-0.005397,0.062630,-0.000066,1,0,0,0,0,0,0,-0.019419,-0.020023,0.000163,1,0,0,0,0,0,0,0.042480,-0.031707,-0.000694,1,0,0,0,0,0,0
1.470000,-0.005210,0.059961,-0.000058,1,0,0,0,0,0,0,-0.019717,-0.019132,0.000147,1,0,0,0,0,0,0,0.041014,-0.030676,-0.000650,1,0,0,0,0,0,0
1.480000,-0.004997,0.057293,-0.000050,1,0,0,0,0,0,0,-0.019963,-0.018198,0.000131,1,0,0,0,0,0,0,0.039441,-0.029563,-0.000604,1,0,0,0,0,0,0
1.490000,-0.004758,0.054643,-0.000043,1,0,0,0,0,0,0,-0.020171,-0.017225,0.000114,1,0,0,0,0,0,0,0.037762,-0.028365,-0.000556,1,0,0,0,0,0,0
1.500000,-0.004494,0.052030,-0.000036,1,0,0,0,0,0,0,-0.020403,-0.016226,0.000097,1,0,0,0,0,0,0,0.035986,-0.027087,-0.000508,1,0,0,0,0,0,0
1.510000,-0.004205,0.049470,-0.000030,1,0,0,0,0,0,0,-0.020687,-0.015198,0.000080,1,0,0,0,0,0,0,0.034127,-0.025736,-0.000459,1,0,0,0,0,0,0
1.520000,-0.003892,0.046979,-0.000025,1,0,0,0,0,0,0,-0.021029,-0.014135,0.000062,1,0,0,0,0,0,0,0.032201,-0.024320,-0.000411,1,0,0,0,0,0,0
1.530000,-0.003555,0.044576,-0.000020,1,0,0,0,0,0,0,-0.021424,-0.013027,0.000043,1,0,0,0,0,0,0,0.030224,-0.022852,-0.000364,1,0,0,0,0,0,0
1.540000,-0.003196,0.042274,-0.000016,1,0,0,0,0,0,0,-0.021860,-0.011867,0.000024,1,0,0,0,0,0,0,0.028212,-0.021342,-0.000318,1,0,0,0,0,0,0
1.550000,-0.002816,0.040086,-0.000012,1,0,0,0,0,0,0,-0.022324,-0.010649,0.000003,1,0,0,0,0,0,0,0.026180,-0.019800,-0.000275,1,0,0,0,0,0,0
1.560000,-0.002418,0.038021,-0.000010,1,0,0,0,0,0,0,-0.022796,-0.009369,-0.000019,1,0,0,0,0,0,0,0.024142,-0.018236,-0.000235,1,0,0,0,0,0,0
1.570000,-0.002007,0.036081,-0.000008,1,0,0,0,0,0,0,-0.023257,-0.008030,-0.000043,1,0,0,0,0,0,0,0.022110,-0.016659,-0.000197,1,0,0,0,0,0,0
1.580000,-0.001588,0.034267,-0.000007,1,0,0,0,0,0,0,-0.023683,-0.006646,-0.000068,1,0,0,0,0,0,0,0.020092,-0.015076,-0.000163,1,0,0,0,0,0,0
1.590000,-0.001166,0.032581,-0.000006,1,0,0,0,0,0,0,-0.024054,-0.005232,-0.000093,1,0,0,0,0,0,0,0.018092,-0.013493,-0.000132,1,0,0,0,0,0,0
1.600000,-0.000747,0.031029,-0.000005,1,0,0,0,0,0,0,-0.024361,-0.003807,-0.000118,1,0,0,0,0,0,0,0.016114,-0.011915,-0.000104,1,0,0,0,0,0,0
1.610000,-0.000335,0.029610,-0.000005,1,0,0,0,0,0,0,-0.024599,-0.002387,-0.000143,1,0,0,0,0,0,0,0.014162,-0.010347,-0.000079,1,0,0,0,0,0,0
1.620000,0.000064,0.028319,-0.000005,1,0,0,0,0,0,0,-0.024765,-0.000990,-0.000168,1,0,0,0,0,0,0,0.012236,-0.008793,-0.000058,1,0,0,0,0,0,0
1.630000,0.000445,0.027147,-0.000005,1,0,0,0,0,0,0,-0.024855,0.000367,-0.000191,1,0,0,0,0,0,0,0.010348,-0.007260,-0.000041,1,0,0,0,0,0,0
1.640000,0.000804,0.026079,-0.000005,1,0,0,0,0,0,0,-0.024862,0.001666,-0.000212,1,0,0,0,0,0,0,0.008525,-0.005762,-0.000026,1,0,0,0,0,0,0
1.650000,0.001139,0.025102,-0.000006,1,0,0,0,0,0,0,-0.024777,0.002896,-0.000232,1,0,0,0,0,0,0,0.006785,-0.004310,-0.000015,1,0,0,0,0,0,0
1.660000,0.001445,0.024201,-0.000006,1,0,0,0,0,0,0,-0.024595,0.004048,-0.000248,1,0,0,0,0,0,0,0.005140,-0.002912,-0.000006,1,0,0,0,0,0,0
1.670000,0.001723,0.023364,-0.000006,1,0,0,0,0,0,0,-0.024311,0.005117,-0.000263,1,0,0,0,0,0,0,0.003604,-0.001580,-0.000000,1,0,0,0,0,0,0
1.680000,0.001969,0.022582,-0.000006,1,0,0,0,0,0,0,-0.023919,0.006100,-0.000275,1,0,0,0,0,0,0,0.002198,-0.000327,0.000003,1,0,0,0,0,0,0
1.690000,0.002184,0.021850,-0.000006,1,0,0,0,0,0,0,-0.023420,0.007001,-0.000284,1,0,0,0,0,0,0,0.000936,0.000836,0.000005,1,0,0,0,0,0,0
1.700000,0.002364,0.021173,-0.000005,1,0,0,0,0,0,0,-0.022814,0.007819,-0.000291,1,0,0,0,0,0,0,-0.000169,0.001899,0.000005,1,0,0,0,0,0,0
1.710000,0.002510,0.020553,-0.000005,1,0,0,0,0,0,0,-0.022105,0.008559,-0.000295,1,0,0,0,0,0,0,-0.001106,0.002854,0.000004,1,0,0,0,0,0,0
1.720000,0.002622,0.019994,-0.000005,1,0,0,0,0,0,0,-0.021299,0.009223,-0.000298,1,0,0,0,0,0,0,-0.001861,0.003690,0.000003,1,0,0,0,0,0,0
1.730000,0.002699,0.019502,-0.000004,1,0,0,0,0,0,0,-0.020404,0.009812,-0.000298,1,0,0,0,0,0,0,-0.002423,0.004399,0.000001,1,0,0,0,0,0,0
1.740000,0.002742,0.019087,-0.000004,1,0,0,0,0,0,0,-0.019429,0.010328,-0.000296,1,0,0,0,0,0,0,-0.002791,0.004979,-0.000001,1,0,0,0,0,0,0
1.750000,0.002752,0.018760,-0.000003,1,0,0,0,0,0,0,-0.018385,0.010773,-0.000293,1,0,0,0,0,0,0,-0.002978,0.005436,-0.000003,1,0,0,0,0,0,0
1.760000,0.002730,0.018534,-0.000002,1,0,0,0,0,0,0,-0.017278,0.011144,-0.000288,1,0,0,0,0,0,0,-0.003008,0.005784,-0.000004,1,0,0,0,0,0,0
1.770000,0.002678,0.018415,-0.000000,1,0,0,0,0,0,0,-0.016119,0.011438,-0.000281,1,0,0,0,0,0,0,-0.002905,0.006034,-0.000005,1,0,0,0,0,0,0
1.780000,0.002599,0.018402,0.000001,1,0,0,0,0,0,0,-0.014922,0.011654,-0.000273,1,0,0,0,0,0,0,-0.002678,0.006193,-0.000006,1,0,0,0,0,0,0
1.790000,0.002493,0.018495,0.000003,1,0,0,0,0,0,0,-0.013703,0.011792,-0.000264,1,0,0,0,0,0,0,-0.002335,0.006265,-0.000006,1,0,0,0,0,0,0
1.800000,0.002363,0.018699,0.000005,1,0,0,0,0,0,0,-0.012481,0.011854,-0.000254,1,0,0,0,0,0,0,-0.001892,0.006257,-0.000006,1,0,0,0,0,0,0
1.810000,0.002209,0.019024,0.000007,1,0,0,0,0,0,0,-0.011272,0.011842,-0.000243,1,0,0,0,0,0,0,-0.001373,0.006183,-0.000006,1,0,0,0,0,0,0
1.820000,0.002032,0.019473,0.000009,1,0,0,0,0,0,0,-0.010088,0.011761,-0.000231,1,0,0,0,0,0,0,-0.000812,0.006061,-0.000006,1,0,0,0,0,0,0
1.830000,0.001833,0.020042,0.000010,1,0,0,0,0,0,0,-0.008940,0.011616,-0.000219,1,0,0,0,0,0,0,-0.000232,0.005903,-0.000006,1,0,0,0,0,0,0
1.840000,0.001616,0.020728,0.000012,1,0,0,0,0,0,0,-0.007835,0.011411,-0.000208,1,0,0,0,0,0,0,0.000356,0.005716,-0.000005,1,0,0,0,0,0,0
1.850000,0.001381,0.021523,0.000014,1,0,0,0,0,0,0,-0.006781,0.011148,-0.000196,1,0,0,0,0,0,0,0.000943,0.005504,-0.000005,1,0,0,0,0,0,0
1.860000,0.001131,0.022420,0.000015,1,0,0,0,0,0,0,-0.005782,0.010830,-0.000184,1,0,0,0,0,0,0,0.001547,0.005258,-0.000005,1,0,0,0,0,0,0
1.870000,0.000870,0.023410,0.000016,1,0,0,0,0,0,0,-0.004841,0.010461,-0.000173,1,0,0,0,0,0,0,0.002174,0.004974,-0.000005,1,0,0,0,0,0,0
1.880000,0.000599,0.024478,0.000017,1,0,0,0,0,0,0,-0.003958,0.010043,-0.000162,1,0,0,0,0,0,0,0.002824,0.004651,-0.000005,1,0,0,0,0,0,0
1.890000,0.000323,0.025611,0.000017,1,0,0,0,0,0,0,-0.003134,0.009579,-0.000152,1,0,0,0,0,0,0,0.003488,0.004292,-0.000006,1,0,0,0,0,0,0
1.900000,0.000045,0.026797,0.000016,1,0,0,0,0,0,0,-0.002370,0.009068,-0.000142,1,0,0,0,0,0,0,0.004161,0.003902,-0.000007,1,0,0,0,0,0,0
1.910000,-0.000233,0.028029,0.000015,1,0,0,0,0,0,0,-0.001667,0.008511,-0.000133,1,0,0,0,0,0,0,0.004836,0.003482,-0.000008,1,0,0,0,0,0,0
1.920000,-0.000506,0.029293,0.000014,1,0,0,0,0,0,0,-0.001028,0.007904,-0.000124,1,0,0,0,0,0,0,0.005508,0.003036,-0.000009,1,0,0,0,0,0,0
1.930000,-0.000772,0.030577,0.000012,1,0,0,0,0,0,0,-0.000455,0.007246,-0.000116,1,0,0,0,0,0,0,0.006178,0.002563,-0.000011,1,0,0,0,0,0,0
1.940000,-0.001027,0.031867,0.000009,1,0,0,0,0,0,0,0.000054,0.006538,-0.000109,1,0,0,0,0,0,0,0.006844,0.002063,-0.000013,1,0,0,0,0,0,0
1.950000,-0.001268,0.033151,0.000006,1,0,0,0,0,0,0,0.000508,0.005782,-0.000102,1,0,0,0,0,0,0,0.007510,0.001536,-0.000016,1,0,0,0,0,0,0
1.960000,-0.001492,0.034419,0.000003,1,0,0,0,0,0,0,0.000912,0.004985,-0.000097,1,0,0,0,0,0,0,0.008173,0.000981,-0.000019,1,0,0,0,0,0,0
1.970000,-0.001696,0.035660,-0.000001,1,0,0,0,0,0,0,0.001272,0.004150,-0.000091,1,0,0,0,0,0,0,0.008833,0.000404,-0.000022,1,0,0,0,0,0,0
1.980000,-0.001877,0.036861,-0.000004,1,0,0,0,0,0,0,0.001591,0.003284,-0.000087,1,0,0,0,0,0,0,0.009485,-0.000194,-0.000026,1,0,0,0,0,0,0
1.990000,-0.002033,0.038011,-0.000008,1,0,0,0,0,0,0,0.001880,0.002399,-0.000083,1,0,0,0,0,0,0,0.010126,-0.000807,-0.000031,1,0,0,0,0,0,0
2.000000,-0.002162,0.039094,-0.000013,1,0,0,0,0,0,0,0.002145,0.001509,-0.000079,1,0,0,0,0,0,0,0.010754,-0.001433,-0.000036,1,0,0,0,0,0,0
2.010000,-0.002259,0.040084,-0.000016,1,0,0,0,0,0,0,0.002380,0.000613,-0.000076,1,0,0,0,0,0,0,0.011366,-0.002074,-0.000041,1,0,0,0,0,0,0
2.020000,-0.002314,0.040910,-0.000020,1,0,0,0,0,0,0,0.002558,-0.000314,-0.000074,1,0,0,0,0,0,0,0.011957,-0.002740,-0.000047,1,0,0,0,0,0,0
2.030000,-0.002324,0.041542,-0.000023,1,0,0,0,0,0,0,0.002666,-0.001282,-0.000072,1,0,0,0,0,0,0,0.012521,-0.003429,-0.000054,1,0,0,0,0,0,0
2.040000,-0.002290,0.041990,-0.000026,1,0,0,0,0,0,0,0.002686,-0.002297,-0.000070,1,0,0,0,0,0,0,0.013052,-0.004132,-0.000061,1,0,0,0,0,0,0
2.050000,-0.002214,0.042280,-0.000028,1,0,0,0,0,0,0,0.002596,-0.003365,-0.000069,1,0,0,0,0,0,0,0.013546,-0.004840,-0.000068,1,0,0,0,0,0,0
2.060000,-0.002098,0.042452,-0.000030,1,0,0,0,0,0,0,0.002368,-0.004498,-0.000068,1,0,0,0,0,0,0,0.013997,-0.005546,-0.000076,1,0,0,0,0,0,0
2.070000,-0.001944,0.042558,-0.000031,1,0,0,0,0,0,0,0.001979,-0.005701,-0.000067,1,0,0,0,0,0,0,0.014404,-0.006243,-0.000084,1,0,0,0,0,0,0
2.080000,-0.001754,0.042650,-0.000032,1,0,0,0,0,0,0,0.001427,-0.006969,-0.000065,1,0,0,0,0,0,0,0.014766,-0.006927,-0.000091,1,0,0,0,0,0,0
2.090000,-0.001531,0.042781,-0.000032,1,0,0,0,0,0,0,0.000737,-0.008277,-0.000063,1,0,0,0,0,0,0,0.015089,-0.007597,-0.000099,1,0,0,0,0,0,0
2.100000,-0.001278,0.042997,-0.000033,1,0,0,0,0,0,0,-0.000058,-0.009602,-0.000060,1,0,0,0,0,0,0,0.015388,-0.008260,-0.000107,1,0,0,0,0,0,0
2.110000,-0.000996,0.043334,-0.000033,1,0,0,0,0,0,0,-0.000940,-0.010934,-0.000056,1,0,0,0,0,0,0,0.015685,-0.008928,-0.000114,1,0,0,0,0,0,0
2.120000,-0.000688,0.043822,-0.000033,1,0,0,0,0,0,0,-0.001889,-0.012264,-0.000050,1,0,0,0,0,0,0,0.016011,-0.009619,-0.000123,1,0,0,0,0,0,0
2.130000,-0.000356,0.044485,-0.000032,1,0,0,0,0,0,0,-0.002880,-0.013577,-0.000043,1,0,0,0,0,0,0,0.016399,-0.010354,-0.000132,1,0,0,0,0,0,0
2.140000,-0.000001,0.045349,-0.000031,1,0,0,0,0,0,0,-0.003890,-0.014860,-0.000035,1,0,0,0,0,0,0,0.016878,-0.011150,-0.000142,1,0,0,0,0,0,0
2.150000,0.000375,0.046443,-0.000029,1,0,0,0,0,0,0,-0.004897,-0.016097,-0.000026,1,0,0,0,0,0,0,0.017461,-0.012011,-0.000154,1,0,0,0,0,0,0
2.160000,0.000768,0.047795,-0.000027,1,0,0,0,0,0,0,-0.005889,-0.017276,-0.000016,1,0,0,0,0,0,0,0.018141,-0.012930,-0.000168,1,0,0,0,0,0,0
2.170000,0.001170,0.049431,-0.000023,1,0,0,0,0,0,0,-0.006862,-0.018396,-0.000005,1,0,0,0,0,0,0,0.018909,-0.013894,-0.000183,1,0,0,0,0,0,0
2.180000,0.001571,0.051385,-0.000017,1,0,0,0,0,0,0,-0.007817,-0.019458,0.000007,1,0,0,0,0,0,0,0.019758,-0.014892,-0.000199,1,0,0,0,0,0,0
2.190000,0.001953,0.053701,-0.000010,1,0,0,0,0,0,0,-0.008753,-0.020459,0.000019,1,0,0,0,0,0,0,0.020696,-0.015919,-0.000216,1,0,0,0,0,0,0
2.200000,0.002299,0.056426,-0.000000,1,0,0,0,0,0,0,-0.009669,-0.021395,0.000032,1,0,0,0,0,0,0,0.021731,-0.016969,-0.000236,1,0,0,0,0,0,0
2.210000,0.002584,0.059603,0.000011,1,0,0,0,0,0,0,-0.010560,-0.022260,0.000045,1,0,0,0,0,0,0,0.022871,-0.018035,-0.000256,1,0,0,0,0,0,0
2.220000,0.002789,0.063256,0.000025,1,0,0,0,0,0,0,-0.011428,-0.023050,0.000058,1,0,0,0,0,0,0,0.024147,-0.019124,-0.000279,1,0,0,0,0,0,0
2.230000,0.002895,0.067387,0.000040,1,0,0,0,0,0,0,-0.012299,-0.023783,0.000071,1,0,0,0,0,0,0,0.025633,-0.020280,-0.000305,1,0,0,0,0,0,0
2.240000,0.002896,0.071988,0.000057,1,0,0,0,0,0,0,-0.013201,-0.024476,0.000084,1,0,0,0,0,0,0,0.027470,-0.021592,-0.000337,1,0,0,0,0,0,0
2.250000,0.002794,0.077058,0.000075,1,0,0,0,0,0,0,-0.014175,-0.025139,0.000098,1,0,0,0,0,0,0,0.029839,-0.023176,-0.000379,1,0,0,0,0,0,0
2.260000,0.002597,0.082617,0.000092,1,0,0,0,0,0,0,-0.015249,-0.025771,0.000112,1,0,0,0,0,0,0,0.032873,-0.025122,-0.000438,1,0,0,0,0,0,0
2.270000,0.002317,0.088703,0.000109,1,0,0,0,0,0,0,-0.016426,-0.026350,0.000126,1,0,0,0,0,0,0,0.036590,-0.027442,-0.000517,1,0,0,0,0,0,0
2.280000,0.001964,0.095320,0.000123,1,0,0,0,0,0,0,-0.017695,-0.026853,0.000140,1,0,0,0,0,0,0,0.040932,-0.030085,-0.000618,1,0,0,0,0,0,0
2.290000,0.001543,0.102391,0.000135,1,0,0,0,0,0,0,-0.019051,-0.027267,0.000153,1,0,0,0,0,0,0,0.045874,-0.033008,-0.000744,1,0,0,0,0,0,0
2.300000,0.001065,0.109756,0.000142,1,0,0,0,0,0,0,-0.020512,-0.027591,0.000166,1,0,0,0,0,0,0,0.051405,-0.036184,-0.000898,1,0,0,0,0,0,0
2.310000,0.000541,0.117213,0.000144,1,0,0,0,0,0,0,-0.022110,-0.027826,0.000177,1,0,0,0,0,0,0,0.057428,-0.039567,-0.001083,1,0,0,0,0,0,0
2.320000,-0.000008,0.124569,0.000140,1,0,0,0,0,0,0,-0.023842,-0.027971,0.000188,1,0,0,0,0,0,0,0.063826,-0.043145,-0.001302,1,0,0,0,0,0,0
2.330000,-0.000556,0.131683,0.000131,1,0,0,0,0,0,0,-0.025662,-0.028025,0.000198,1,0,0,0,0,0,0,0.070594,-0.046987,-0.001564,1,0,0,0,0,0,0
2.340000,-0.001085,0.138481,0.000116,1,0,0,0,0,0,0,-0.027526,-0.028003,0.000206,1,0,0,0,0,0,0,0.077754,-0.051188,-0.001881,1,0,0,0,0,0,0
2.350000,-0.001579,0.144901,0.000097,1,0,0,0,0,0,0,-0.029424,-0.027941,0.000215,1,0,0,0,0,0,0,0.085219,-0.055747,-0.002259,1,0,0,0,0,0,0
2.360000,-0.002029,0.150867,0.000074,1,0,0,0,0,0,0,-0.031391,-0.027901,0.000225,1,0,0,0,0,0,0,0.092801,-0.060543,-0.002693,1,0,0,0,0,0,0
2.370000,-0.002431,0.156326,0.000049,1,0,0,0,0,0,0,-0.033514,-0.027962,0.000239,1,0,0,0,0,0,0,0.100270,-0.065387,-0.003169,1,0,0,0,0,0,0
2.380000,-0.002777,0.161307,0.000022,1,0,0,0,0,0,0,-0.035926,-0.028203,0.000261,1,0,0,0,0,0,0,0.107390,-0.070067,-0.003663,1,0,0,0,0,0,0
2.390000,-0.003064,0.165936,-0.000006,1,0,0,0,0,0,0,-0.038814,-0.028690,0.000293,1,0,0,0,0,0,0,0.114028,-0.074453,-0.004157,1,0,0,0,0,0,0
2.400000,-0.003284,0.170386,-0.000036,1,0,0,0,0,0,0,-0.042439,-0.029500,0.000341,1,0,0,0,0,0,0,0.120219,-0.078555,-0.004646,1,0,0,0,0,0,0
2.410000,-0.003428,0.174775,-0.000065,1,0,0,0,0,0,0,-0.047075,-0.030725,0.000413,1,0,0,0,0,0,0,0.126049,-0.082412,-0.005129,1,0,0,0,0,0,0
2.420000,-0.003486,0.179115,-0.000095,1,0,0,0,0,0,0,-0.052773,-0.032420,0.000515,1,0,0,0,0,0,0,0.131532,-0.085989,-0.005598,1,0,0,0,0,0,0
2.430000,-0.003451,0.183342,-0.000123,1,0,0,0,0,0,0,-0.059319,-0.034586,0.000656,1,0,0,0,0,0,0,0.136633,-0.089195,-0.006036,1,0,0,0,0,0,0
2.440000,-0.003318,0.187395,-0.000150,1,0,0,0,0,0,0,-0.066433,-0.037200,0.000842,1,0,0,0,0,0,0,0.141329,-0.091978,-0.006430,1,0,0,0,0,0,0
2.450000,-0.003091,0.191270,-0.000173,1,0,0,0,0,0,0,-0.073904,-0.040253,0.001079,1,0,0,0,0,0,0,0.145655,-0.094373,-0.006782,1,0,0,0,0,0,0
2.460000,-0.002790,0.195010,-0.000193,1,0,0,0,0,0,0,-0.081529,-0.043731,0.001373,1,0,0,0,0,0,0,0.149652,-0.096446,-0.007097,1,0,0,0,0,0,0
2.470000,-0.002448,0.198658,-0.000209,1,0,0,0,0,0,0,-0.088951,-0.047487,0.001718,1,0,0,0,0,0,0,0.153333,-0.098227,-0.007378,1,0,0,0,0,0,0
2.480000,-0.002110,0.202207,-0.000221,1,0,0,0,0,0,0,-0.095836,-0.051246,0.002090,1,0,0,0,0,0,0,0.156738,-0.099722,-0.007622,1,0,0,0,0,0,0
2.490000,-0.001813,0.205613,-0.000228,1,0,0,0,0,0,0,-0.102204,-0.054879,0.002473,1,0,0,0,0,0,0,0.159951,-0.100956,-0.007831,1,0,0,0,0,0,0
2.500000,-0.001576,0.208823,-0.000233,1,0,0,0,0,0,0,-0.108328,-0.058411,0.002867,1,0,0,0,0,0,0,0.163029,-0.101962,-0.008011,1,0,0,0,0,0,0
2.510000,-0.001396,0.211791,-0.000234,1,0,0,0,0,0,0,-0.114419,-0.061855,0.003271,1,0,0,0,0,0,0,0.165913,-0.102734,-0.008157,1,0,0,0,0,0,0
2.520000,-0.001268,0.214480,-0.000233,1,0,0,0,0,0,0,-0.120392,-0.065168,0.003679,1,0,0,0,0,0,0,0.168496,-0.103237,-0.008264,1,0,0,0,0,0,0
2.530000,-0.001192,0.216850,-0.000231,1,0,0,0,0,0,0,-0.126010,-0.068353,0.004089,1,0,0,0,0,0,0,0.170779,-0.103497,-0.008335,1,0,0,0,0,0,0
2.540000,-0.001187,0.218843,-0.000228,1,0,0,0,0,0,0,-0.131057,-0.071462,0.004506,1,0,0,0,0,0,0,0.172928,-0.103658,-0.008393,1,0,0,0,0,0,0
2.550000,-0.001285,0.220348,-0.000224,1,0,0,0,0,0,0,-0.135437,-0.074487,0.004924,1,0,0,0,0,0,0,0.175185,-0.103933,-0.008476,1,0,0,0,0,0,0
2.560000,-0.001523,0.221203,-0.000220,1,0,0,0,0,0,0,-0.139278,-0.077362,0.005332,1,0,0,0,0,0,0,0.177612,-0.104437,-0.008604,1,0,0,0,0,0,0
2.570000,-0.001928,0.221225,-0.000216,1,0,0,0,0,0,0,-0.142831,-0.080032,0.005717,1,0,0,0,0,0,0,0.180053,-0.105128,-0.008771,1,0,0,0,0,0,0
2.580000,-0.002503,0.220270,-0.000213,1,0,0,0,0,0,0,-0.146246,-0.082458,0.006074,1,0,0,0,0,0,0,0.182265,-0.105881,-0.008952,1,0,0,0,0,0,0
2.590000,-0.003232,0.218290,-0.000209,1,0,0,0,0,0,0,-0.149391,-0.084628,0.006397,1,0,0,0,0,0,0,0.184021,-0.106580,-0.009126,1,0,0,0,0,0,0
2.600000,-0.004090,0.215348,-0.000205,1,0,0,0,0,0,0,-0.152085,-0.086576,0.006692,1,0,0,0,0,0,0,0.185168,-0.107171,-0.009281,1,0,0,0,0,0,0
2.610000,-0.005061,0.211592,-0.000199,1,0,0,0,0,0,0,-0.154240,-0.088271,0.006950,1,0,0,0,0,0,0,0.185626,-0.107660,-0.009415,1,0,0,0,0,0,0
2.620000,-0.006128,0.207187,-0.000191,1,0,0,0,0,0,0,-0.155959,-0.089587,0.007150,1,0,0,0,0,0,0,0.185374,-0.108068,-0.009531,1,0,0,0,0,0,0
2.630000,-0.007277,0.202264,-0.000182,1,0,0,0,0,0,0,-0.157464,-0.090408,0.007272,1,0,0,0,0,0,0,0.184415,-0.108409,-0.009629,1,0,0,0,0,0,0
2.640000,-0.008474,0.196912,-0.000169,1,0,0,0,0,0,0,-0.158884,-0.090719,0.007314,1,0,0,0,0,0,0,0.182722,-0.108644,-0.009700,1,0,0,0,0,0,0
2.650000,-0.009673,0.191219,-0.000154,1,0,0,0,0,0,0,-0.160129,-0.090627,0.007293,1,0,0,0,0,0,0,0.180194,-0.108640,-0.009720,1,0,0,0,0,0,0
2.660000,-0.010816,0.185313,-0.000136,1,0,0,0,0,0,0,-0.161027,-0.090274,0.007233,1,0,0,0,0,0,0,0.176713,-0.108214,-0.009653,1,0,0,0,0,0,0
2.670000,-0.011844,0.179336,-0.000116,1,0,0,0,0,0,0,-0.161492,-0.089777,0.007153,1,0,0,0,0,0,0,0.172277,-0.107254,-0.009485,1,0,0,0,0,0,0
2.680000,-0.012711,0.173364,-0.000096,1,0,0,0,0,0,0,-0.161547,-0.089185,0.007061,1,0,0,0,0,0,0,0.167068,-0.105802,-0.009227,1,0,0,0,0,0,0
2.690000,-0.013384,0.167374,-0.000076,1,0,0,0,0,0,0,-0.161362,-0.088541,0.006964,1,0,0,0,0,0,0,0.161372,-0.104018,-0.008912,1,0,0,0,0,0,0
2.700000,-0.013842,0.161308,-0.000053,1,0,0,0,0,0,0,-0.161147,-0.087932,0.006875,1,0,0,0,0,0,0,0.155439,-0.102066,-0.008573,1,0,0,0,0,0,0
2.710000,-0.014077,0.155179,-0.000030,1,0,0,0,0,0,0,-0.161024,-0.087487,0.006815,1,0,0,0,0,0,0,0.149412,-0.100021,-0.008224,1,0,0,0,0,0,0
2.720000,-0.014097,0.149085,-0.000007,1,0,0,0,0,0,0,-0.161033,-0.087332,0.006804,1,0,0,0,0,0,0,0.143348,-0.097871,-0.007864,1,0,0,0,0,0,0
2.730000,-0.013927,0.143147,0.000014,1,0,0,0,0,0,0,-0.161170,-0.087515,0.006848,1,0,0,0,0,0,0,0.137270,-0.095565,-0.007490,1,0,0,0,0,0,0
2.740000,-0.013608,0.137430,0.000032,1,0,0,0,0,0,0,-0.161398,-0.087980,0.006938,1,0,0,0,0,0,0,0.131223,-0.093095,-0.007102,1,0,0,0,0,0,0
2.750000,-0.013181,0.131928,0.000047,1,0,0,0,0,0,0,-0.161598,-0.088596,0.007051,1,0,0,0,0,0,0,0.125276,-0.090508,-0.006710,1,0,0,0,0,0,0
2.760000,-0.012690,0.126604,0.000060,1,0,0,0,0,0,0,-0.161561,-0.089240,0.007165,1,0,0,0,0,0,0,0.119502,-0.087888,-0.006326,1,0,0,0,0,0,0
2.770000,-0.012173,0.121432,0.000071,1,0,0,0,0,0,0,-0.161056,-0.089846,0.007270,1,0,0,0,0,0,0,0.113975,-0.085320,-0.005960,1,0,0,0,0,0,0
2.780000,-0.011665,0.116407,0.000081,1,0,0,0,0,0,0,-0.159948,-0.090446,0.007369,1,0,0,0,0,0,0,0.108731,-0.082847,-0.005618,1,0,0,0,0,0,0
2.790000,-0.011197,0.111538,0.000090,1,0,0,0,0,0,0,-0.158154,-0.091094,0.007469,1,0,0,0,0,0,0,0.103756,-0.080466,-0.005297,1,0,0,0,0,0,0
2.800000,-0.010802,0.106822,0.000098,1,0,0,0,0,0,0,-0.155614,-0.091671,0.007549,1,0,0,0,0,0,0,0.099030,-0.078166,-0.004995,1,0,0,0,0,0,0
2.810000,-0.010514,0.102234,0.000105,1,0,0,0,0,0,0,-0.152383,-0.092020,0.007584,1,0,0,0,0,0,0,0.094539,-0.075948,-0.004711,1,0,0,0,0,0,0
2.820000,-0.010366,0.097736,0.000112,1,0,0,0,0,0,0,-0.148591,-0.092045,0.007559,1,0,0,0,0,0,0,0.090274,-0.073841,-0.004448,1,0,0,0,0,0,0
2.830000,-0.010387,0.093280,0.000120,1,0,0,0,0,0,0,-0.144393,-0.091724,0.007474,1,0,0,0,0,0,0,0.086267,-0.071909,-0.004209,1,0,0,0,0,0,0
2.840000,-0.010595,0.088823,0.000130,1,0,0,0,0,0,0,-0.139935,-0.091093,0.007338,1,0,0,0,0,0,0,0.082568,-0.070217,-0.003998,1,0,0,0,0,0,0
2.850000,-0.010991,0.084355,0.000142,1,0,0,0,0,0,0,-0.135338,-0.090217,0.007163,1,0,0,0,0,0,0,0.079207,-0.068796,-0.003817,1,0,0,0,0,0,0
2.860000,-0.011566,0.079913,0.000156,1,0,0,0,0,0,0,-0.130694,-0.089162,0.006961,1,0,0,0,0,0,0,0.076176,-0.067635,-0.003660,1,0,0,0,0,0,0
2.870000,-0.012297,0.075569,0.000170,1,0,0,0,0,0,0,-0.126037,-0.087948,0.006739,1,0,0,0,0,0,0,0.073422,-0.066682,-0.003523,1,0,0,0,0,0,0
2.880000,-0.013156,0.071413,0.000186,1,0,0,0,0,0,0,-0.121341,-0.086560,0.006497,1,0,0,0,0,0,0,0.070814,-0.065832,-0.003396,1,0,0,0,0,0,0
2.890000,-0.014115,0.067534,0.000200,1,0,0,0,0,0,0,-0.116607,-0.084992,0.006236,1,0,0,0,0,0,0,0.068194,-0.064973,-0.003272,1,0,0,0,0,0,0
2.900000,-0.015148,0.064019,0.000211,1,0,0,0,0,0,0,-0.111832,-0.083231,0.005958,1,0,0,0,0,0,0,0.065491,-0.064074,-0.003148,1,0,0,0,0,0,0
2.910000,-0.016226,0.060942,0.000218,1,0,0,0,0,0,0,-0.107007,-0.081246,0.005661,1,0,0,0,0,0,0,0.062674,-0.063147,-0.003025,1,0,0,0,0,0,0
2.920000,-0.017314,0.058344,0.000219,1,0,0,0,0,0,0,-0.102146,-0.079001,0.005347,1,0,0,0,0,0,0,0.059716,-0.062187,-0.002903,1,0,0,0,0,0,0
2.930000,-0.018371,0.056229,0.000214,1,0,0,0,0,0,0,-0.097328,-0.076474,0.005014,1,0,0,0,0,0,0,0.056633,-0.061197,-0.002782,1,0,0,0,0,0,0
2.940000,-0.019356,0.054588,0.000201,1,0,0,0,0,0,0,-0.092682,-0.073673,0.004669,1,0,0,0,0,0,0,0.053485,-0.060201,-0.002664,1,0,0,0,0,0,0
2.950000,-0.020229,0.053398,0.000181,1,0,0,0,0,0,0,-0.088324,-0.070633,0.004316,1,0,0,0,0,0,0,0.050351,-0.059229,-0.002550,1,0,0,0,0,0,0
2.960000,-0.020952,0.052630,0.000153,1,0,0,0,0,0,0,-0.084286,-0.067418,0.003964,1,0,0,0,0,0,0,0.047291,-0.058292,-0.002441,1,0,0,0,0,0,0
2.970000,-0.021491,0.052239,0.000119,1,0,0,0,0,0,0,-0.080552,-0.064098,0.003619,1,0,0,0,0,0,0,0.044330,-0.057374,-0.002335,1,0,0,0,0,0,0
2.980000,-0.021822,0.052188,0.000079,1,0,0,0,0,0,0,-0.077046,-0.060724,0.003287,1,0,0,0,0,0,0,0.041467,-0.056437,-0.002231,1,0,0,0,0,0,0
2.990000,-0.021928,0.052472,0.000033,1,0,0,0,0,0,0,-0.073646,-0.057320,0.002970,1,0,0,0,0,0,0,0.038684,-0.055424,-0.002126,1,0,0,0,0,0,0
3.000000,-0.021806,0.053061,-0.000018,1,0,0,0,0,0,0,-0.070363,-0.053905,0.002668,1,0,0,0,0,0,0,0.035999,-0.054301,-0.002021,1,0,0,0,0,0,0
3.010000,-0.021470,0.053913,-0.000071,1,0,0,0,0,0,0,-0.067267,-0.050510,0.002384,1,0,0,0,0,0,0,0.033496,-0.053096,-0.001916,1,0,0,0,0,0,0
3.020000,-0.020943,0.054995,-0.000126,1,0,0,0,0,0,0,-0.064408,-0.047174,0.002120,1,0,0,0,0,0,0,0.031309,-0.051897,-0.001815,1,0,0,0,0,0,0
3.030000,-0.020260,0.056303,-0.000182,1,0,0,0,0,0,0,-0.061859,-0.043973,0.001878,1,0,0,0,0,0,0,0.029600,-0.050834,-0.001722,1,0,0,0,0,0,0
3.040000,-0.019456,0.057856,-0.000238,1,0,0,0,0,0,0,-0.059717,-0.041022,0.001664,1,0,0,0,0,0,0,0.028489,-0.050022,-0.001639,1,0,0,0,0,0,0
3.050000,-0.018566,0.059680,-0.000294,1,0,0,0,0,0,0,-0.058006,-0.038436,0.001483,1,0,0,0,0,0,0,0.028003,-0.049506,-0.001568,1,0,0,0,0,0,0
3.060000,-0.017625,0.061785,-0.000350,1,0,0,0,0,0,0,-0.056693,-0.036293,0.001335,1,0,0,0,0,0,0,0.028086,-0.049253,-0.001507,1,0,0,0,0,0,0
3.070000,-0.016666,0.064139,-0.000404,1,0,0,0,0,0,0,-0.055758,-0.034659,0.001222,1,0,0,0,0,0,0,0.028693,-0.049214,-0.001455,1,0,0,0,0,0,0
3.080000,-0.015719,0.066681,-0.000456,1,0,0,0,0,0,0,-0.055202,-0.033583,0.001145,1,0,0,0,0,0,0,0.029803,-0.049352,-0.001412,1,0,0,0,0,0,0
3.090000,-0.014813,0.069337,-0.000503,1,0,0,0,0,0,0,-0.055000,-0.033048,0.001101,1,0,0,0,0,0,0,0.031380,-0.049639,-0.001378,1,0,0,0,0,0,0
3.100000,-0.013976,0.072037,-0.000544,1,0,0,0,0,0,0,-0.055132,-0.032988,0.001085,1,0,0,0,0,0,0,0.033399,-0.050088,-0.001354,1,0,0,0,0,0,0
3.110000,-0.013239,0.074739,-0.000580,1,0,0,0,0,0,0,-0.055635,-0.033373,0.001095,1,0,0,0,0,0,0,0.035874,-0.050750,-0.001344,1,0,0,0,0,0,0
3.120000,-0.012636,0.077439,-0.000612,1,0,0,0,0,0,0,-0.056563,-0.034206,0.001131,1,0,0,0,0,0,0,0.038813,-0.051686,-0.001350,1,0,0,0,0,0,0
3.130000,-0.012209,0.080146,-0.000640,1,0,0,0,0,0,0,-0.057875,-0.035453,0.001193,1,0,0,0,0,0,0,0.042173,-0.052917,-0.001376,1,0,0,0,0,0,0
3.140000,-0.011993,0.082849,-0.000665,1,0,0,0,0,0,0,-0.059438,-0.037054,0.001277,1,0,0,0,0,0,0,0.045850,-0.054406,-0.001424,1,0,0,0,0,0,0
3.150000,-0.012018,0.085500,-0.000687,1,0,0,0,0,0,0,-0.061092,-0.038968,0.001382,1,0,0,0,0,0,0,0.049726,-0.056092,-0.001491,1,0,0,0,0,0,0
3.160000,-0.012294,0.088041,-0.000708,1,0,0,0,0,0,0,-0.062694,-0.041187,0.001508,1,0,0,0,0,0,0,0.053718,-0.057937,-0.001578,1,0,0,0,0,0,0
3.170000,-0.012816,0.090452,-0.000729,1,0,0,0,0,0,0,-0.064074,-0.043603,0.001649,1,0,0,0,0,0,0,0.057769,-0.059928,-0.001685,1,0,0,0,0,0,0
3.180000,-0.013561,0.092771,-0.000750,1,0,0,0,0,0,0,-0.065161,-0.046035,0.001792,1,0,0,0,0,0,0,0.061828,-0.062058,-0.001813,1,0,0,0,0,0,0
3.190000,-0.014496,0.095099,-0.000775,1,0,0,0,0,0,0,-0.066052,-0.048375,0.001930,1,0,0,0,0,0,0,0.065863,-0.064341,-0.001963,1,0,0,0,0,0,0
3.200000,-0.015580,0.097549,-0.000806,1,0,0,0,0,0,0,-0.066922,-0.050580,0.002058,1,0,0,0,0,0,0,0.069863,-0.066799,-0.002138,1,0,0,0,0,0,0
3.210000,-0.016759,0.100191,-0.000845,1,0,0,0,0,0,0,-0.067908,-0.052605,0.002174,1,0,0,0,0,0,0,0.073798,-0.069431,-0.002338,1,0,0,0,0,0,0
3.220000,-0.017972,0.103027,-0.000893,1,0,0,0,0,0,0,-0.069080,-0.054435,0.002277,1,0,0,0,0,0,0,0.077593,-0.072183,-0.002559,1,0,0,0,0,0,0
3.230000,-0.019151,0.106008,-0.000949,1,0,0,0,0,0,0,-0.070500,-0.056098,0.002370,1,0,0,0,0,0,0,0.081131,-0.074954,-0.002794,1,0,0,0,0,0,0
3.240000,-0.020236,0.109066,-0.001012,1,0,0,0,0,0,0,-0.072190,-0.057645,0.002458,1,0,0,0,0,0,0,0.084270,-0.077626,-0.003030,1,0,0,0,0,0,0
3.250000,-0.021168,0.112130,-0.001081,1,0,0,0,0,0,0,-0.074136,-0.059122,0.002543,1,0,0,0,0,0,0,0.086905,-0.080104,-0.003258,1,0,0,0,0,0,0
3.260000,-0.021899,0.115136,-0.001152,1,0,0,0,0,0,0,-0.076352,-0.060567,0.002631,1,0,0,0,0,0,0,0.089028,-0.082374,-0.003472,1,0,0,0,0,0,0
3.270000,-0.022398,0.118013,-0.001222,1,0,0,0,0,0,0,-0.078831,-0.061997,0.002722,1,0,0,0,0,0,0,0.090734,-0.084503,-0.003677,1,0,0,0,0,0,0
3.280000,-0.022646,0.120695,-0.001289,1,0,0,0,0,0,0,-0.081467,-0.063392,0.002816,1,0,0,0,0,0,0,0.092162,-0.086579,-0.003879,1,0,0,0,0,0,0
3.290000,-0.022649,0.123131,-0.001350,1,0,0,0,0,0,0,-0.084118,-0.064714,0.002911,1,0,0,0,0,0,0,0.093426,-0.088636,-0.004079,1,0,0,0,0,0,0
3.300000,-0.022429,0.125292,-0.001402,1,0,0,0,0,0,0,-0.086681,-0.065924,0.003002,1,0,0,0,0,0,0,0.094578,-0.090632,-0.004273,1,0,0,0,0,0,0
3.310000,-0.022021,0.127175,-0.001446,1,0,0,0,0,0,0,-0.089145,-0.066992,0.003086,1,0,0,0,0,0,0,0.095633,-0.092494,-0.004454,1,0,0,0,0,0,0
3.320000,-0.021472,0.128786,-0.001480,1,0,0,0,0,0,0,-0.091601,-0.067906,0.003162,1,0,0,0,0,0,0,0.096610,-0.094169,-0.004617,1,0,0,0,0,0,0
3.330000,-0.020834,0.130139,-0.001505,1,0,0,0,0,0,0,-0.094166,-0.068684,0.003230,1,0,0,0,0,0,0,0.097565,-0.095670,-0.004761,1,0,0,0,0,0,0
3.340000,-0.020161,0.131259,-0.001521,1,0,0,0,0,0,0,-0.096928,-0.069380,0.003295,1,0,0,0,0,0,0,0.098576,-0.097048,-0.004893,1,0,0,0,0,0,0
3.350000,-0.019506,0.132180,-0.001529,1,0,0,0,0,0,0,-0.099894,-0.070088,0.003368,1,0,0,0,0,0,0,0.099708,-0.098358,-0.005018,1,0,0,0,0,0,0
3.360000,-0.018917,0.132947,-0.001531,1,0,0,0,0,0,0,-0.102980,-0.070917,0.003459,1,0,0,0,0,0,0,0.101039,-0.099648,-0.005143,1,0,0,0,0,0,0
3.370000,-0.018433,0.133592,-0.001528,1,0,0,0,0,0,0,-0.106081,-0.071955,0.003578,1,0,0,0,0,0,0,0.102651,-0.100964,-0.005272,1,0,0,0,0,0,0
3.380000,-0.018078,0.134111,-0.001521,1,0,0,0,0,0,0,-0.109116,-0.073217,0.003727,1,0,0,0,0,0,0,0.104577,-0.102320,-0.005408,1,0,0,0,0,0,0
3.390000,-0.017870,0.134470,-0.001510,1,0,0,0,0,0,0,-0.112070,-0.074638,0.003900,1,0,0,0,0,0,0,0.106757,-0.103675,-0.005549,1,0,0,0,0,0,0
3.400000,-0.017818,0.134638,-0.001494,1,0,0,0,0,0,0,-0.115004,-0.076156,0.004090,1,0,0,0,0,0,0,0.109065,-0.104940,-0.005685,1,0,0,0,0,0,0
3.410000,-0.017927,0.134617,-0.001476,1,0,0,0,0,0,0,-0.117997,-0.077759,0.004296,1,0,0,0,0,0,0,0.111368,-0.106003,-0.005805,1,0,0,0,0,0,0
3.420000,-0.018203,0.134456,-0.001457,1,0,0,0,0,0,0,-0.121075,-0.079496,0.004523,1,0,0,0,0,0,0,0.113557,-0.106766,-0.005896,1,0,0,0,0,0,0
3.430000,-0.018652,0.134233,-0.001438,1,0,0,0,0,0,0,-0.124218,-0.081445,0.004781,1,0,0,0,0,0,0,0.115606,-0.107211,-0.005956,1,0,0,0,0,0,0
3.440000,-0.019272,0.134020,-0.001421,1,0,0,0,0,0,0,-0.127354,-0.083633,0.005076,1,0,0,0,0,0,0,0.117567,-0.107404,-0.005992,1,0,0,0,0,0,0
3.450000,-0.020044,0.133858,-0.001409,1,0,0,0,0,0,0,-0.130380,-0.085984,0.005398,1,0,0,0,0,0,0,0.119473,-0.107434,-0.006014,1,0,0,0,0,0,0
3.460000,-0.020931,0.133759,-0.001401,1,0,0,0,0,0,0,-0.133193,-0.088342,0.005726,1,0,0,0,0,0,0,0.121282,-0.107350,-0.006026,1,0,0,0,0,0,0
3.470000,-0.021881,0.133737,-0.001399,1,0,0,0,0,0,0,-0.135713,-0.090542,0.006036,1,0,0,0,0,0,0,0.122885,-0.107129,-0.006026,1,0,0,0,0,0,0
3.480000,-0.022828,0.133819,-0.001403,1,0,0,0,0,0,0,-0.137887,-0.092480,0.006312,1,0,0,0,0,0,0,0.124161,-0.106709,-0.006006,1,0,0,0,0,0,0
3.490000,-0.023704,0.134051,-0.001414,1,0,0,0,0,0,0,-0.139669,-0.094121,0.006549,1,0,0,0,0,0,0,0.125027,-0.106040,-0.005957,1,0,0,0,0,0,0
3.500000,-0.024449,0.134471,-0.001433,1,0,0,0,0,0,0,-0.141021,-0.095471,0.006744,1,0,0,0,0,0,0,0.125458,-0.105126,-0.005881,1,0,0,0,0,0,0
3.510000,-0.025014,0.135070,-0.001459,1,0,0,0,0,0,0,-0.141894,-0.096517,0.006895,1,0,0,0,0,0,0,0.125451,-0.104011,-0.005782,1,0,0,0,0,0,0
3.520000,-0.025361,0.135760,-0.001490,1,0,0,0,0,0,0,-0.142221,-0.097196,0.006992,1,0,0,0,0,0,0,0.125022,-0.102765,-0.005669,1,0,0,0,0,0,0
3.530000,-0.025456,0.136388,-0.001519,1,0,0,0,0,0,0,-0.141972,-0.097434,0.007023,1,0,0,0,0,0,0,0.124194,-0.101460,-0.005550,1,0,0,0,0,0,0
3.540000,-0.025266,0.136787,-0.001543,1,0,0,0,0,0,0,-0.141159,-0.097190,0.006984,1,0,0,0,0,0,0,0.122969,-0.100115,-0.005428,1,0,0,0,0,0,0
3.550000,-0.024769,0.136833,-0.001556,1,0,0,0,0,0,0,-0.139857,-0.096469,0.006876,1,0,0,0,0,0,0,0.121317,-0.098696,-0.005298,1,0,0,0,0,0,0
3.560000,-0.023959,0.136488,-0.001557,1,0,0,0,0,0,0,-0.138195,-0.095321,0.006708,1,0,0,0,0,0,0,0.119207,-0.097143,-0.005152,1,0,0,0,0,0,0
3.570000,-0.022860,0.135775,-0.001547,1,0,0,0,0,0,0,-0.136353,-0.093810,0.006492,1,0,0,0,0,0,0,0.116656,-0.095424,-0.004988,1,0,0,0,0,0,0
3.580000,-0.021527,0.134730,-0.001526,1,0,0,0,0,0,0,-0.134535,-0.092018,0.006241,1,0,0,0,0,0,0,0.113773,-0.093582,-0.004811,1,0,0,0,0,0,0
3.590000,-0.020032,0.133371,-0.001495,1,0,0,0,0,0,0,-0.132853,-0.090037,0.005971,1,0,0,0,0,0,0,0.110746,-0.091726,-0.004634,1,0,0,0,0,0,0
3.600000,-0.018459,0.131715,-0.001456,1,0,0,0,0,0,0,-0.131272,-0.087962,0.005694,1,0,0,0,0,0,0,0.107763,-0.089969,-0.004470,1,0,0,0,0,0,0
3.610000,-0.016883,0.129799,-0.001410,1,0,0,0,0,0,0,-0.129681,-0.085882,0.005423,1,0,0,0,0,0,0,0.104950,-0.088368,-0.004323,1,0,0,0,0,0,0
3.620000,-0.015375,0.127693,-0.001359,1,0,0,0,0,0,0,-0.127935,-0.083861,0.005167,1,0,0,0,0,0,0,0.102351,-0.086897,-0.004191,1,0,0,0,0,0,0
3.630000,-0.013992,0.125474,-0.001306,1,0,0,0,0,0,0,-0.125930,-0.081909,0.004928,1,0,0,0,0,0,0,0.099966,-0.085494,-0.004066,1,0,0,0,0,0,0
3.640000,-0.012782,0.123202,-0.001251,1,0,0,0,0,0,0,-0.123647,-0.079979,0.004698,1,0,0,0,0,0,0,0.097800,-0.084113,-0.003943,1,0,0,0,0,0,0
3.650000,-0.011777,0.120915,-0.001197,1,0,0,0,0,0,0,-0.121155,-0.077998,0.004468,1,0,0,0,0,0,0,0.095881,-0.082768,-0.003824,1,0,0,0,0,0,0
3.660000,-0.010994,0.118638,-0.001143,1,0,0,0,0,0,0,-0.118575,-0.075942,0.004235,1,0,0,0,0,0,0,0.094239,-0.081504,-0.003713,1,0,0,0,0,0,0
3.670000,-0.010437,0.116394,-0.001089,1,0,0,0,0,0,0,-0.116017,-0.073842,0.004002,1,0,0,0,0,0,0,0.092896,-0.080369,-0.003615,1,0,0,0,0,0,0
3.680000,-0.010099,0.114211,-0.001038,1,0,0,0,0,0,0,-0.113518,-0.071757,0.003778,1,0,0,0,0,0,0,0.091875,-0.079394,-0.003532,1,0,0,0,0,0,0
3.690000,-0.009970,0.112135,-0.000989,1,0,0,0,0,0,0,-0.111096,-0.069766,0.003571,1,0,0,0,0,0,0,0.091193,-0.078576,-0.003464,1,0,0,0,0,0,0
3.700000,-0.010031,0.110222,-0.000943,1,0,0,0,0,0,0,-0.108773,-0.067941,0.003387,1,0,0,0,0,0,0,0.090850,-0.077878,-0.003408,1,0,0,0,0,0,0
3.710000,-0.010253,0.108532,-0.000901,1,0,0,0,0,0,0,-0.106546,-0.066289,0.003226,1,0,0,0,0,0,0,0.090786,-0.077227,-0.003356,1,0,0,0,0,0,0
3.720000,-0.010603,0.107126,-0.000865,1,0,0,0,0,0,0,-0.104444,-0.064811,0.003088,1,0,0,0,0,0,0,0.090896,-0.076523,-0.003301,1,0,0,0,0,0,0
3.730000,-0.011038,0.106067,-0.000834,1,0,0,0,0,0,0,-0.102505,-0.063528,0.002973,1,0,0,0,0,0,0,0.091053,-0.075677,-0.003233,1,0,0,0,0,0,0
3.740000,-0.011508,0.105404,-0.000810,1,0,0,0,0,0,0,-0.100719,-0.062463,0.002881,1,0,0,0,0,0,0,0.091163,-0.074644,-0.003151,1,0,0,0,0,0,0
3.750000,-0.011951,0.105158,-0.000794,1,0,0,0,0,0,0,-0.099042,-0.061634,0.002814,1,0,0,0,0,0,0,0.091223,-0.073461,-0.003057,1,0,0,0,0,0,0
3.760000,-0.012296,0.105318,-0.000784,1,0,0,0,0,0,0,-0.097409,-0.061017,0.002769,1,0,0,0,0,0,0,0.091288,-0.072216,-0.002959,1,0,0,0,0,0,0
3.770000,-0.012478,0.105831,-0.000781,1,0,0,0,0,0,0,-0.095782,-0.060551,0.002737,1,0,0,0,0,0,0,0.091407,-0.070994,-0.002866,1,0,0,0,0,0,0
3.780000,-0.012443,0.106627,-0.000783,1,0,0,0,0,0,0,-0.094166,-0.060151,0.002710,1,0,0,0,0,0,0,0.091584,-0.069837,-0.002781,1,0,0,0,0,0,0
3.790000,-0.012161,0.107647,-0.000788,1,0,0,0,0,0,0,-0.092598,-0.059754,0.002681,1,0,0,0,0,0,0,0.091752,-0.068731,-0.002703,1,0,0,0,0,0,0
3.800000,-0.011620,0.108837,-0.000795,1,0,0,0,0,0,0,-0.091143,-0.059364,0.002652,1,0,0,0,0,0,0,0.091815,-0.067638,-0.002629,1,0,0,0,0,0,0
3.810000,-0.010826,0.110121,-0.000800,1,0,0,0,0,0,0,-0.089843,-0.059023,0.002625,1,0,0,0,0,0,0,0.091702,-0.066541,-0.002555,1,0,0,0,0,0,0
3.820000,-0.009794,0.111380,-0.000802,1,0,0,0,0,0,0,-0.088661,-0.058756,0.002604,1,0,0,0,0,0,0,0.091372,-0.065443,-0.002484,1,0,0,0,0,0,0
3.830000,-0.008552,0.112462,-0.000798,1,0,0,0,0,0,0,-0.087500,-0.058541,0.002586,1,0,0,0,0,0,0,0.090799,-0.064344,-0.002413,1,0,0,0,0,0,0
3.840000,-0.007141,0.113256,-0.000787,1,0,0,0,0,0,0,-0.086252,-0.058311,0.002565,1,0,0,0,0,0,0,0.089992,-0.063254,-0.002344,1,0,0,0,0,0,0
3.850000,-0.005612,0.113745,-0.000769,1,0,0,0,0,0,0,-0.084831,-0.057966,0.002534,1,0,0,0,0,0,0,0.088995,-0.062202,-0.002280,1,0,0,0,0,0,0
3.860000,-0.004024,0.114006,-0.000745,1,0,0,0,0,0,0,-0.083187,-0.057405,0.002483,1,0,0,0,0,0,0,0.087875,-0.061230,-0.002223,1,0,0,0,0,0,0
3.870000,-0.002448,0.114145,-0.000717,1,0,0,0,0,0,0,-0.081320,-0.056564,0.002408,1,0,0,0,0,0,0,0.086689,-0.060366,-0.002176,1,0,0,0,0,0,0
3.880000,-0.000965,0.114243,-0.000684,1,0,0,0,0,0,0,-0.079288,-0.055441,0.002312,1,0,0,0,0,0,0,0.085462,-0.059603,-0.002138,1,0,0,0,0,0,0
3.890000,0.000350,0.114339,-0.000648,1,0,0,0,0,0,0,-0.077173,-0.054070,0.002198,1,0,0,0,0,0,0,0.084202,-0.058893,-0.002103,1,0,0,0,0,0,0
3.900000,0.001432,0.114436,-0.000610,1,0,0,0,0,0,0,-0.075048,-0.052499,0.002071,1,0,0,0,0,0,0,0.082949,-0.058193,-0.002068,1,0,0,0,0,0,0
3.910000,0.002241,0.114542,-0.000569,1,0,0,0,0,0,0,-0.072964,-0.050772,0.001937,1,0,0,0,0,0,0,0.081812,-0.057513,-0.002034,1,0,0,0,0,0,0
3.920000,0.002763,0.114677,-0.000527,1,0,0,0,0,0,0,-0.070948,-0.048926,0.001798,1,0,0,0,0,0,0,0.080952,-0.056924,-0.002006,1,0,0,0,0,0,0
3.930000,0.003005,0.114883,-0.000485,1,0,0,0,0,0,0,-0.069017,-0.046998,0.001659,1,0,0,0,0,0,0,0.080523,-0.056520,-0.001992,1,0,0,0,0,0,0
3.940000,0.002981,0.115213,-0.000444,1,0,0,0,0,0,0,-0.067238,-0.045026,0.001521,1,0,0,0,0,0,0,0.080576,-0.056340,-0.001995,1,0,0,0,0,0,0
3.950000,0.002714,0.115707,-0.000405,1,0,0,0,0,0,0,-0.065689,-0.043049,0.001388,1,0,0,0,0,0,0,0.081057,-0.056343,-0.002012,1,0,0,0,0,0,0
3.960000,0.002225,0.116377,-0.000368,1,0,0,0,0,0,0,-0.064453,-0.041110,0.001262,1,0,0,0,0,0,0,0.081878,-0.056442,-0.002037,1,0,0,0,0,0,0
3.970000,0.001542,0.117209,-0.000335,1,0,0,0,0,0,0,-0.063590,-0.039265,0.001146,1,0,0,0,0,0,0,0.082964,-0.056558,-0.002063,1,0,0,0,0,0,0
3.980000,0.000697,0.118194,-0.000306,1,0,0,0,0,0,0,-0.063092,-0.037578,0.001044,1,0,0,0,0,0,0,0.084268,-0.056662,-0.002089,1,0,0,0,0,0,0
3.990000,-0.000268,0.119350,-0.000282,1,0,0,0,0,0,0,-0.062873,-0.036115,0.000959,1,0,0,0,0,0,0,0.085785,-0.056790,-0.002118,1,0,0,0,0,0,0
4.000000,-0.001306,0.120727,-0.000265,1,0,0,0,0,0,0,-0.062771,-0.034905,0.000892,1,0,0,0,0,0,0,0.087533,-0.057009,-0.002155,1,0,0,0,0,0,0
4.010000,-0.002362,0.122459,-0.000254,1,0,0,0,0,0,0,-0.062719,-0.033980,0.000845,1,0,0,0,0,0,0,0.089581,-0.057408,-0.002211,1,0,0,0,0,0,0
4.020000,-0.003380,0.124819,-0.000252,1,0,0,0,0,0,0,-0.062817,-0.033388,0.000821,1,0,0,0,0,0,0,0.092091,-0.058097,-0.002295,1,0,0,0,0,0,0
4.030000,-0.004298,0.127794,-0.000259,1,0,0,0,0,0,0,-0.063089,-0.033060,0.000813,1,0,0,0,0,0,0,0.094998,-0.059018,-0.002404,1,0,0,0,0,0,0
4.040000,-0.005052,0.131264,-0.000274,1,0,0,0,0,0,0,-0.063577,-0.032916,0.000818,1,0,0,0,0,0,0,0.098163,-0.060053,-0.002528,1,0,0,0,0,0,0
4.050000,-0.005585,0.135099,-0.000296,1,0,0,0,0,0,0,-0.064359,-0.032926,0.000832,1,0,0,0,0,0,0,0.101453,-0.061111,-0.002659,1,0,0,0,0,0,0
4.060000,-0.005853,0.139176,-0.000324,1,0,0,0,0,0,0,-0.065487,-0.033097,0.000857,1,0,0,0,0,0,0,0.104761,-0.062154,-0.002793,1,0,0,0,0,0,0
4.070000,-0.005836,0.143375,-0.000353,1,0,0,0,0,0,0,-0.066961,-0.033463,0.000895,1,0,0,0,0,0,0,0.108017,-0.063191,-0.002931,1,0,0,0,0,0,0
4.080000,-0.005537,0.147574,-0.000381,1,0,0,0,0,0,0,-0.068747,-0.034073,0.000950,1,0,0,0,0,0,0,0.111195,-0.064270,-0.003079,1,0,0,0,0,0,0
4.090000,-0.004980,0.151647,-0.000405,1,0,0,0,0,0,0,-0.070810,-0.034978,0.001027,1,0,0,0,0,0,0,0.114291,-0.065439,-0.003241,1,0,0,0,0,0,0
4.100000,-0.004201,0.155484,-0.000423,1,0,0,0,0,0,0,-0.073079,-0.036190,0.001127,1,0,0,0,0,0,0,0.117292,-0.066723,-0.003420,1,0,0,0,0,0,0
4.110000,-0.003245,0.158993,-0.000432,1,0,0,0,0,0,0,-0.075465,-0.037671,0.001249,1,0,0,0,0,0,0,0.120173,-0.068115,-0.003617,1,0,0,0,0,0,0
4.120000,-0.002158,0.162104,-0.000433,1,0,0,0,0,0,0,-0.077867,-0.039343,0.001389,1,0,0,0,0,0,0,0.122873,-0.069567,-0.003823,1,0,0,0,0,0,0
4.130000,-0.000994,0.164768,-0.000424,1,0,0,0,0,0,0,-0.080211,-0.041139,0.001540,1,0,0,0,0,0,0,0.125304,-0.070998,-0.004031,1,0,0,0,0,0,0
4.140000,0.000193,0.166948,-0.000407,1,0,0,0,0,0,0,-0.082416,-0.042974,0.001698,1,0,0,0,0,0,0,0.127375,-0.072327,-0.004226,1,0,0,0,0,0,0
4.150000,0.001350,0.168633,-0.000383,1,0,0,0,0,0,0,-0.084390,-0.044742,0.001851,1,0,0,0,0,0,0,0.129034,-0.073506,-0.004403,1,0,0,0,0,0,0
4.160000,0.002440,0.169843,-0.000353,1,0,0,0,0,0,0,-0.086092,-0.046382,0.001994,1,0,0,0,0,0,0,0.130263,-0.074507,-0.004556,1,0,0,0,0,0,0
4.170000,0.003429,0.170632,-0.000319,1,0,0,0,0,0,0,-0.087546,-0.047904,0.002128,1,0,0,0,0,0,0,0.131072,-0.075325,-0.004683,1,0,0,0,0,0,0
4.180000,0.004283,0.171066,-0.000283,1,0,0,0,0,0,0,-0.088783,-0.049331,0.002254,1,0,0,0,0,0,0,0.131499,-0.075966,-0.004785,1,0,0,0,0,0,0
4.190000,0.004970,0.171194,-0.000244,1,0,0,0,0,0,0,-0.089814,-0.050653,0.002370,1,0,0,0,0,0,0,0.131586,-0.076445,-0.004864,1,0,0,0,0,0,0
4.200000,0.005468,0.171041,-0.000206,1,0,0,0,0,0,0,-0.090643,-0.051856,0.002474,1,0,0,0,0,0,0,0.131370,-0.076770,-0.004919,1,0,0,0,0,0,0
4.210000,0.005763,0.170598,-0.000168,1,0,0,0,0,0,0,-0.091270,-0.052923,0.002565,1,0,0,0,0,0,0,0.130892,-0.076954,-0.004952,1,0,0,0,0,0,0
4.220000,0.005851,0.169852,-0.000133,1,0,0,0,0,0,0,-0.091687,-0.053837,0.002641,1,0,0,0,0,0,0,0.130181,-0.077003,-0.004966,1,0,0,0,0,0,0
4.230000,0.005739,0.168797,-0.000100,1,0,0,0,0,0,0,-0.091879,-0.054586,0.002701,1,0,0,0,0,0,0,0.129249,-0.076908,-0.004958,1,0,0,0,0,0,0
4.240000,0.005440,0.167443,-0.000071,1,0,0,0,0,0,0,-0.091825,-0.055158,0.002743,1,0,0,0,0,0,0,0.128107,-0.076660,-0.004928,1,0,0,0,0,0,0
4.250000,0.004980,0.165816,-0.000047,1,0,0,0,0,0,0,-0.091487,-0.055536,0.002766,1,0,0,0,0,0,0,0.126767,-0.076254,-0.004877,1,0,0,0,0,0,0
4.260000,0.004391,0.163940,-0.000026,1,0,0,0,0,0,0,-0.090850,-0.055714,0.002769,1,0,0,0,0,0,0,0.125250,-0.075694,-0.004804,1,0,0,0,0,0,0
4.270000,0.003695,0.161842,-0.000009,1,0,0,0,0,0,0,-0.089917,-0.055699,0.002754,1,0,0,0,0,0,0,0.123583,-0.074988,-0.004713,1,0,0,0,0,0,0
4.280000,0.002897,0.159578,0.000004,1,0,0,0,0,0,0,-0.088693,-0.055496,0.002721,1,0,0,0,0,0,0,0.121796,-0.074151,-0.004606,1,0,0,0,0,0,0
4.290000,0.002000,0.157189,0.000014,1,0,0,0,0,0,0,-0.087178,-0.055102,0.002671,1,0,0,0,0,0,0,0.119916,-0.073195,-0.004485,1,0,0,0,0,0,0
4.300000,0.001020,0.154689,0.000022,1,0,0,0,0,0,0,-0.085383,-0.054519,0.002605,1,0,0,0,0,0,0,0.117986,-0.072147,-0.004354,1,0,0,0,0,0,0
4.310000,-0.000026,0.152088,0.000027,1,0,0,0,0,0,0,-0.083327,-0.053741,0.002523,1,0,0,0,0,0,0,0.116066,-0.071039,-0.004218,1,0,0,0,0,0,0
4.320000,-0.001113,0.149403,0.000029,1,0,0,0,0,0,0,-0.081035,-0.052763,0.002425,1,0,0,0,0,0,0,0.114189,-0.069894,-0.004080,1,0,0,0,0,0,0
