time,drone0_roll,drone0_pitch,drone0_yaw,drone0_des_qw,drone0_des_qx,drone0_des_qy,drone0_des_qz,drone0_err_x,drone0_err_y,drone0_err_z,drone1_roll,drone1_pitch,drone1_yaw,drone1_des_qw,drone1_des_qx,drone1_des_qy,drone1_des_qz,drone1_err_x,drone1_err_y,drone1_err_z,drone2_roll,drone2_pitch,drone2_yaw,drone2_des_qw,drone2_des_qx,drone2_des_qy,drone2_des_qz,drone2_err_x,drone2_err_y,drone2_err_z,drone3_roll,drone3_pitch,drone3_yaw,drone3_des_qw,drone3_des_qx,drone3_des_qy,drone3_des_qz,drone3_err_x,drone3_err_y,drone3_err_z,drone4_roll,drone4_pitch,drone4_yaw,drone4_des_qw,drone4_des_qx,drone4_des_qy,drone4_des_qz,drone4_err_x,drone4_err_y,drone4_err_z
0.000000,0.000000,0.000000,0.000000,1,0,0,0,0,0,0,0.000000,0.000000,0.000000,1,0,0,0,0,0,0,0.000000,0.000000,0.000000,1,0,0,0,0,0,0,0.000000,0.000000,0.000000,1,0,0,0,0,0,0,0.000000,0.000000,0.000000,1,0,0,0,0,0,0
0.010000,0.000001,0.000122,0.000000,1,0,0,0,0,0,0,0.000001,-0.000001,-0.000000,1,0,0,0,0,0,0,0.000001,-0.000001,-0.000000,1,0,0,0,0,0,0,0.000262,-0.000347,-0.000000,1,0,0,0,0,0,0,0.000001,-0.000001,-0.000000,1,0,0,0,0,0,0
0.020000,0.000003,0.000440,0.000000,1,0,0,0,0,0,0,0.000003,-0.000006,-0.000000,1,0,0,0,0,0,0,0.000003,-0.000006,-0.000000,1,0,0,0,0,0,0,0.000840,-0.001129,-0.000000,1,0,0,0,0,0,0,0.000003,-0.000006,-0.000000,1,0,0,0,0,0,0
0.030000,0.000008,0.000927,0.000000,1,0,0,0,0,0,0,0.000008,-0.000016,-0.000000,1,0,0,0,0,0,0,0.000008,-0.000016,-0.000000,1,0,0,0,0,0,0,0.001634,-0.002214,-0.000002,1,0,0,0,0,0,0,0.000008,-0.000016,-0.000000,1,0,0,0,0,0,0
0.040000,0.000015,0.001582,0.000000,1,0,0,0,0,0,0,0.000015,-0.000030,-0.000000,1,0,0,0,0,0,0,0.000015,-0.000030,-0.000000,1,0,0,0,0,0,0,0.002619,-0.003566,-0.000005,1,0,0,0,0,0,0,0.000015,-0.000030,-0.000000,1,0,0,0,0,0,0
0.050000,0.000025,0.002405,0.000000,1,0,0,0,0,0,0,0.000025,-0.000050,-0.000000,1,0,0,0,0,0,0,-0.000078,-0.000187,0.000000,1,0,0,0,0,0,0,0.003785,-0.005170,-0.000010,1,0,0,0,0,0,0,0.000111,-0.000023,0.000000,1,0,0,0,0,0,0
0.060000,0.000037,0.003402,0.000000,1,0,0,0,0,0,0,0.000037,-0.000073,-0.000000,1,0,0,0,0,0,0,-0.000158,-0.000336,0.000000,1,0,0,0,0,0,0,0.005124,-0.007015,-0.000018,1,0,0,0,0,0,0,0.000304,0.000012,0.000000,1,0,0,0,0,0,0
0.070000,0.000050,0.004568,0.000000,1,0,0,0,0,0,0,-0.000098,-0.000099,-0.000000,1,0,0,0,0,0,0,-0.000348,-0.000639,0.000000,1,0,0,0,0,0,0,0.006627,-0.009087,-0.000030,1,0,0,0,0,0,0,0.000522,0.000050,0.000000,1,0,0,0,0,0,0
0.080000,0.000066,0.005881,0.000000,1,0,0,0,0,0,0,-0.000322,-0.000128,0.000000,1,0,0,0,0,0,0,-0.000561,-0.000984,0.000000,1,0,0,0,0,0,0,0.008277,-0.011366,-0.000047,1,0,0,0,0,0,0,0.000905,0.000136,0.000000,1,0,0,0,0,0,0
0.090000,0.000083,0.007312,0.000000,1,0,0,0,0,0,0,-0.000493,-0.000162,0.000000,1,0,0,0,0,0,0,-0.000855,-0.001445,0.000001,1,0,0,0,0,0,0,0.010055,-0.013821,-0.000069,1,0,0,0,0,0,0,0.001340,0.000236,0.000000,1,0,0,0,0,0,0
0.100000,0.000102,0.008831,0.000000,1,0,0,0,0,0,0,-0.000822,-0.000196,0.000000,1,0,0,0,0,0,0,-0.001210,-0.001995,0.000001,1,0,0,0,0,0,0,0.011936,-0.016421,-0.000098,1,0,0,0,0,0,0,0.001891,0.000370,0.000000,1,0,0,0,0,0,0
0.110000,0.000122,0.010411,0.000001,1,0,0,0,0,0,0,-0.001247,-0.000232,0.000000,1,0,0,0,0,0,0,-0.001626,-0.002634,0.000002,1,0,0,0,0,0,0,0.013895,-0.019131,-0.000132,1,0,0,0,0,0,0,0.002549,0.000535,0.000001,1,0,0,0,0,0,0
0.120000,0.000144,0.012031,0.000001,1,0,0,0,0,0,0,-0.001657,-0.000271,0.000000,1,0,0,0,0,0,0,-0.002111,-0.003372,0.000003,1,0,0,0,0,0,0,0.015913,-0.021924,-0.000174,1,0,0,0,0,0,0,0.003299,0.000728,0.000001,1,0,0,0,0,0,0
0.130000,0.000166,0.013679,0.000001,1,0,0,0,0,0,0,-0.002249,-0.000307,0.000000,1,0,0,0,0,0,0,-0.002667,-0.004211,0.000005,1,0,0,0,0,0,0,0.017971,-0.024772,-0.000222,1,0,0,0,0,0,0,0.004163,0.000955,0.000002,1,0,0,0,0,0,0
0.140000,0.000190,0.015340,0.000001,1,0,0,0,0,0,0,-0.002837,-0.000345,0.000000,1,0,0,0,0,0,0,-0.003293,-0.005153,0.000008,1,0,0,0,0,0,0,0.020033,-0.027630,-0.000276,1,0,0,0,0,0,0,0.005139,0.001216,0.000003,1,0,0,0,0,0,0
0.150000,0.000215,0.017010,0.000002,1,0,0,0,0,0,0,-0.003557,-0.000378,0.000000,1,0,0,0,0,0,0,-0.003996,-0.006201,0.000012,1,0,0,0,0,0,0,0.022038,-0.030411,-0.000334,1,0,0,0,0,0,0,0.006229,0.001512,0.000005,1,0,0,0,0,0,0
0.160000,0.000240,0.018699,0.000002,1,0,0,0,0,0,0,-0.004335,-0.000408,0.000001,1,0,0,0,0,0,0,-0.004775,-0.007357,0.000017,1,0,0,0,0,0,0,0.023955,-0.033073,-0.000396,1,0,0,0,0,0,0,0.007442,0.001846,0.000007,1,0,0,0,0,0,0
0.170000,0.000266,0.020403,0.000003,1,0,0,0,0,0,0,-0.005223,-0.000432,0.000001,1,0,0,0,0,0,0,-0.005611,-0.008596,0.000024,1,0,0,0,0,0,0,0.025807,-0.035644,-0.000459,1,0,0,0,0,0,0,0.008779,0.002219,0.000010,1,0,0,0,0,0,0
0.180000,0.000292,0.022112,0.000003,1,0,0,0,0,0,0,-0.006201,-0.000448,0.000001,1,0,0,0,0,0,0,-0.006488,-0.009892,0.000031,1,0,0,0,0,0,0,0.027593,-0.038124,-0.000526,1,0,0,0,0,0,0,0.010219,0.002625,0.000014,1,0,0,0,0,0,0
0.190000,0.000319,0.023817,0.000004,1,0,0,0,0,0,0,-0.007291,-0.000453,0.000001,1,0,0,0,0,0,0,-0.007390,-0.011225,0.000041,1,0,0,0,0,0,0,0.029306,-0.040503,-0.000593,1,0,0,0,0,0,0,0.011725,0.003053,0.000019,1,0,0,0,0,0,0
0.200000,0.000345,0.025510,0.000004,1,0,0,0,0,0,0,-0.008477,-0.000447,0.000001,1,0,0,0,0,0,0,-0.008305,-0.012578,0.000051,1,0,0,0,0,0,0,0.030939,-0.042771,-0.000661,1,0,0,0,0,0,0,0.013272,0.003493,0.000024,1,0,0,0,0,0,0
0.210000,0.000372,0.027186,0.000005,1,0,0,0,0,0,0,-0.009775,-0.000425,0.000001,1,0,0,0,0,0,0,-0.009225,-0.013939,0.000063,1,0,0,0,0,0,0,0.032483,-0.044917,-0.000729,1,0,0,0,0,0,0,0.014839,0.003940,0.000030,1,0,0,0,0,0,0
0.220000,0.000398,0.028838,0.000005,1,0,0,0,0,0,0,-0.011155,-0.000387,0.000000,1,0,0,0,0,0,0,-0.010145,-0.015298,0.000076,1,0,0,0,0,0,0,0.033930,-0.046930,-0.000796,1,0,0,0,0,0,0,0.016411,0.004389,0.000037,1,0,0,0,0,0,0
0.230000,0.000425,0.030461,0.000006,1,0,0,0,0,0,0,-0.012599,-0.000330,-0.000000,1,0,0,0,0,0,0,-0.011056,-0.016647,0.000091,1,0,0,0,0,0,0,0.035274,-0.048800,-0.000861,1,0,0,0,0,0,0,0.017981,0.004838,0.000045,1,0,0,0,0,0,0
0.240000,0.000451,0.032047,0.000007,1,0,0,0,0,0,0,-0.014077,-0.000256,-0.000001,1,0,0,0,0,0,0,-0.011951,-0.017971,0.000106,1,0,0,0,0,0,0,0.036507,-0.050517,-0.000923,1,0,0,0,0,0,0,0.019537,0.005283,0.000053,1,0,0,0,0,0,0
0.250000,0.000476,0.033586,0.000008,1,0,0,0,0,0,0,-0.015562,-0.000164,-0.000002,1,0,0,0,0,0,0,-0.012820,-0.019259,0.000122,1,0,0,0,0,0,0,0.037623,-0.052073,-0.000980,1,0,0,0,0,0,0,0.021064,0.005720,0.000062,1,0,0,0,0,0,0
0.260000,0.000501,0.035067,0.000008,1,0,0,0,0,0,0,-0.017042,-0.000055,-0.000004,1,0,0,0,0,0,0,-0.013659,-0.020503,0.000138,1,0,0,0,0,0,0,0.038615,-0.053458,-0.001033,1,0,0,0,0,0,0,0.022543,0.006143,0.000071,1,0,0,0,0,0,0
0.270000,0.000526,0.036473,0.000009,1,0,0,0,0,0,0,-0.018511,0.000073,-0.000006,1,0,0,0,0,0,0,-0.014469,-0.021705,0.000155,1,0,0,0,0,0,0,0.039478,-0.054665,-0.001080,1,0,0,0,0,0,0,0.023957,0.006546,0.000080,1,0,0,0,0,0,0
0.280000,0.000550,0.037791,0.000010,1,0,0,0,0,0,0,-0.019961,0.000221,-0.000008,1,0,0,0,0,0,0,-0.015246,-0.022860,0.000173,1,0,0,0,0,0,0,0.040209,-0.055691,-0.001121,1,0,0,0,0,0,0,0.025299,0.006928,0.000090,1,0,0,0,0,0,0
0.290000,0.000572,0.039007,0.000010,1,0,0,0,0,0,0,-0.021379,0.000389,-0.000012,1,0,0,0,0,0,0,-0.015990,-0.023965,0.000190,1,0,0,0,0,0,0,0.040807,-0.056533,-0.001155,1,0,0,0,0,0,0,0.026568,0.007288,0.000099,1,0,0,0,0,0,0
0.300000,0.000594,0.040114,0.000011,1,0,0,0,0,0,0,-0.022748,0.000575,-0.000015,1,0,0,0,0,0,0,-0.016695,-0.025015,0.000207,1,0,0,0,0,0,0,0.041271,-0.057190,-0.001182,1,0,0,0,0,0,0,0.027765,0.007627,0.000108,1,0,0,0,0,0,0
0.310000,0.000615,0.041107,0.000012,1,0,0,0,0,0,0,-0.024050,0.000775,-0.000019,1,0,0,0,0,0,0,-0.017355,-0.025999,0.000224,1,0,0,0,0,0,0,0.041600,-0.057662,-0.001202,1,0,0,0,0,0,0,0.028886,0.007943,0.000117,1,0,0,0,0,0,0
0.320000,0.000635,0.041978,0.000012,1,0,0,0,0,0,0,-0.025267,0.000988,-0.000024,1,0,0,0,0,0,0,-0.017962,-0.026906,0.000240,1,0,0,0,0,0,0,0.041793,-0.057946,-0.001213,1,0,0,0,0,0,0,0.029922,0.008235,0.000125,1,0,0,0,0,0,0
0.330000,0.000653,0.042718,0.000013,1,0,0,0,0,0,0,-0.026385,0.001210,-0.000029,1,0,0,0,0,0,0,-0.018505,-0.027723,0.000255,1,0,0,0,0,0,0,0.041852,-0.058047,-0.001218,1,0,0,0,0,0,0,0.030864,0.008498,0.000133,1,0,0,0,0,0,0
0.340000,0.000670,0.043314,0.000013,1,0,0,0,0,0,0,-0.027396,0.001442,-0.000035,1,0,0,0,0,0,0,-0.018979,-0.028441,0.000269,1,0,0,0,0,0,0,0.041786,-0.057975,-0.001214,1,0,0,0,0,0,0,0.031697,0.008728,0.000140,1,0,0,0,0,0,0
0.350000,0.000685,0.043757,0.000014,1,0,0,0,0,0,0,-0.028294,0.001682,-0.000041,1,0,0,0,0,0,0,-0.019380,-0.029054,0.000280,1,0,0,0,0,0,0,0.041599,-0.057737,-0.001204,1,0,0,0,0,0,0,0.032412,0.008922,0.000146,1,0,0,0,0,0,0
0.360000,0.000698,0.044045,0.000014,1,0,0,0,0,0,0,-0.029079,0.001934,-0.000047,1,0,0,0,0,0,0,-0.019705,-0.029558,0.000290,1,0,0,0,0,0,0,0.041299,-0.057345,-0.001188,1,0,0,0,0,0,0,0.033002,0.009079,0.000151,1,0,0,0,0,0,0
0.370000,0.000709,0.044178,0.000014,1,0,0,0,0,0,0,-0.029746,0.002196,-0.000053,1,0,0,0,0,0,0,-0.019953,-0.029952,0.000298,1,0,0,0,0,0,0,0.040895,-0.056809,-0.001166,1,0,0,0,0,0,0,0.033462,0.009196,0.000155,1,0,0,0,0,0,0
0.380000,0.000717,0.044160,0.000014,1,0,0,0,0,0,0,-0.030290,0.002468,-0.000060,1,0,0,0,0,0,0,-0.020119,-0.030229,0.000304,1,0,0,0,0,0,0,0.040394,-0.056141,-0.001138,1,0,0,0,0,0,0,0.033791,0.009274,0.000158,1,0,0,0,0,0,0
0.390000,0.000722,0.043997,0.000014,1,0,0,0,0,0,0,-0.030705,0.002745,-0.000068,1,0,0,0,0,0,0,-0.020199,-0.030382,0.000307,1,0,0,0,0,0,0,0.039806,-0.055354,-0.001106,1,0,0,0,0,0,0,0.033985,0.009310,0.000159,1,0,0,0,0,0,0
0.400000,0.000724,0.043691,0.000014,1,0,0,0,0,0,0,-0.030988,0.003024,-0.000075,1,0,0,0,0,0,0,-0.020188,-0.030407,0.000307,1,0,0,0,0,0,0,0.039138,-0.054458,-0.001071,1,0,0,0,0,0,0,0.034039,0.009303,0.000158,1,0,0,0,0,0,0
0.410000,0.000721,0.043250,0.000014,1,0,0,0,0,0,0,-0.031136,0.003304,-0.000082,1,0,0,0,0,0,0,-0.020087,-0.030302,0.000305,1,0,0,0,0,0,0,0.038399,-0.053465,-0.001032,1,0,0,0,0,0,0,0.033949,0.009253,0.000157,1,0,0,0,0,0,0
0.420000,0.000715,0.042684,0.000014,1,0,0,0,0,0,0,-0.031150,0.003582,-0.000089,1,0,0,0,0,0,0,-0.019896,-0.030070,0.000301,1,0,0,0,0,0,0,0.037595,-0.052383,-0.000990,1,0,0,0,0,0,0,0.033713,0.009158,0.000153,1,0,0,0,0,0,0
0.430000,0.000704,0.042006,0.000013,1,0,0,0,0,0,0,-0.031029,0.003855,-0.000095,1,0,0,0,0,0,0,-0.019620,-0.029714,0.000294,1,0,0,0,0,0,0,0.036733,-0.051223,-0.000947,1,0,0,0,0,0,0,0.033333,0.009019,0.000149,1,0,0,0,0,0,0
0.440000,0.000688,0.041230,0.000013,1,0,0,0,0,0,0,-0.030774,0.004120,-0.000101,1,0,0,0,0,0,0,-0.019260,-0.029239,0.000284,1,0,0,0,0,0,0,0.035820,-0.049995,-0.000902,1,0,0,0,0,0,0,0.032815,0.008837,0.000143,1,0,0,0,0,0,0
0.450000,0.000667,0.040372,0.000012,1,0,0,0,0,0,0,-0.030386,0.004373,-0.000107,1,0,0,0,0,0,0,-0.018823,-0.028652,0.000273,1,0,0,0,0,0,0,0.034861,-0.048705,-0.000856,1,0,0,0,0,0,0,0.032163,0.008615,0.000136,1,0,0,0,0,0,0
0.460000,0.000638,0.039454,0.000012,1,0,0,0,0,0,0,-0.029869,0.004609,-0.000112,1,0,0,0,0,0,0,-0.018312,-0.027958,0.000260,1,0,0,0,0,0,0,0.033859,-0.047359,-0.000809,1,0,0,0,0,0,0,0.031380,0.008354,0.000128,1,0,0,0,0,0,0
0.470000,0.000602,0.038501,0.000011,1,0,0,0,0,0,0,-0.029227,0.004822,-0.000116,1,0,0,0,0,0,0,-0.017734,-0.027166,0.000245,1,0,0,0,0,0,0,0.032818,-0.045960,-0.000762,1,0,0,0,0,0,0,0.030474,0.008054,0.000119,1,0,0,0,0,0,0
0.480000,0.000557,0.037540,0.000011,1,0,0,0,0,0,0,-0.028464,0.005012,-0.000118,1,0,0,0,0,0,0,-0.017092,-0.026283,0.000230,1,0,0,0,0,0,0,0.031741,-0.044515,-0.000715,1,0,0,0,0,0,0,0.029450,0.007719,0.000109,1,0,0,0,0,0,0
0.490000,0.000501,0.036595,0.000010,1,0,0,0,0,0,0,-0.027584,0.005177,-0.000120,1,0,0,0,0,0,0,-0.016394,-0.025317,0.000213,1,0,0,0,0,0,0,0.030637,-0.043035,-0.000668,1,0,0,0,0,0,0,0.028317,0.007352,0.000098,1,0,0,0,0,0,0
0.500000,0.000434,0.035693,0.000010,1,0,0,0,0,0,0,-0.026593,0.005318,-0.000121,1,0,0,0,0,0,0,-0.015646,-0.024277,0.000196,1,0,0,0,0,0,0,0.029514,-0.041534,-0.000622,1,0,0,0,0,0,0,0.027085,0.006954,0.000088,1,0,0,0,0,0,0
0.510000,0.000355,0.034852,0.000009,1,0,0,0,0,0,0,-0.025497,0.005432,-0.000121,1,0,0,0,0,0,0,-0.014853,-0.023170,0.000179,1,0,0,0,0,0,0,0.028380,-0.040020,-0.000578,1,0,0,0,0,0,0,0.025764,0.006530,0.000077,1,0,0,0,0,0,0
0.520000,0.000262,0.034087,0.000009,1,0,0,0,0,0,0,-0.024299,0.005522,-0.000120,1,0,0,0,0,0,0,-0.014023,-0.022006,0.000162,1,0,0,0,0,0,0,0.027241,-0.038504,-0.000535,1,0,0,0,0,0,0,0.024365,0.006082,0.000066,1,0,0,0,0,0,0
0.530000,0.000157,0.033405,0.000009,1,0,0,0,0,0,0,-0.023003,0.005586,-0.000119,1,0,0,0,0,0,0,-0.013161,-0.020792,0.000145,1,0,0,0,0,0,0,0.026101,-0.036992,-0.000494,1,0,0,0,0,0,0,0.022896,0.005614,0.000055,1,0,0,0,0,0,0
0.540000,0.000040,0.032807,0.000008,1,0,0,0,0,0,0,-0.021616,0.005625,-0.000116,1,0,0,0,0,0,0,-0.012274,-0.019538,0.000128,1,0,0,0,0,0,0,0.024968,-0.035493,-0.000455,1,0,0,0,0,0,0,0.021368,0.005129,0.000045,1,0,0,0,0,0,0
0.550000,-0.000087,0.032287,0.000008,1,0,0,0,0,0,0,-0.020148,0.005639,-0.000113,1,0,0,0,0,0,0,-0.011372,-0.018253,0.000112,1,0,0,0,0,0,0,0.023845,-0.034015,-0.000418,1,0,0,0,0,0,0,0.019792,0.004632,0.000035,1,0,0,0,0,0,0
0.560000,-0.000223,0.031838,0.000007,1,0,0,0,0,0,0,-0.018610,0.005627,-0.000110,1,0,0,0,0,0,0,-0.010462,-0.016949,0.000098,1,0,0,0,0,0,0,0.022741,-0.032566,-0.000383,1,0,0,0,0,0,0,0.018175,0.004124,0.000026,1,0,0,0,0,0,0
0.570000,-0.000367,0.031450,0.000007,1,0,0,0,0,0,0,-0.017012,0.005591,-0.000106,1,0,0,0,0,0,0,-0.009556,-0.015638,0.000084,1,0,0,0,0,0,0,0.021660,-0.031155,-0.000351,1,0,0,0,0,0,0,0.016529,0.003610,0.000018,1,0,0,0,0,0,0
0.580000,-0.000518,0.031119,0.000006,1,0,0,0,0,0,0,-0.015365,0.005531,-0.000101,1,0,0,0,0,0,0,-0.008666,-0.014335,0.000072,1,0,0,0,0,0,0,0.020610,-0.029790,-0.000321,1,0,0,0,0,0,0,0.014864,0.003093,0.000011,1,0,0,0,0,0,0
0.590000,-0.000673,0.030833,0.000006,1,0,0,0,0,0,0,-0.013681,0.005449,-0.000097,1,0,0,0,0,0,0,-0.007808,-0.013058,0.000060,1,0,0,0,0,0,0,0.019595,-0.028479,-0.000294,1,0,0,0,0,0,0,0.013193,0.002580,0.000004,1,0,0,0,0,0,0
0.600000,-0.000832,0.030581,0.000005,1,0,0,0,0,0,0,-0.011968,0.005347,-0.000092,1,0,0,0,0,0,0,-0.007002,-0.011829,0.000051,1,0,0,0,0,0,0,0.018621,-0.027230,-0.000269,1,0,0,0,0,0,0,0.011531,0.002076,-0.000001,1,0,0,0,0,0,0
0.610000,-0.000992,0.030354,0.000004,1,0,0,0,0,0,0,-0.010237,0.005227,-0.000087,1,0,0,0,0,0,0,-0.006272,-0.010674,0.000042,1,0,0,0,0,0,0,0.017694,-0.026049,-0.000247,1,0,0,0,0,0,0,0.009896,0.001588,-0.000006,1,0,0,0,0,0,0
0.620000,-0.001153,0.030142,0.000003,1,0,0,0,0,0,0,-0.008497,0.005092,-0.000082,1,0,0,0,0,0,0,-0.005644,-0.009624,0.000036,1,0,0,0,0,0,0,0.016818,-0.024943,-0.000227,1,0,0,0,0,0,0,0.008310,0.001126,-0.000009,1,0,0,0,0,0,0
0.630000,-0.001313,0.029936,0.000002,1,0,0,0,0,0,0,-0.006759,0.004945,-0.000077,1,0,0,0,0,0,0,-0.005148,-0.008712,0.000030,1,0,0,0,0,0,0,0.015996,-0.023917,-0.000209,1,0,0,0,0,0,0,0.006800,0.000699,-0.000012,1,0,0,0,0,0,0
0.640000,-0.001471,0.029728,0.000001,1,0,0,0,0,0,0,-0.005033,0.004790,-0.000073,1,0,0,0,0,0,0,-0.004812,-0.007971,0.000026,1,0,0,0,0,0,0,0.015232,-0.022975,-0.000193,1,0,0,0,0,0,0,0.005395,0.000320,-0.000013,1,0,0,0,0,0,0
0.650000,-0.001625,0.029510,0.000000,1,0,0,0,0,0,0,-0.003329,0.004632,-0.000068,1,0,0,0,0,0,0,-0.004655,-0.007424,0.000023,1,0,0,0,0,0,0,0.014528,-0.022120,-0.000179,1,0,0,0,0,0,0,0.004131,0.000004,-0.000014,1,0,0,0,0,0,0
0.660000,-0.001775,0.029279,-0.000001,1,0,0,0,0,0,0,-0.001660,0.004475,-0.000064,1,0,0,0,0,0,0,-0.004680,-0.007080,0.000021,1,0,0,0,0,0,0,0.013885,-0.021354,-0.000167,1,0,0,0,0,0,0,0.003042,-0.000235,-0.000014,1,0,0,0,0,0,0
0.670000,-0.001920,0.029034,-0.000002,1,0,0,0,0,0,0,-0.000040,0.004327,-0.000061,1,0,0,0,0,0,0,-0.004872,-0.006924,0.000020,1,0,0,0,0,0,0,0.013305,-0.020679,-0.000157,1,0,0,0,0,0,0,0.002161,-0.000386,-0.000014,1,0,0,0,0,0,0
0.680000,-0.002061,0.028778,-0.000003,1,0,0,0,0,0,0,0.001514,0.004197,-0.000057,1,0,0,0,0,0,0,-0.005223,-0.006950,0.000020,1,0,0,0,0,0,0,0.012788,-0.020094,-0.000148,1,0,0,0,0,0,0,0.001510,-0.000438,-0.000013,1,0,0,0,0,0,0
0.690000,-0.002196,0.028516,-0.000004,1,0,0,0,0,0,0,0.002982,0.004092,-0.000054,1,0,0,0,0,0,0,-0.005722,-0.007150,0.000021,1,0,0,0,0,0,0,0.012334,-0.019597,-0.000141,1,0,0,0,0,0,0,0.001097,-0.000391,-0.000012,1,0,0,0,0,0,0
0.700000,-0.002327,0.028253,-0.000005,1,0,0,0,0,0,0,0.004339,0.004026,-0.000050,1,0,0,0,0,0,0,-0.006330,-0.007485,0.000023,1,0,0,0,0,0,0,0.011941,-0.019186,-0.000135,1,0,0,0,0,0,0,0.000912,-0.000249,-0.000011,1,0,0,0,0,0,0
0.710000,-0.002453,0.027996,-0.000006,1,0,0,0,0,0,0,0.005557,0.004012,-0.000047,1,0,0,0,0,0,0,-0.006997,-0.007902,0.000026,1,0,0,0,0,0,0,0.011609,-0.018859,-0.000130,1,0,0,0,0,0,0,0.000959,-0.000015,-0.000010,1,0,0,0,0,0,0
0.720000,-0.002576,0.027750,-0.000007,1,0,0,0,0,0,0,0.006606,0.004062,-0.000043,1,0,0,0,0,0,0,-0.007671,-0.008347,0.000029,1,0,0,0,0,0,0,0.011339,-0.018614,-0.000125,1,0,0,0,0,0,0,0.001225,0.000307,-0.000009,1,0,0,0,0,0,0
0.730000,-0.002693,0.027517,-0.000008,1,0,0,0,0,0,0,0.007454,0.004193,-0.000039,1,0,0,0,0,0,0,-0.008319,-0.008784,0.000033,1,0,0,0,0,0,0,0.011129,-0.018449,-0.000122,1,0,0,0,0,0,0,0.001672,0.000696,-0.000008,1,0,0,0,0,0,0
0.740000,-0.002807,0.027298,-0.000009,1,0,0,0,0,0,0,0.008075,0.004417,-0.000034,1,0,0,0,0,0,0,-0.008929,-0.009200,0.000036,1,0,0,0,0,0,0,0.010980,-0.018363,-0.000120,1,0,0,0,0,0,0,0.002244,0.001128,-0.000007,1,0,0,0,0,0,0
0.750000,-0.002915,0.027090,-0.000010,1,0,0,0,0,0,0,0.008450,0.004743,-0.000028,1,0,0,0,0,0,0,-0.009502,-0.009595,0.000040,1,0,0,0,0,0,0,0.010893,-0.018355,-0.000119,1,0,0,0,0,0,0,0.002879,0.001574,-0.000005,1,0,0,0,0,0,0
0.760000,-0.003016,0.026890,-0.000011,1,0,0,0,0,0,0,0.008571,0.005171,-0.000021,1,0,0,0,0,0,0,-0.010052,-0.009986,0.000044,1,0,0,0,0,0,0,0.010868,-0.018425,-0.000119,1,0,0,0,0,0,0,0.003534,0.002014,-0.000003,1,0,0,0,0,0,0
0.770000,-0.003111,0.026695,-0.000013,1,0,0,0,0,0,0,0.008446,0.005695,-0.000014,1,0,0,0,0,0,0,-0.010593,-0.010390,0.000049,1,0,0,0,0,0,0,0.010906,-0.018571,-0.000119,1,0,0,0,0,0,0,0.004190,0.002441,-0.000001,1,0,0,0,0,0,0
0.780000,-0.003196,0.026503,-0.000014,1,0,0,0,0,0,0,0.008081,0.006308,-0.000006,1,0,0,0,0,0,0,-0.011127,-0.010816,0.000054,1,0,0,0,0,0,0,0.011006,-0.018795,-0.000120,1,0,0,0,0,0,0,0.004840,0.002850,0.000001,1,0,0,0,0,0,0
0.790000,-0.003272,0.026312,-0.000015,1,0,0,0,0,0,0,0.007473,0.007007,0.000001,1,0,0,0,0,0,0,-0.011650,-0.011260,0.000059,1,0,0,0,0,0,0,0.011172,-0.019097,-0.000123,1,0,0,0,0,0,0,0.005493,0.003244,0.000003,1,0,0,0,0,0,0
0.800000,-0.003338,0.026125,-0.000016,1,0,0,0,0,0,0,0.006645,0.007776,0.000008,1,0,0,0,0,0,0,-0.012145,-0.011706,0.000065,1,0,0,0,0,0,0,0.011403,-0.019480,-0.000126,1,0,0,0,0,0,0,0.006174,0.003632,0.000006,1,0,0,0,0,0,0
0.810000,-0.003393,0.025941,-0.000017,1,0,0,0,0,0,0,0.005645,0.008581,0.000015,1,0,0,0,0,0,0,-0.012595,-0.012135,0.000071,1,0,0,0,0,0,0,0.011702,-0.019946,-0.000131,1,0,0,0,0,0,0,0.006899,0.004019,0.000009,1,0,0,0,0,0,0
0.820000,-0.003437,0.025764,-0.000018,1,0,0,0,0,0,0,0.004544,0.009380,0.000019,1,0,0,0,0,0,0,-0.012988,-0.012531,0.000076,1,0,0,0,0,0,0,0.012069,-0.020498,-0.000136,1,0,0,0,0,0,0,0.007673,0.004403,0.000012,1,0,0,0,0,0,0
0.830000,-0.003469,0.025598,-0.000019,1,0,0,0,0,0,0,0.003403,0.010137,0.000023,1,0,0,0,0,0,0,-0.013315,-0.012881,0.000081,1,0,0,0,0,0,0,0.012507,-0.021139,-0.000143,1,0,0,0,0,0,0,0.008483,0.004779,0.000015,1,0,0,0,0,0,0
0.840000,-0.003489,0.025450,-0.000020,1,0,0,0,0,0,0,0.002265,0.010830,0.000025,1,0,0,0,0,0,0,-0.013576,-0.013180,0.000085,1,0,0,0,0,0,0,0.013016,-0.021869,-0.000152,1,0,0,0,0,0,0,0.009308,0.005137,0.000019,1,0,0,0,0,0,0
0.850000,-0.003498,0.025329,-0.000021,1,0,0,0,0,0,0,0.001146,0.011452,0.000025,1,0,0,0,0,0,0,-0.013773,-0.013430,0.000089,1,0,0,0,0,0,0,0.013596,-0.022690,-0.000162,1,0,0,0,0,0,0,0.010119,0.005465,0.000022,1,0,0,0,0,0,0
0.860000,-0.003498,0.025249,-0.000022,1,0,0,0,0,0,0,0.000051,0.012003,0.000025,1,0,0,0,0,0,0,-0.013910,-0.013634,0.000092,1,0,0,0,0,0,0,0.014245,-0.023599,-0.000174,1,0,0,0,0,0,0,0.010891,0.005758,0.000026,1,0,0,0,0,0,0
0.870000,-0.003488,0.025229,-0.000024,1,0,0,0,0,0,0,-0.001035,0.012490,0.000023,1,0,0,0,0,0,0,-0.013994,-0.013795,0.000094,1,0,0,0,0,0,0,0.014961,-0.024592,-0.000188,1,0,0,0,0,0,0,0.011608,0.006011,0.000029,1,0,0,0,0,0,0
0.880000,-0.003470,0.025289,-0.000025,1,0,0,0,0,0,0,-0.002153,0.012928,0.000021,1,0,0,0,0,0,0,-0.014030,-0.013921,0.000096,1,0,0,0,0,0,0,0.015737,-0.025661,-0.000204,1,0,0,0,0,0,0,0.012267,0.006226,0.000032,1,0,0,0,0,0,0
0.890000,-0.003446,0.025451,-0.000027,1,0,0,0,0,0,0,-0.003337,0.013326,0.000018,1,0,0,0,0,0,0,-0.014030,-0.014022,0.000098,1,0,0,0,0,0,0,0.016568,-0.026797,-0.000223,1,0,0,0,0,0,0,0.012868,0.006404,0.000034,1,0,0,0,0,0,0
0.900000,-0.003416,0.025732,-0.000029,1,0,0,0,0,0,0,-0.004602,0.013684,0.000014,1,0,0,0,0,0,0,-0.014003,-0.014111,0.000099,1,0,0,0,0,0,0,0.017445,-0.027988,-0.000243,1,0,0,0,0,0,0,0.013416,0.006549,0.000037,1,0,0,0,0,0,0
0.910000,-0.003382,0.026143,-0.000031,1,0,0,0,0,0,0,-0.005949,0.013998,0.000010,1,0,0,0,0,0,0,-0.013964,-0.014202,0.000100,1,0,0,0,0,0,0,0.018360,-0.029222,-0.000265,1,0,0,0,0,0,0,0.013919,0.006664,0.000039,1,0,0,0,0,0,0
0.920000,-0.003343,0.026685,-0.000034,1,0,0,0,0,0,0,-0.007389,0.014259,0.000006,1,0,0,0,0,0,0,-0.013924,-0.014307,0.000102,1,0,0,0,0,0,0,0.019304,-0.030486,-0.000289,1,0,0,0,0,0,0,0.014382,0.006754,0.000040,1,0,0,0,0,0,0
0.930000,-0.003299,0.027354,-0.000037,1,0,0,0,0,0,0,-0.008896,0.014457,0.000001,1,0,0,0,0,0,0,-0.013890,-0.014435,0.000104,1,0,0,0,0,0,0,0.020268,-0.031768,-0.000314,1,0,0,0,0,0,0,0.014822,0.006825,0.000042,1,0,0,0,0,0,0
0.940000,-0.003250,0.028139,-0.000040,1,0,0,0,0,0,0,-0.010429,0.014578,-0.000004,1,0,0,0,0,0,0,-0.013865,-0.014590,0.000106,1,0,0,0,0,0,0,0.021242,-0.033054,-0.000341,1,0,0,0,0,0,0,0.015253,0.006884,0.000043,1,0,0,0,0,0,0
0.950000,-0.003195,0.029026,-0.000043,1,0,0,0,0,0,0,-0.011944,0.014617,-0.000009,1,0,0,0,0,0,0,-0.013849,-0.014770,0.000108,1,0,0,0,0,0,0,0.022218,-0.034334,-0.000370,1,0,0,0,0,0,0,0.015691,0.006938,0.000045,1,0,0,0,0,0,0
0.960000,-0.003135,0.030004,-0.000047,1,0,0,0,0,0,0,-0.013407,0.014571,-0.000013,1,0,0,0,0,0,0,-0.013840,-0.014973,0.000110,1,0,0,0,0,0,0,0.023189,-0.035601,-0.000399,1,0,0,0,0,0,0,0.016147,0.006992,0.000046,1,0,0,0,0,0,0
0.970000,-0.003068,0.031062,-0.000050,1,0,0,0,0,0,0,-0.014792,0.014445,-0.000016,1,0,0,0,0,0,0,-0.013838,-0.015196,0.000113,1,0,0,0,0,0,0,0.024152,-0.036852,-0.000429,1,0,0,0,0,0,0,0.016623,0.007047,0.000048,1,0,0,0,0,0,0
0.980000,-0.002995,0.032183,-0.000053,1,0,0,0,0,0,0,-0.016093,0.014242,-0.000018,1,0,0,0,0,0,0,-0.013838,-0.015435,0.000116,1,0,0,0,0,0,0,0.025107,-0.038089,-0.000461,1,0,0,0,0,0,0,0.017115,0.007103,0.000049,1,0,0,0,0,0,0
0.990000,-0.002914,0.033344,-0.000057,1,0,0,0,0,0,0,-0.017310,0.013966,-0.000019,1,0,0,0,0,0,0,-0.013835,-0.015682,0.000119,1,0,0,0,0,0,0,0.026056,-0.039317,-0.000493,1,0,0,0,0,0,0,0.017619,0.007159,0.000051,1,0,0,0,0,0,0
1.000000,-0.002826,0.034513,-0.000060,1,0,0,0,0,0,0,-0.018444,0.013620,-0.000019,1,0,0,0,0,0,0,-0.013836,-0.015941,0.000122,1,0,0,0,0,0,0,0.027004,-0.040542,-0.000527,1,0,0,0,0,0,0,0.018130,0.007212,0.000052,1,0,0,0,0,0,0
1.010000,-0.002730,0.035672,-0.000062,1,0,0,0,0,0,0,-0.019495,0.013212,-0.000017,1,0,0,0,0,0,0,-0.013844,-0.016218,0.000125,1,0,0,0,0,0,0,0.027954,-0.041775,-0.000562,1,0,0,0,0,0,0,0.018642,0.007262,0.000054,1,0,0,0,0,0,0
1.020000,-0.002631,0.036835,-0.000065,1,0,0,0,0,0,0,-0.020469,0.012745,-0.000014,1,0,0,0,0,0,0,-0.013854,-0.016505,0.000128,1,0,0,0,0,0,0,0.028917,-0.043030,-0.000599,1,0,0,0,0,0,0,0.019144,0.007305,0.000056,1,0,0,0,0,0,0
1.030000,-0.002527,0.038013,-0.000067,1,0,0,0,0,0,0,-0.021374,0.012224,-0.000010,1,0,0,0,0,0,0,-0.013859,-0.016791,0.000131,1,0,0,0,0,0,0,0.029893,-0.044313,-0.000638,1,0,0,0,0,0,0,0.019622,0.007336,0.000057,1,0,0,0,0,0,0
1.040000,-0.002422,0.039203,-0.000069,1,0,0,0,0,0,0,-0.022228,0.011651,-0.000005,1,0,0,0,0,0,0,-0.013853,-0.017065,0.000134,1,0,0,0,0,0,0,0.030882,-0.045623,-0.000679,1,0,0,0,0,0,0,0.020065,0.007351,0.000058,1,0,0,0,0,0,0
1.050000,-0.002315,0.040403,-0.000070,1,0,0,0,0,0,0,-0.023049,0.011029,0.000002,1,0,0,0,0,0,0,-0.013831,-0.017322,0.000137,1,0,0,0,0,0,0,0.031878,-0.046956,-0.000722,1,0,0,0,0,0,0,0.020473,0.007351,0.000059,1,0,0,0,0,0,0
1.060000,-0.002207,0.041605,-0.000072,1,0,0,0,0,0,0,-0.023849,0.010364,0.000010,1,0,0,0,0,0,0,-0.013801,-0.017567,0.000139,1,0,0,0,0,0,0,0.032876,-0.048305,-0.000768,1,0,0,0,0,0,0,0.020861,0.007341,0.000060,1,0,0,0,0,0,0
1.070000,-0.002101,0.042803,-0.000073,1,0,0,0,0,0,0,-0.024637,0.009664,0.000019,1,0,0,0,0,0,0,-0.013767,-0.017806,0.000142,1,0,0,0,0,0,0,0.033867,-0.049660,-0.000814,1,0,0,0,0,0,0,0.021239,0.007326,0.000061,1,0,0,0,0,0,0
1.080000,-0.001996,0.043986,-0.000074,1,0,0,0,0,0,0,-0.025416,0.008940,0.000029,1,0,0,0,0,0,0,-0.013732,-0.018041,0.000144,1,0,0,0,0,0,0,0.034844,-0.051014,-0.000863,1,0,0,0,0,0,0,0.021607,0.007305,0.000061,1,0,0,0,0,0,0
1.090000,-0.001894,0.045141,-0.000074,1,0,0,0,0,0,0,-0.026195,0.008203,0.000039,1,0,0,0,0,0,0,-0.013696,-0.018269,0.000146,1,0,0,0,0,0,0,0.035802,-0.052357,-0.000912,1,0,0,0,0,0,0,0.021960,0.007277,0.000062,1,0,0,0,0,0,0
1.100000,-0.001795,0.046257,-0.000074,1,0,0,0,0,0,0,-0.026970,0.007453,0.000051,1,0,0,0,0,0,0,-0.013653,-0.018483,0.000147,1,0,0,0,0,0,0,0.036732,-0.053682,-0.000961,1,0,0,0,0,0,0,0.022291,0.007241,0.000062,1,0,0,0,0,0,0
1.110000,-0.001700,0.047322,-0.000074,1,0,0,0,0,0,0,-0.027728,0.006692,0.000063,1,0,0,0,0,0,0,-0.013593,-0.018669,0.000149,1,0,0,0,0,0,0,0.037629,-0.054978,-0.001011,1,0,0,0,0,0,0,0.022598,0.007197,0.000062,1,0,0,0,0,0,0
1.120000,-0.001609,0.048327,-0.000074,1,0,0,0,0,0,0,-0.028455,0.005922,0.000075,1,0,0,0,0,0,0,-0.013516,-0.018825,0.000150,1,0,0,0,0,0,0,0.038485,-0.056235,-0.001060,1,0,0,0,0,0,0,0.022880,0.007145,0.000062,1,0,0,0,0,0,0
1.130000,-0.001523,0.049266,-0.000073,1,0,0,0,0,0,0,-0.029136,0.005145,0.000088,1,0,0,0,0,0,0,-0.013441,-0.018972,0.000150,1,0,0,0,0,0,0,0.039293,-0.057441,-0.001109,1,0,0,0,0,0,0,0.023135,0.007086,0.000062,1,0,0,0,0,0,0
1.140000,-0.001443,0.050137,-0.000073,1,0,0,0,0,0,0,-0.029757,0.004362,0.000101,1,0,0,0,0,0,0,-0.013378,-0.019118,0.000151,1,0,0,0,0,0,0,0.040044,-0.058584,-0.001155,1,0,0,0,0,0,0,0.023362,0.007021,0.000061,1,0,0,0,0,0,0
1.150000,-0.001369,0.050937,-0.000072,1,0,0,0,0,0,0,-0.030305,0.003574,0.000115,1,0,0,0,0,0,0,-0.013330,-0.019268,0.000151,1,0,0,0,0,0,0,0.040735,-0.059656,-0.001200,1,0,0,0,0,0,0,0.023561,0.006950,0.000061,1,0,0,0,0,0,0
1.160000,-0.001302,0.051667,-0.000070,1,0,0,0,0,0,0,-0.030771,0.002784,0.000129,1,0,0,0,0,0,0,-0.013304,-0.019425,0.000152,1,0,0,0,0,0,0,0.041363,-0.060654,-0.001242,1,0,0,0,0,0,0,0.023725,0.006872,0.000060,1,0,0,0,0,0,0
1.170000,-0.001242,0.052328,-0.000069,1,0,0,0,0,0,0,-0.031151,0.001994,0.000143,1,0,0,0,0,0,0,-0.013302,-0.019592,0.000153,1,0,0,0,0,0,0,0.041929,-0.061575,-0.001281,1,0,0,0,0,0,0,0.023835,0.006781,0.000060,1,0,0,0,0,0,0
1.180000,-0.001191,0.052918,-0.000068,1,0,0,0,0,0,0,-0.031459,0.001199,0.000158,1,0,0,0,0,0,0,-0.013323,-0.019769,0.000154,1,0,0,0,0,0,0,0.042433,-0.062423,-0.001318,1,0,0,0,0,0,0,0.023874,0.006670,0.000058,1,0,0,0,0,0,0
1.190000,-0.001148,0.053444,-0.000066,1,0,0,0,0,0,0,-0.031697,0.000396,0.000173,1,0,0,0,0,0,0,-0.013368,-0.019954,0.000155,1,0,0,0,0,0,0,0.042880,-0.063199,-0.001352,1,0,0,0,0,0,0,0.023842,0.006538,0.000056,1,0,0,0,0,0,0
1.200000,-0.001115,0.053922,-0.000064,1,0,0,0,0,0,0,-0.031863,-0.000414,0.000188,1,0,0,0,0,0,0,-0.013437,-0.020149,0.000156,1,0,0,0,0,0,0,0.043273,-0.063906,-0.001382,1,0,0,0,0,0,0,0.023760,0.006396,0.000054,1,0,0,0,0,0,0
1.210000,-0.001094,0.054367,-0.000063,1,0,0,0,0,0,0,-0.031952,-0.001226,0.000203,1,0,0,0,0,0,0,-0.013530,-0.020355,0.000158,1,0,0,0,0,0,0,0.043611,-0.064543,-0.001410,1,0,0,0,0,0,0,0.023638,0.006248,0.000052,1,0,0,0,0,0,0
1.220000,-0.001086,0.054791,-0.000061,1,0,0,0,0,0,0,-0.031965,-0.002037,0.000218,1,0,0,0,0,0,0,-0.013634,-0.020559,0.000159,1,0,0,0,0,0,0,0.043896,-0.065104,-0.001435,1,0,0,0,0,0,0,0.023479,0.006095,0.000050,1,0,0,0,0,0,0
1.230000,-0.001089,0.055204,-0.000060,1,0,0,0,0,0,0,-0.031900,-0.002838,0.000232,1,0,0,0,0,0,0,-0.013726,-0.020736,0.000161,1,0,0,0,0,0,0,0.044125,-0.065582,-0.001456,1,0,0,0,0,0,0,0.023289,0.005940,0.000047,1,0,0,0,0,0,0
1.240000,-0.001105,0.055613,-0.000058,1,0,0,0,0,0,0,-0.031764,-0.003623,0.000246,1,0,0,0,0,0,0,-0.013812,-0.020892,0.000162,1,0,0,0,0,0,0,0.044295,-0.065969,-0.001472,1,0,0,0,0,0,0,0.023075,0.005785,0.000045,1,0,0,0,0,0,0
1.250000,-0.001133,0.056020,-0.000057,1,0,0,0,0,0,0,-0.031556,-0.004383,0.000259,1,0,0,0,0,0,0,-0.013906,-0.021043,0.000163,1,0,0,0,0,0,0,0.044407,-0.066256,-0.001485,1,0,0,0,0,0,0,0.022840,0.005632,0.000043,1,0,0,0,0,0,0
1.260000,-0.001170,0.056422,-0.000056,1,0,0,0,0,0,0,-0.031278,-0.005110,0.000271,1,0,0,0,0,0,0,-0.014010,-0.021194,0.000164,1,0,0,0,0,0,0,0.044457,-0.066437,-0.001492,1,0,0,0,0,0,0,0.022589,0.005482,0.000041,1,0,0,0,0,0,0
1.270000,-0.001215,0.056813,-0.000055,1,0,0,0,0,0,0,-0.030927,-0.005798,0.000281,1,0,0,0,0,0,0,-0.014126,-0.021347,0.000165,1,0,0,0,0,0,0,0.044445,-0.066505,-0.001494,1,0,0,0,0,0,0,0.022324,0.005335,0.000039,1,0,0,0,0,0,0
1.280000,-0.001267,0.057180,-0.000054,1,0,0,0,0,0,0,-0.030502,-0.006442,0.000289,1,0,0,0,0,0,0,-0.014257,-0.021505,0.000166,1,0,0,0,0,0,0,0.044371,-0.066457,-0.001491,1,0,0,0,0,0,0,0.022047,0.005191,0.000037,1,0,0,0,0,0,0
1.290000,-0.001322,0.057509,-0.000053,1,0,0,0,0,0,0,-0.030006,-0.007039,0.000296,1,0,0,0,0,0,0,-0.014402,-0.021670,0.000168,1,0,0,0,0,0,0,0.044238,-0.066294,-0.001483,1,0,0,0,0,0,0,0.021762,0.005052,0.000035,1,0,0,0,0,0,0
1.300000,-0.001379,0.057786,-0.000053,1,0,0,0,0,0,0,-0.029432,-0.007584,0.000300,1,0,0,0,0,0,0,-0.014560,-0.021839,0.000170,1,0,0,0,0,0,0,0.044050,-0.066024,-0.001470,1,0,0,0,0,0,0,0.021474,0.004919,0.000033,1,0,0,0,0,0,0
1.310000,-0.001435,0.057995,-0.000052,1,0,0,0,0,0,0,-0.028778,-0.008079,0.000304,1,0,0,0,0,0,0,-0.014727,-0.022011,0.000171,1,0,0,0,0,0,0,0.043815,-0.065658,-0.001453,1,0,0,0,0,0,0,0.021185,0.004792,0.000032,1,0,0,0,0,0,0
1.320000,-0.001488,0.058124,-0.000052,1,0,0,0,0,0,0,-0.028040,-0.008524,0.000305,1,0,0,0,0,0,0,-0.014903,-0.022184,0.000173,1,0,0,0,0,0,0,0.043540,-0.065208,-0.001433,1,0,0,0,0,0,0,0.020902,0.004675,0.000030,1,0,0,0,0,0,0
1.330000,-0.001536,0.058156,-0.000051,1,0,0,0,0,0,0,-0.027222,-0.008918,0.000305,1,0,0,0,0,0,0,-0.015086,-0.022357,0.000175,1,0,0,0,0,0,0,0.043230,-0.064686,-0.001409,1,0,0,0,0,0,0,0.020638,0.004570,0.000029,1,0,0,0,0,0,0
1.340000,-0.001578,0.058079,-0.000051,1,0,0,0,0,0,0,-0.026331,-0.009259,0.000303,1,0,0,0,0,0,0,-0.015275,-0.022529,0.000178,1,0,0,0,0,0,0,0.042891,-0.064106,-0.001383,1,0,0,0,0,0,0,0.020398,0.004481,0.000029,1,0,0,0,0,0,0
1.350000,-0.001612,0.057881,-0.000050,1,0,0,0,0,0,0,-0.025371,-0.009546,0.000299,1,0,0,0,0,0,0,-0.015473,-0.022702,0.000180,1,0,0,0,0,0,0,0.042526,-0.063475,-0.001356,1,0,0,0,0,0,0,0.020187,0.004409,0.000028,1,0,0,0,0,0,0
1.360000,-0.001637,0.057559,-0.000049,1,0,0,0,0,0,0,-0.024350,-0.009774,0.000294,1,0,0,0,0,0,0,-0.015682,-0.022877,0.000182,1,0,0,0,0,0,0,0.042140,-0.062803,-0.001327,1,0,0,0,0,0,0,0.020009,0.004354,0.000028,1,0,0,0,0,0,0
1.370000,-0.001654,0.057108,-0.000048,1,0,0,0,0,0,0,-0.023278,-0.009940,0.000288,1,0,0,0,0,0,0,-0.015903,-0.023056,0.000185,1,0,0,0,0,0,0,0.041735,-0.062096,-0.001297,1,0,0,0,0,0,0,0.019865,0.004317,0.000028,1,0,0,0,0,0,0
1.380000,-0.001662,0.056522,-0.000047,1,0,0,0,0,0,0,-0.022165,-0.010039,0.000279,1,0,0,0,0,0,0,-0.016140,-0.023240,0.000188,1,0,0,0,0,0,0,0.041314,-0.061358,-0.001266,1,0,0,0,0,0,0,0.019755,0.004298,0.000029,1,0,0,0,0,0,0
1.390000,-0.001662,0.055806,-0.000046,1,0,0,0,0,0,0,-0.021028,-0.010070,0.000270,1,0,0,0,0,0,0,-0.016390,-0.023427,0.000191,1,0,0,0,0,0,0,0.040881,-0.060593,-0.001235,1,0,0,0,0,0,0,0.019681,0.004298,0.000030,1,0,0,0,0,0,0
1.400000,-0.001656,0.054966,-0.000045,1,0,0,0,0,0,0,-0.019880,-0.010035,0.000259,1,0,0,0,0,0,0,-0.016653,-0.023613,0.000194,1,0,0,0,0,0,0,0.040441,-0.059805,-0.001203,1,0,0,0,0,0,0,0.019646,0.004316,0.000031,1,0,0,0,0,0,0
1.410000,-0.001643,0.054014,-0.000043,1,0,0,0,0,0,0,-0.018735,-0.009935,0.000248,1,0,0,0,0,0,0,-0.016925,-0.023794,0.000197,1,0,0,0,0,0,0,0.039999,-0.058998,-0.001170,1,0,0,0,0,0,0,0.019653,0.004356,0.000032,1,0,0,0,0,0,0
1.420000,-0.001627,0.052962,-0.000041,1,0,0,0,0,0,0,-0.017604,-0.009774,0.000235,1,0,0,0,0,0,0,-0.017201,-0.023963,0.000200,1,0,0,0,0,0,0,0.039557,-0.058174,-0.001138,1,0,0,0,0,0,0,0.019703,0.004416,0.000034,1,0,0,0,0,0,0
1.430000,-0.001607,0.051823,-0.000040,1,0,0,0,0,0,0,-0.016494,-0.009557,0.000222,1,0,0,0,0,0,0,-0.017475,-0.024114,0.000203,1,0,0,0,0,0,0,0.039117,-0.057334,-0.001106,1,0,0,0,0,0,0,0.019798,0.004499,0.000036,1,0,0,0,0,0,0
1.440000,-0.001585,0.050612,-0.000038,1,0,0,0,0,0,0,-0.015409,-0.009288,0.000209,1,0,0,0,0,0,0,-0.017740,-0.024241,0.000206,1,0,0,0,0,0,0,0.038677,-0.056477,-0.001073,1,0,0,0,0,0,0,0.019933,0.004601,0.000039,1,0,0,0,0,0,0
1.450000,-0.001561,0.049341,-0.000036,1,0,0,0,0,0,0,-0.014356,-0.008969,0.000196,1,0,0,0,0,0,0,-0.017992,-0.024341,0.000208,1,0,0,0,0,0,0,0.038240,-0.055606,-0.001041,1,0,0,0,0,0,0,0.020099,0.004721,0.000042,1,0,0,0,0,0,0
1.460000,-0.001536,0.048021,-0.000034,1,0,0,0,0,0,0,-0.013340,-0.008601,0.000183,1,0,0,0,0,0,0,-0.018226,-0.024409,0.000210,1,0,0,0,0,0,0,0.037801,-0.054721,-0.001008,1,0,0,0,0,0,0,0.020287,0.004854,0.000045,1,0,0,0,0,0,0
1.470000,-0.001510,0.046663,-0.000032,1,0,0,0,0,0,0,-0.012361,-0.008191,0.000170,1,0,0,0,0,0,0,-0.018439,-0.024445,0.000211,1,0,0,0,0,0,0,0.037358,-0.053824,-0.000976,1,0,0,0,0,0,0,0.020487,0.004997,0.000048,1,0,0,0,0,0,0
1.480000,-0.001482,0.045276,-0.000030,1,0,0,0,0,0,0,-0.011415,-0.007743,0.000157,1,0,0,0,0,0,0,-0.018630,-0.024451,0.000212,1,0,0,0,0,0,0,0.036908,-0.052918,-0.000944,1,0,0,0,0,0,0,0.020695,0.005148,0.000051,1,0,0,0,0,0,0
1.490000,-0.001451,0.043870,-0.000028,1,0,0,0,0,0,0,-0.010515,-0.007255,0.000145,1,0,0,0,0,0,0,-0.018798,-0.024426,0.000213,1,0,0,0,0,0,0,0.036450,-0.052004,-0.000912,1,0,0,0,0,0,0,0.020905,0.005306,0.000055,1,0,0,0,0,0,0
1.500000,-0.001417,0.042454,-0.000026,1,0,0,0,0,0,0,-0.009673,-0.006726,0.000133,1,0,0,0,0,0,0,-0.018941,-0.024371,0.000212,1,0,0,0,0,0,0,0.035982,-0.051088,-0.000881,1,0,0,0,0,0,0,0.021113,0.005468,0.000058,1,0,0,0,0,0,0
1.510000,-0.001379,0.041033,-0.000025,1,0,0,0,0,0,0,-0.008891,-0.006157,0.000121,1,0,0,0,0,0,0,-0.019055,-0.024283,0.000212,1,0,0,0,0,0,0,0.035505,-0.050175,-0.000850,1,0,0,0,0,0,0,0.021314,0.005633,0.000062,1,0,0,0,0,0,0
1.520000,-0.001335,0.039614,-0.000023,1,0,0,0,0,0,0,-0.008171,-0.005551,0.000110,1,0,0,0,0,0,0,-0.019132,-0.024155,0.000211,1,0,0,0,0,0,0,0.035025,-0.049273,-0.000821,1,0,0,0,0,0,0,0.021496,0.005796,0.000065,1,0,0,0,0,0,0
1.530000,-0.001285,0.038201,-0.000021,1,0,0,0,0,0,0,-0.007515,-0.004912,0.000100,1,0,0,0,0,0,0,-0.019163,-0.023979,0.000208,1,0,0,0,0,0,0,0.034546,-0.048392,-0.000793,1,0,0,0,0,0,0,0.021650,0.005952,0.000069,1,0,0,0,0,0,0
1.540000,-0.001228,0.036799,-0.000020,1,0,0,0,0,0,0,-0.006928,-0.004239,0.000090,1,0,0,0,0,0,0,-0.019138,-0.023745,0.000205,1,0,0,0,0,0,0,0.034076,-0.047542,-0.000766,1,0,0,0,0,0,0,0.021775,0.006101,0.000072,1,0,0,0,0,0,0
1.550000,-0.001165,0.035416,-0.000018,1,0,0,0,0,0,0,-0.006414,-0.003535,0.000081,1,0,0,0,0,0,0,-0.019052,-0.023447,0.000201,1,0,0,0,0,0,0,0.033622,-0.046736,-0.000741,1,0,0,0,0,0,0,0.021878,0.006246,0.000074,1,0,0,0,0,0,0
1.560000,-0.001096,0.034070,-0.000017,1,0,0,0,0,0,0,-0.005970,-0.002801,0.000072,1,0,0,0,0,0,0,-0.018899,-0.023081,0.000195,1,0,0,0,0,0,0,0.033192,-0.045985,-0.000719,1,0,0,0,0,0,0,0.021960,0.006389,0.000077,1,0,0,0,0,0,0
1.570000,-0.001022,0.032772,-0.000016,1,0,0,0,0,0,0,-0.005593,-0.002041,0.000063,1,0,0,0,0,0,0,-0.018680,-0.022647,0.000188,1,0,0,0,0,0,0,0.032791,-0.045299,-0.000699,1,0,0,0,0,0,0,0.022019,0.006527,0.000080,1,0,0,0,0,0,0
1.580000,-0.000943,0.031532,-0.000015,1,0,0,0,0,0,0,-0.005265,-0.001264,0.000055,1,0,0,0,0,0,0,-0.018397,-0.022151,0.000180,1,0,0,0,0,0,0,0.032423,-0.044687,-0.000681,1,0,0,0,0,0,0,0.022052,0.006660,0.000082,1,0,0,0,0,0,0
1.590000,-0.000861,0.030358,-0.000014,1,0,0,0,0,0,0,-0.004979,-0.000475,0.000048,1,0,0,0,0,0,0,-0.018057,-0.021597,0.000172,1,0,0,0,0,0,0,0.032094,-0.044156,-0.000667,1,0,0,0,0,0,0,0.022052,0.006786,0.000085,1,0,0,0,0,0,0
1.600000,-0.000777,0.029259,-0.000013,1,0,0,0,0,0,0,-0.004743,0.000330,0.000041,1,0,0,0,0,0,0,-0.017665,-0.020994,0.000162,1,0,0,0,0,0,0,0.031803,-0.043709,-0.000655,1,0,0,0,0,0,0,0.022010,0.006900,0.000087,1,0,0,0,0,0,0
1.610000,-0.000692,0.028244,-0.000012,1,0,0,0,0,0,0,-0.004563,0.001158,0.000035,1,0,0,0,0,0,0,-0.017226,-0.020349,0.000153,1,0,0,0,0,0,0,0.031548,-0.043343,-0.000646,1,0,0,0,0,0,0,0.021918,0.006998,0.000088,1,0,0,0,0,0,0
1.620000,-0.000607,0.027319,-0.000011,1,0,0,0,0,0,0,-0.004442,0.002015,0.000028,1,0,0,0,0,0,0,-0.016747,-0.019669,0.000142,1,0,0,0,0,0,0,0.031328,-0.043055,-0.000639,1,0,0,0,0,0,0,0.021767,0.007077,0.000089,1,0,0,0,0,0,0
1.630000,-0.000523,0.026489,-0.000010,1,0,0,0,0,0,0,-0.004375,0.002902,0.000022,1,0,0,0,0,0,0,-0.016233,-0.018962,0.000132,1,0,0,0,0,0,0,0.031140,-0.042839,-0.000635,1,0,0,0,0,0,0,0.021551,0.007133,0.000090,1,0,0,0,0,0,0
1.640000,-0.000439,0.025755,-0.000010,1,0,0,0,0,0,0,-0.004356,0.003820,0.000016,1,0,0,0,0,0,0,-0.015690,-0.018235,0.000122,1,0,0,0,0,0,0,0.030981,-0.042688,-0.000632,1,0,0,0,0,0,0,0.021266,0.007162,0.000090,1,0,0,0,0,0,0
1.650000,-0.000355,0.025116,-0.000009,1,0,0,0,0,0,0,-0.004378,0.004767,0.000011,1,0,0,0,0,0,0,-0.015120,-0.017490,0.000111,1,0,0,0,0,0,0,0.030848,-0.042594,-0.000631,1,0,0,0,0,0,0,0.020912,0.007163,0.000089,1,0,0,0,0,0,0
1.660000,-0.000271,0.024571,-0.000009,1,0,0,0,0,0,0,-0.004435,0.005743,0.000005,1,0,0,0,0,0,0,-0.014524,-0.016730,0.000101,1,0,0,0,0,0,0,0.030736,-0.042549,-0.000631,1,0,0,0,0,0,0,0.020492,0.007136,0.000087,1,0,0,0,0,0,0
1.670000,-0.000186,0.024111,-0.000009,1,0,0,0,0,0,0,-0.004522,0.006745,-0.000001,1,0,0,0,0,0,0,-0.013903,-0.015956,0.000092,1,0,0,0,0,0,0,0.030642,-0.042543,-0.000632,1,0,0,0,0,0,0,0.020011,0.007081,0.000085,1,0,0,0,0,0,0
1.680000,-0.000099,0.023723,-0.000008,1,0,0,0,0,0,0,-0.004639,0.007773,-0.000006,1,0,0,0,0,0,0,-0.013258,-0.015171,0.000082,1,0,0,0,0,0,0,0.030560,-0.042569,-0.000635,1,0,0,0,0,0,0,0.019475,0.007001,0.000083,1,0,0,0,0,0,0
1.690000,-0.000009,0.023388,-0.000008,1,0,0,0,0,0,0,-0.004784,0.008825,-0.000012,1,0,0,0,0,0,0,-0.012589,-0.014375,0.000073,1,0,0,0,0,0,0,0.030488,-0.042622,-0.000637,1,0,0,0,0,0,0,0.018891,0.006896,0.000080,1,0,0,0,0,0,0
1.700000,0.000084,0.023085,-0.000007,1,0,0,0,0,0,0,-0.004958,0.009899,-0.000018,1,0,0,0,0,0,0,-0.011897,-0.013570,0.000064,1,0,0,0,0,0,0,0.030425,-0.042697,-0.000640,1,0,0,0,0,0,0,0.018265,0.006768,0.000077,1,0,0,0,0,0,0
1.710000,0.000180,0.022800,-0.000007,1,0,0,0,0,0,0,-0.005160,0.010991,-0.000024,1,0,0,0,0,0,0,-0.011184,-0.012760,0.000056,1,0,0,0,0,0,0,0.030370,-0.042795,-0.000644,1,0,0,0,0,0,0,0.017604,0.006617,0.000073,1,0,0,0,0,0,0
1.720000,0.000279,0.022527,-0.000006,1,0,0,0,0,0,0,-0.005387,0.012090,-0.000030,1,0,0,0,0,0,0,-0.010456,-0.011951,0.000048,1,0,0,0,0,0,0,0.030325,-0.042915,-0.000648,1,0,0,0,0,0,0,0.016912,0.006446,0.000069,1,0,0,0,0,0,0
1.730000,0.000380,0.022260,-0.000006,1,0,0,0,0,0,0,-0.005634,0.013186,-0.000036,1,0,0,0,0,0,0,-0.009718,-0.011155,0.000041,1,0,0,0,0,0,0,0.030292,-0.043056,-0.000653,1,0,0,0,0,0,0,0.016195,0.006254,0.000065,1,0,0,0,0,0,0
1.740000,0.000484,0.022005,-0.000005,1,0,0,0,0,0,0,-0.005900,0.014269,-0.000043,1,0,0,0,0,0,0,-0.008978,-0.010384,0.000034,1,0,0,0,0,0,0,0.030273,-0.043219,-0.000658,1,0,0,0,0,0,0,0.015458,0.006042,0.000061,1,0,0,0,0,0,0
1.750000,0.000590,0.021764,-0.000005,1,0,0,0,0,0,0,-0.006179,0.015327,-0.000049,1,0,0,0,0,0,0,-0.008243,-0.009649,0.000029,1,0,0,0,0,0,0,0.030271,-0.043403,-0.000663,1,0,0,0,0,0,0,0.014705,0.005813,0.000057,1,0,0,0,0,0,0
1.760000,0.000696,0.021539,-0.000004,1,0,0,0,0,0,0,-0.006467,0.016346,-0.000055,1,0,0,0,0,0,0,-0.007523,-0.008964,0.000024,1,0,0,0,0,0,0,0.030289,-0.043605,-0.000669,1,0,0,0,0,0,0,0.013941,0.005566,0.000052,1,0,0,0,0,0,0
1.770000,0.000801,0.021331,-0.000004,1,0,0,0,0,0,0,-0.006756,0.017312,-0.000062,1,0,0,0,0,0,0,-0.006826,-0.008343,0.000020,1,0,0,0,0,0,0,0.030327,-0.043819,-0.000675,1,0,0,0,0,0,0,0.013172,0.005303,0.000048,1,0,0,0,0,0,0
1.780000,0.000904,0.021142,-0.000003,1,0,0,0,0,0,0,-0.007040,0.018211,-0.000068,1,0,0,0,0,0,0,-0.006162,-0.007800,0.000017,1,0,0,0,0,0,0,0.030384,-0.044038,-0.000681,1,0,0,0,0,0,0,0.012400,0.005024,0.000044,1,0,0,0,0,0,0
1.790000,0.001003,0.020972,-0.000003,1,0,0,0,0,0,0,-0.007318,0.019036,-0.000073,1,0,0,0,0,0,0,-0.005541,-0.007350,0.000015,1,0,0,0,0,0,0,0.030457,-0.044255,-0.000687,1,0,0,0,0,0,0,0.011630,0.004731,0.000039,1,0,0,0,0,0,0
1.800000,0.001096,0.020822,-0.000002,1,0,0,0,0,0,0,-0.007589,0.019776,-0.000079,1,0,0,0,0,0,0,-0.004970,-0.007008,0.000014,1,0,0,0,0,0,0,0.030547,-0.044463,-0.000693,1,0,0,0,0,0,0,0.010868,0.004424,0.000035,1,0,0,0,0,0,0
1.810000,0.001183,0.020692,-0.000001,1,0,0,0,0,0,0,-0.007845,0.020418,-0.000083,1,0,0,0,0,0,0,-0.004460,-0.006788,0.000013,1,0,0,0,0,0,0,0.030650,-0.044656,-0.000698,1,0,0,0,0,0,0,0.010118,0.004106,0.000031,1,0,0,0,0,0,0
1.820000,0.001261,0.020582,-0.000001,1,0,0,0,0,0,0,-0.008082,0.020950,-0.000087,1,0,0,0,0,0,0,-0.004016,-0.006702,0.000013,1,0,0,0,0,0,0,0.030766,-0.044829,-0.000702,1,0,0,0,0,0,0,0.009387,0.003778,0.000027,1,0,0,0,0,0,0
1.830000,0.001329,0.020492,-0.000000,1,0,0,0,0,0,0,-0.008297,0.021364,-0.000091,1,0,0,0,0,0,0,-0.003641,-0.006755,0.000013,1,0,0,0,0,0,0,0.030892,-0.044978,-0.000706,1,0,0,0,0,0,0,0.008682,0.003442,0.000024,1,0,0,0,0,0,0
1.840000,0.001387,0.020425,0.000001,1,0,0,0,0,0,0,-0.008488,0.021654,-0.000093,1,0,0,0,0,0,0,-0.003334,-0.006944,0.000014,1,0,0,0,0,0,0,0.031026,-0.045103,-0.000709,1,0,0,0,0,0,0,0.008012,0.003101,0.000020,1,0,0,0,0,0,0
1.850000,0.001433,0.020381,0.000001,1,0,0,0,0,0,0,-0.008652,0.021817,-0.000094,1,0,0,0,0,0,0,-0.003090,-0.007257,0.000015,1,0,0,0,0,0,0,0.031169,-0.045203,-0.000712,1,0,0,0,0,0,0,0.007385,0.002756,0.000017,1,0,0,0,0,0,0
1.860000,0.001466,0.020364,0.000002,1,0,0,0,0,0,0,-0.008791,0.021854,-0.000095,1,0,0,0,0,0,0,-0.002906,-0.007688,0.000016,1,0,0,0,0,0,0,0.031321,-0.045282,-0.000714,1,0,0,0,0,0,0,0.006811,0.002412,0.000014,1,0,0,0,0,0,0
1.870000,0.001488,0.020376,0.000003,1,0,0,0,0,0,0,-0.008904,0.021769,-0.000094,1,0,0,0,0,0,0,-0.002781,-0.008231,0.000017,1,0,0,0,0,0,0,0.031483,-0.045346,-0.000716,1,0,0,0,0,0,0,0.006299,0.002071,0.000012,1,0,0,0,0,0,0
1.880000,0.001497,0.020422,0.000004,1,0,0,0,0,0,0,-0.008996,0.021564,-0.000092,1,0,0,0,0,0,0,-0.002708,-0.008869,0.000018,1,0,0,0,0,0,0,0.031655,-0.045402,-0.000717,1,0,0,0,0,0,0,0.005861,0.001737,0.000009,1,0,0,0,0,0,0
1.890000,0.001494,0.020506,0.000005,1,0,0,0,0,0,0,-0.009070,0.021245,-0.000090,1,0,0,0,0,0,0,-0.002680,-0.009582,0.000020,1,0,0,0,0,0,0,0.031839,-0.045457,-0.000719,1,0,0,0,0,0,0,0.005508,0.001413,0.000007,1,0,0,0,0,0,0
1.900000,0.001480,0.020635,0.000005,1,0,0,0,0,0,0,-0.009127,0.020817,-0.000086,1,0,0,0,0,0,0,-0.002691,-0.010356,0.000022,1,0,0,0,0,0,0,0.032039,-0.045520,-0.000721,1,0,0,0,0,0,0,0.005254,0.001103,0.000005,1,0,0,0,0,0,0
1.910000,0.001455,0.020812,0.000006,1,0,0,0,0,0,0,-0.009171,0.020290,-0.000082,1,0,0,0,0,0,0,-0.002737,-0.011170,0.000023,1,0,0,0,0,0,0,0.032255,-0.045598,-0.000724,1,0,0,0,0,0,0,0.005109,0.000811,0.000003,1,0,0,0,0,0,0
1.920000,0.001419,0.021043,0.000007,1,0,0,0,0,0,0,-0.009203,0.019670,-0.000077,1,0,0,0,0,0,0,-0.002809,-0.012005,0.000025,1,0,0,0,0,0,0,0.032487,-0.045695,-0.000728,1,0,0,0,0,0,0,0.005080,0.000538,0.000002,1,0,0,0,0,0,0
1.930000,0.001375,0.021330,0.000008,1,0,0,0,0,0,0,-0.009224,0.018968,-0.000071,1,0,0,0,0,0,0,-0.002901,-0.012842,0.000027,1,0,0,0,0,0,0,0.032737,-0.045815,-0.000732,1,0,0,0,0,0,0,0.005168,0.000288,0.000001,1,0,0,0,0,0,0
1.940000,0.001322,0.021675,0.000009,1,0,0,0,0,0,0,-0.009237,0.018192,-0.000065,1,0,0,0,0,0,0,-0.003009,-0.013666,0.000029,1,0,0,0,0,0,0,0.033002,-0.045956,-0.000738,1,0,0,0,0,0,0,0.005368,0.000059,-0.000001,1,0,0,0,0,0,0
1.950000,0.001264,0.022077,0.000010,1,0,0,0,0,0,0,-0.009242,0.017349,-0.000058,1,0,0,0,0,0,0,-0.003131,-0.014468,0.000031,1,0,0,0,0,0,0,0.033276,-0.046112,-0.000744,1,0,0,0,0,0,0,0.005674,-0.000147,-0.000002,1,0,0,0,0,0,0
1.960000,0.001200,0.022535,0.000011,1,0,0,0,0,0,0,-0.009243,0.016446,-0.000051,1,0,0,0,0,0,0,-0.003263,-0.015235,0.000033,1,0,0,0,0,0,0,0.033551,-0.046270,-0.000751,1,0,0,0,0,0,0,0.006077,-0.000330,-0.000003,1,0,0,0,0,0,0
1.970000,0.001132,0.023045,0.000012,1,0,0,0,0,0,0,-0.009243,0.015488,-0.000043,1,0,0,0,0,0,0,-0.003403,-0.015959,0.000035,1,0,0,0,0,0,0,0.033819,-0.046417,-0.000757,1,0,0,0,0,0,0,0.006562,-0.000493,-0.000004,1,0,0,0,0,0,0
1.980000,0.001062,0.023607,0.000012,1,0,0,0,0,0,0,-0.009249,0.014480,-0.000036,1,0,0,0,0,0,0,-0.003552,-0.016638,0.000037,1,0,0,0,0,0,0,0.034072,-0.046546,-0.000763,1,0,0,0,0,0,0,0.007113,-0.000636,-0.000005,1,0,0,0,0,0,0
1.990000,0.000990,0.024220,0.000013,1,0,0,0,0,0,0,-0.009263,0.013429,-0.000028,1,0,0,0,0,0,0,-0.003710,-0.017270,0.000039,1,0,0,0,0,0,0,0.034307,-0.046649,-0.000769,1,0,0,0,0,0,0,0.007715,-0.000761,-0.000005,1,0,0,0,0,0,0
2.000000,0.000917,0.024883,0.000014,1,0,0,0,0,0,0,-0.009286,0.012342,-0.000020,1,0,0,0,0,0,0,-0.003883,-0.017859,0.000040,1,0,0,0,0,0,0,0.034521,-0.046726,-0.000773,1,0,0,0,0,0,0,0.008352,-0.000868,-0.000006,1,0,0,0,0,0,0
2.010000,0.000843,0.025588,0.000014,1,0,0,0,0,0,0,-0.009322,0.011212,-0.000011,1,0,0,0,0,0,0,-0.004083,-0.018404,0.000042,1,0,0,0,0,0,0,0.034692,-0.046750,-0.000776,1,0,0,0,0,0,0,0.009010,-0.000956,-0.000007,1,0,0,0,0,0,0
2.020000,0.000766,0.026303,0.000015,1,0,0,0,0,0,0,-0.009367,0.010013,-0.000002,1,0,0,0,0,0,0,-0.004327,-0.018892,0.000044,1,0,0,0,0,0,0,0.034759,-0.046645,-0.000774,1,0,0,0,0,0,0,0.009687,-0.001013,-0.000007,1,0,0,0,0,0,0
2.030000,0.000685,0.027015,0.000015,1,0,0,0,0,0,0,-0.009409,0.008751,0.000007,1,0,0,0,0,0,0,-0.004621,-0.019323,0.000046,1,0,0,0,0,0,0,0.034709,-0.046396,-0.000768,1,0,0,0,0,0,0,0.010364,-0.001037,-0.000007,1,0,0,0,0,0,0
2.040000,0.000602,0.027720,0.000015,1,0,0,0,0,0,0,-0.009431,0.007445,0.000016,1,0,0,0,0,0,0,-0.004966,-0.019713,0.000047,1,0,0,0,0,0,0,0.034554,-0.046026,-0.000757,1,0,0,0,0,0,0,0.011029,-0.001024,-0.000007,1,0,0,0,0,0,0
2.050000,0.000517,0.028415,0.000015,1,0,0,0,0,0,0,-0.009416,0.006115,0.000026,1,0,0,0,0,0,0,-0.005356,-0.020073,0.000049,1,0,0,0,0,0,0,0.034312,-0.045569,-0.000744,1,0,0,0,0,0,0,0.011676,-0.000972,-0.000006,1,0,0,0,0,0,0
2.060000,0.000432,0.029099,0.000015,1,0,0,0,0,0,0,-0.009347,0.004779,0.000035,1,0,0,0,0,0,0,-0.005780,-0.020404,0.000051,1,0,0,0,0,0,0,0.034004,-0.045057,-0.000728,1,0,0,0,0,0,0,0.012312,-0.000876,-0.000005,1,0,0,0,0,0,0
2.070000,0.000346,0.029770,0.000015,1,0,0,0,0,0,0,-0.009218,0.003451,0.000044,1,0,0,0,0,0,0,-0.006218,-0.020702,0.000053,1,0,0,0,0,0,0,0.033648,-0.044523,-0.000713,1,0,0,0,0,0,0,0.012950,-0.000732,-0.000003,1,0,0,0,0,0,0
2.080000,0.000260,0.030426,0.000014,1,0,0,0,0,0,0,-0.009033,0.002146,0.000053,1,0,0,0,0,0,0,-0.006655,-0.020957,0.000056,1,0,0,0,0,0,0,0.033266,-0.043996,-0.000697,1,0,0,0,0,0,0,0.013606,-0.000534,-0.000001,1,0,0,0,0,0,0
2.090000,0.000174,0.031070,0.000014,1,0,0,0,0,0,0,-0.008809,0.000875,0.000060,1,0,0,0,0,0,0,-0.007077,-0.021158,0.000058,1,0,0,0,0,0,0,0.032879,-0.043508,-0.000683,1,0,0,0,0,0,0,0.014294,-0.000281,0.000003,1,0,0,0,0,0,0
2.100000,0.000087,0.031706,0.000013,1,0,0,0,0,0,0,-0.008567,-0.000352,0.000067,1,0,0,0,0,0,0,-0.007473,-0.021299,0.000060,1,0,0,0,0,0,0,0.032511,-0.043088,-0.000671,1,0,0,0,0,0,0,0.015026,0.000027,0.000007,1,0,0,0,0,0,0
2.110000,-0.000001,0.032343,0.000013,1,0,0,0,0,0,0,-0.008332,-0.001525,0.000073,1,0,0,0,0,0,0,-0.007843,-0.021375,0.000061,1,0,0,0,0,0,0,0.032186,-0.042769,-0.000663,1,0,0,0,0,0,0,0.015805,0.000384,0.000012,1,0,0,0,0,0,0
2.120000,-0.000092,0.032997,0.000012,1,0,0,0,0,0,0,-0.008125,-0.002639,0.000079,1,0,0,0,0,0,0,-0.008189,-0.021389,0.000063,1,0,0,0,0,0,0,0.031926,-0.042580,-0.000658,1,0,0,0,0,0,0,0.016626,0.000782,0.000018,1,0,0,0,0,0,0
2.130000,-0.000186,0.033686,0.000011,1,0,0,0,0,0,0,-0.007966,-0.003687,0.000083,1,0,0,0,0,0,0,-0.008518,-0.021349,0.000064,1,0,0,0,0,0,0,0.031753,-0.042549,-0.000659,1,0,0,0,0,0,0,0.017477,0.001210,0.000025,1,0,0,0,0,0,0
2.140000,-0.000288,0.034435,0.000010,1,0,0,0,0,0,0,-0.007870,-0.004667,0.000087,1,0,0,0,0,0,0,-0.008844,-0.021268,0.000065,1,0,0,0,0,0,0,0.031680,-0.042697,-0.000665,1,0,0,0,0,0,0,0.018345,0.001658,0.000032,1,0,0,0,0,0,0
2.150000,-0.000397,0.035277,0.000009,1,0,0,0,0,0,0,-0.007840,-0.005579,0.000090,1,0,0,0,0,0,0,-0.009179,-0.021156,0.000065,1,0,0,0,0,0,0,0.031713,-0.043033,-0.000676,1,0,0,0,0,0,0,0.019215,0.002115,0.000040,1,0,0,0,0,0,0
2.160000,-0.000518,0.036247,0.000008,1,0,0,0,0,0,0,-0.007875,-0.006425,0.000092,1,0,0,0,0,0,0,-0.009533,-0.021025,0.000066,1,0,0,0,0,0,0,0.031850,-0.043557,-0.000693,1,0,0,0,0,0,0,0.020075,0.002574,0.000048,1,0,0,0,0,0,0
2.170000,-0.000651,0.037385,0.000006,1,0,0,0,0,0,0,-0.007970,-0.007208,0.000094,1,0,0,0,0,0,0,-0.009915,-0.020880,0.000067,1,0,0,0,0,0,0,0.032084,-0.044262,-0.000716,1,0,0,0,0,0,0,0.020916,0.003029,0.000056,1,0,0,0,0,0,0
2.180000,-0.000797,0.038727,0.000004,1,0,0,0,0,0,0,-0.008118,-0.007933,0.000096,1,0,0,0,0,0,0,-0.010324,-0.020724,0.000067,1,0,0,0,0,0,0,0.032412,-0.045140,-0.000744,1,0,0,0,0,0,0,0.021746,0.003480,0.000064,1,0,0,0,0,0,0
2.190000,-0.000956,0.040303,0.000001,1,0,0,0,0,0,0,-0.008317,-0.008602,0.000098,1,0,0,0,0,0,0,-0.010764,-0.020565,0.000068,1,0,0,0,0,0,0,0.032838,-0.046186,-0.000778,1,0,0,0,0,0,0,0.022573,0.003931,0.000072,1,0,0,0,0,0,0
2.200000,-0.001127,0.042138,-0.000002,1,0,0,0,0,0,0,-0.008564,-0.009221,0.000099,1,0,0,0,0,0,0,-0.011239,-0.020411,0.000069,1,0,0,0,0,0,0,0.033377,-0.047411,-0.000818,1,0,0,0,0,0,0,0.023404,0.004384,0.000081,1,0,0,0,0,0,0
2.210000,-0.001308,0.044254,-0.000006,1,0,0,0,0,0,0,-0.008853,-0.009792,0.000101,1,0,0,0,0,0,0,-0.011762,-0.020282,0.000070,1,0,0,0,0,0,0,0.034057,-0.048840,-0.000864,1,0,0,0,0,0,0,0.024232,0.004844,0.000090,1,0,0,0,0,0,0
2.220000,-0.001497,0.046667,-0.000010,1,0,0,0,0,0,0,-0.009174,-0.010322,0.000102,1,0,0,0,0,0,0,-0.012353,-0.020201,0.000072,1,0,0,0,0,0,0,0.034909,-0.050505,-0.000920,1,0,0,0,0,0,0,0.025045,0.005313,0.000100,1,0,0,0,0,0,0
2.230000,-0.001693,0.049392,-0.000016,1,0,0,0,0,0,0,-0.009520,-0.010811,0.000103,1,0,0,0,0,0,0,-0.013031,-0.020193,0.000075,1,0,0,0,0,0,0,0.035960,-0.052432,-0.000986,1,0,0,0,0,0,0,0.025830,0.005794,0.000110,1,0,0,0,0,0,0
2.240000,-0.001893,0.052443,-0.000023,1,0,0,0,0,0,0,-0.009889,-0.011260,0.000104,1,0,0,0,0,0,0,-0.013809,-0.020277,0.000079,1,0,0,0,0,0,0,0.037229,-0.054635,-0.001065,1,0,0,0,0,0,0,0.026585,0.006291,0.000121,1,0,0,0,0,0,0
2.250000,-0.002098,0.055844,-0.000031,1,0,0,0,0,0,0,-0.010280,-0.011670,0.000105,1,0,0,0,0,0,0,-0.014691,-0.020466,0.000085,1,0,0,0,0,0,0,0.038719,-0.057106,-0.001156,1,0,0,0,0,0,0,0.027320,0.006812,0.000133,1,0,0,0,0,0,0
2.260000,-0.002308,0.059634,-0.000041,1,0,0,0,0,0,0,-0.010696,-0.012037,0.000106,1,0,0,0,0,0,0,-0.015693,-0.020777,0.000094,1,0,0,0,0,0,0,0.040430,-0.059825,-0.001261,1,0,0,0,0,0,0,0.028059,0.007369,0.000146,1,0,0,0,0,0,0
2.270000,-0.002524,0.063852,-0.000053,1,0,0,0,0,0,0,-0.011141,-0.012358,0.000107,1,0,0,0,0,0,0,-0.016837,-0.021243,0.000105,1,0,0,0,0,0,0,0.042355,-0.062761,-0.001379,1,0,0,0,0,0,0,0.028841,0.007977,0.000161,1,0,0,0,0,0,0
2.280000,-0.002743,0.068510,-0.000067,1,0,0,0,0,0,0,-0.011625,-0.012630,0.000108,1,0,0,0,0,0,0,-0.018160,-0.021908,0.000121,1,0,0,0,0,0,0,0.044486,-0.065890,-0.001512,1,0,0,0,0,0,0,0.029707,0.008647,0.000178,1,0,0,0,0,0,0
2.290000,-0.002960,0.073570,-0.000083,1,0,0,0,0,0,0,-0.012158,-0.012844,0.000108,1,0,0,0,0,0,0,-0.019713,-0.022834,0.000143,1,0,0,0,0,0,0,0.046809,-0.069187,-0.001660,1,0,0,0,0,0,0,0.030692,0.009382,0.000197,1,0,0,0,0,0,0
2.300000,-0.003165,0.078952,-0.000101,1,0,0,0,0,0,0,-0.012754,-0.012994,0.000108,1,0,0,0,0,0,0,-0.021573,-0.024112,0.000174,1,0,0,0,0,0,0,0.049310,-0.072644,-0.001824,1,0,0,0,0,0,0,0.031830,0.010185,0.000219,1,0,0,0,0,0,0
2.310000,-0.003352,0.084554,-0.000121,1,0,0,0,0,0,0,-0.013436,-0.013065,0.000107,1,0,0,0,0,0,0,-0.023842,-0.025856,0.000219,1,0,0,0,0,0,0,0.051970,-0.076260,-0.002005,1,0,0,0,0,0,0,0.033178,0.011065,0.000245,1,0,0,0,0,0,0
2.320000,-0.003516,0.090262,-0.000142,1,0,0,0,0,0,0,-0.014241,-0.013037,0.000106,1,0,0,0,0,0,0,-0.026612,-0.028173,0.000283,1,0,0,0,0,0,0,0.054774,-0.080039,-0.002206,1,0,0,0,0,0,0,0.034817,0.012045,0.000274,1,0,0,0,0,0,0
2.330000,-0.003663,0.095975,-0.000164,1,0,0,0,0,0,0,-0.015215,-0.012882,0.000102,1,0,0,0,0,0,0,-0.029920,-0.031123,0.000371,1,0,0,0,0,0,0,0.057700,-0.083975,-0.002427,1,0,0,0,0,0,0,0.036846,0.013156,0.000310,1,0,0,0,0,0,0
2.340000,-0.003809,0.101653,-0.000186,1,0,0,0,0,0,0,-0.016410,-0.012561,0.000097,1,0,0,0,0,0,0,-0.033711,-0.034679,0.000490,1,0,0,0,0,0,0,0.060715,-0.088031,-0.002667,1,0,0,0,0,0,0,0.039368,0.014439,0.000355,1,0,0,0,0,0,0
2.350000,-0.003970,0.107325,-0.000209,1,0,0,0,0,0,0,-0.017876,-0.012034,0.000088,1,0,0,0,0,0,0,-0.037860,-0.038750,0.000641,1,0,0,0,0,0,0,0.063769,-0.092143,-0.002924,1,0,0,0,0,0,0,0.042486,0.015938,0.000412,1,0,0,0,0,0,0
2.360000,-0.004155,0.113045,-0.000232,1,0,0,0,0,0,0,-0.019652,-0.011267,0.000074,1,0,0,0,0,0,0,-0.042249,-0.043257,0.000827,1,0,0,0,0,0,0,0.066801,-0.096229,-0.003193,1,0,0,0,0,0,0,0.046271,0.017691,0.000485,1,0,0,0,0,0,0
2.370000,-0.004362,0.118823,-0.000257,1,0,0,0,0,0,0,-0.021753,-0.010244,0.000055,1,0,0,0,0,0,0,-0.046800,-0.048170,0.001050,1,0,0,0,0,0,0,0.069747,-0.100209,-0.003467,1,0,0,0,0,0,0,0.050708,0.019700,0.000578,1,0,0,0,0,0,0
2.380000,-0.004573,0.124612,-0.000283,1,0,0,0,0,0,0,-0.024160,-0.008966,0.000029,1,0,0,0,0,0,0,-0.051391,-0.053404,0.001312,1,0,0,0,0,0,0,0.072562,-0.104027,-0.003742,1,0,0,0,0,0,0,0.055689,0.021927,0.000692,1,0,0,0,0,0,0
2.390000,-0.004765,0.130331,-0.000310,1,0,0,0,0,0,0,-0.026847,-0.007445,-0.000006,1,0,0,0,0,0,0,-0.055849,-0.058756,0.001603,1,0,0,0,0,0,0,0.075224,-0.107658,-0.004014,1,0,0,0,0,0,0,0.061077,0.024307,0.000826,1,0,0,0,0,0,0
2.400000,-0.004920,0.135890,-0.000338,1,0,0,0,0,0,0,-0.029796,-0.005687,-0.000050,1,0,0,0,0,0,0,-0.060069,-0.064048,0.001912,1,0,0,0,0,0,0,0.077734,-0.111105,-0.004281,1,0,0,0,0,0,0,0.066767,0.026780,0.000979,1,0,0,0,0,0,0
2.410000,-0.005030,0.141218,-0.000364,1,0,0,0,0,0,0,-0.032988,-0.003701,-0.000105,1,0,0,0,0,0,0,-0.064085,-0.069278,0.002239,1,0,0,0,0,0,0,0.080105,-0.114389,-0.004545,1,0,0,0,0,0,0,0.072675,0.029275,0.001147,1,0,0,0,0,0,0
2.420000,-0.005096,0.146264,-0.000390,1,0,0,0,0,0,0,-0.036390,-0.001509,-0.000172,1,0,0,0,0,0,0,-0.068010,-0.074593,0.002590,1,0,0,0,0,0,0,0.082350,-0.117530,-0.004805,1,0,0,0,0,0,0,0.078642,0.031686,0.001325,1,0,0,0,0,0,0
2.430000,-0.005120,0.150980,-0.000413,1,0,0,0,0,0,0,-0.039963,0.000853,-0.000251,1,0,0,0,0,0,0,-0.071936,-0.080117,0.002976,1,0,0,0,0,0,0,0.084479,-0.120540,-0.005060,1,0,0,0,0,0,0,0.084437,0.033889,0.001499,1,0,0,0,0,0,0
2.440000,-0.005101,0.155286,-0.000434,1,0,0,0,0,0,0,-0.043685,0.003342,-0.000342,1,0,0,0,0,0,0,-0.075822,-0.085786,0.003392,1,0,0,0,0,0,0,0.086503,-0.123415,-0.005311,1,0,0,0,0,0,0,0.089926,0.035830,0.001664,1,0,0,0,0,0,0
2.450000,-0.005029,0.159085,-0.000452,1,0,0,0,0,0,0,-0.047560,0.005931,-0.000444,1,0,0,0,0,0,0,-0.079544,-0.091408,0.003823,1,0,0,0,0,0,0,0.088428,-0.126138,-0.005554,1,0,0,0,0,0,0,0.095168,0.037536,0.001819,1,0,0,0,0,0,0
2.460000,-0.004899,0.162304,-0.000465,1,0,0,0,0,0,0,-0.051629,0.008621,-0.000560,1,0,0,0,0,0,0,-0.082993,-0.096792,0.004253,1,0,0,0,0,0,0,0.090253,-0.128682,-0.005785,1,0,0,0,0,0,0,0.100349,0.039082,0.001968,1,0,0,0,0,0,0
2.470000,-0.004707,0.164933,-0.000475,1,0,0,0,0,0,0,-0.055964,0.011444,-0.000693,1,0,0,0,0,0,0,-0.086080,-0.101745,0.004662,1,0,0,0,0,0,0,0.091970,-0.131023,-0.006003,1,0,0,0,0,0,0,0.105624,0.040547,0.002118,1,0,0,0,0,0,0
2.480000,-0.004455,0.167029,-0.000480,1,0,0,0,0,0,0,-0.060636,0.014448,-0.000846,1,0,0,0,0,0,0,-0.088765,-0.106150,0.005034,1,0,0,0,0,0,0,0.093562,-0.133149,-0.006204,1,0,0,0,0,0,0,0.110945,0.041966,0.002273,1,0,0,0,0,0,0
2.490000,-0.004146,0.168689,-0.000481,1,0,0,0,0,0,0,-0.065635,0.017656,-0.001025,1,0,0,0,0,0,0,-0.091063,-0.110039,0.005369,1,0,0,0,0,0,0,0.095017,-0.135055,-0.006388,1,0,0,0,0,0,0,0.116136,0.043311,0.002428,1,0,0,0,0,0,0
2.500000,-0.003786,0.169996,-0.000479,1,0,0,0,0,0,0,-0.070841,0.021031,-0.001230,1,0,0,0,0,0,0,-0.092992,-0.113519,0.005672,1,0,0,0,0,0,0,0.096326,-0.136738,-0.006554,1,0,0,0,0,0,0,0.121036,0.044535,0.002578,1,0,0,0,0,0,0
2.510000,-0.003384,0.170998,-0.000474,1,0,0,0,0,0,0,-0.076109,0.024490,-0.001456,1,0,0,0,0,0,0,-0.094530,-0.116674,0.005948,1,0,0,0,0,0,0,0.097489,-0.138196,-0.006699,1,0,0,0,0,0,0,0.125512,0.045595,0.002716,1,0,0,0,0,0,0
2.520000,-0.002951,0.171717,-0.000466,1,0,0,0,0,0,0,-0.081337,0.027939,-0.001697,1,0,0,0,0,0,0,-0.095635,-0.119509,0.006196,1,0,0,0,0,0,0,0.098516,-0.139436,-0.006825,1,0,0,0,0,0,0,0.129468,0.046466,0.002835,1,0,0,0,0,0,0
2.530000,-0.002503,0.172178,-0.000456,1,0,0,0,0,0,0,-0.086441,0.031258,-0.001943,1,0,0,0,0,0,0,-0.096290,-0.121968,0.006407,1,0,0,0,0,0,0,0.099425,-0.140483,-0.006934,1,0,0,0,0,0,0,0.132916,0.047159,0.002937,1,0,0,0,0,0,0
2.540000,-0.002060,0.172421,-0.000443,1,0,0,0,0,0,0,-0.091333,0.034299,-0.002179,1,0,0,0,0,0,0,-0.096537,-0.123990,0.006574,1,0,0,0,0,0,0,0.100235,-0.141373,-0.007028,1,0,0,0,0,0,0,0.135947,0.047708,0.003022,1,0,0,0,0,0,0
2.550000,-0.001637,0.172488,-0.000428,1,0,0,0,0,0,0,-0.095904,0.036912,-0.002388,1,0,0,0,0,0,0,-0.096456,-0.125550,0.006693,1,0,0,0,0,0,0,0.100959,-0.142136,-0.007110,1,0,0,0,0,0,0,0.138643,0.048133,0.003094,1,0,0,0,0,0,0
2.560000,-0.001248,0.172402,-0.000411,1,0,0,0,0,0,0,-0.100065,0.039032,-0.002559,1,0,0,0,0,0,0,-0.096132,-0.126653,0.006765,1,0,0,0,0,0,0,0.101592,-0.142769,-0.007179,1,0,0,0,0,0,0,0.141010,0.048419,0.003148,1,0,0,0,0,0,0
2.570000,-0.000905,0.172176,-0.000393,1,0,0,0,0,0,0,-0.103791,0.040687,-0.002692,1,0,0,0,0,0,0,-0.095622,-0.127325,0.006791,1,0,0,0,0,0,0,0.102108,-0.143236,-0.007233,1,0,0,0,0,0,0,0.142999,0.048531,0.003180,1,0,0,0,0,0,0
2.580000,-0.000618,0.171820,-0.000374,1,0,0,0,0,0,0,-0.107103,0.041957,-0.002791,1,0,0,0,0,0,0,-0.094956,-0.127607,0.006778,1,0,0,0,0,0,0,0.102472,-0.143489,-0.007265,1,0,0,0,0,0,0,0.144536,0.048435,0.003183,1,0,0,0,0,0,0
2.590000,-0.000398,0.171357,-0.000355,1,0,0,0,0,0,0,-0.110020,0.042949,-0.002865,1,0,0,0,0,0,0,-0.094161,-0.127551,0.006731,1,0,0,0,0,0,0,0.102652,-0.143492,-0.007271,1,0,0,0,0,0,0,0.145567,0.048127,0.003157,1,0,0,0,0,0,0
2.600000,-0.000247,0.170808,-0.000336,1,0,0,0,0,0,0,-0.112556,0.043768,-0.002926,1,0,0,0,0,0,0,-0.093270,-0.127218,0.006656,1,0,0,0,0,0,0,0.102637,-0.143241,-0.007252,1,0,0,0,0,0,0,0.146071,0.047636,0.003105,1,0,0,0,0,0,0
2.610000,-0.000164,0.170168,-0.000316,1,0,0,0,0,0,0,-0.114718,0.044492,-0.002979,1,0,0,0,0,0,0,-0.092320,-0.126656,0.006561,1,0,0,0,0,0,0,0.102428,-0.142756,-0.007208,1,0,0,0,0,0,0,0.146050,0.047009,0.003035,1,0,0,0,0,0,0
2.620000,-0.000145,0.169393,-0.000298,1,0,0,0,0,0,0,-0.116507,0.045165,-0.003031,1,0,0,0,0,0,0,-0.091354,-0.125903,0.006449,1,0,0,0,0,0,0,0.102028,-0.142056,-0.007143,1,0,0,0,0,0,0,0.145503,0.046289,0.002952,1,0,0,0,0,0,0
2.630000,-0.000184,0.168408,-0.000280,1,0,0,0,0,0,0,-0.117932,0.045787,-0.003079,1,0,0,0,0,0,0,-0.090414,-0.124991,0.006323,1,0,0,0,0,0,0,0.101430,-0.141136,-0.007055,1,0,0,0,0,0,0,0.144432,0.045503,0.002862,1,0,0,0,0,0,0
2.640000,-0.000281,0.167150,-0.000263,1,0,0,0,0,0,0,-0.119020,0.046324,-0.003120,1,0,0,0,0,0,0,-0.089532,-0.123936,0.006187,1,0,0,0,0,0,0,0.100610,-0.139961,-0.006942,1,0,0,0,0,0,0,0.142866,0.044667,0.002767,1,0,0,0,0,0,0
2.650000,-0.000438,0.165598,-0.000247,1,0,0,0,0,0,0,-0.119806,0.046721,-0.003145,1,0,0,0,0,0,0,-0.088745,-0.122768,0.006043,1,0,0,0,0,0,0,0.099537,-0.138476,-0.006799,1,0,0,0,0,0,0,0.140872,0.043802,0.002669,1,0,0,0,0,0,0
2.660000,-0.000659,0.163781,-0.000233,1,0,0,0,0,0,0,-0.120328,0.046931,-0.003149,1,0,0,0,0,0,0,-0.088103,-0.121548,0.005897,1,0,0,0,0,0,0,0.098188,-0.136628,-0.006621,1,0,0,0,0,0,0,0.138563,0.042944,0.002573,1,0,0,0,0,0,0
2.670000,-0.000949,0.161764,-0.000219,1,0,0,0,0,0,0,-0.120640,0.046922,-0.003128,1,0,0,0,0,0,0,-0.087675,-0.120368,0.005759,1,0,0,0,0,0,0,0.096550,-0.134386,-0.006406,1,0,0,0,0,0,0,0.136072,0.042137,0.002486,1,0,0,0,0,0,0
