time,drone0_roll,drone0_pitch,drone0_yaw,drone0_des_qw,drone0_des_qx,drone0_des_qy,drone0_des_qz,drone0_err_x,drone0_err_y,drone0_err_z,drone1_roll,drone1_pitch,drone1_yaw,drone1_des_qw,drone1_des_qx,drone1_des_qy,drone1_des_qz,drone1_err_x,drone1_err_y,drone1_err_z,drone2_roll,drone2_pitch,drone2_yaw,drone2_des_qw,drone2_des_qx,drone2_des_qy,drone2_des_qz,drone2_err_x,drone2_err_y,drone2_err_z
0.000000,0.000000,0.000000,0.000000,1,0,0,0,0,0,0,0.000000,0.000000,0.000000,1,0,0,0,0,0,0,0.000000,0.000000,0.000000,1,0,0,0,0,0,0
0.010000,0.000001,-0.000001,-0.000000,1,0,0,0,0,0,0,0.000001,-0.000001,-0.000000,1,0,0,0,0,0,0,0.000037,-0.000021,-0.000000,1,0,0,0,0,0,0
0.020000,0.000003,-0.000006,-0.000000,1,0,0,0,0,0,0,0.000003,-0.000006,-0.000000,1,0,0,0,0,0,0,0.000183,-0.000107,-0.000000,1,0,0,0,0,0,0
0.030000,0.000008,-0.000016,-0.000000,1,0,0,0,0,0,0,0.000008,-0.000016,-0.000000,1,0,0,0,0,0,0,0.000452,-0.000266,-0.000000,1,0,0,0,0,0,0
0.040000,0.000015,-0.000030,-0.000000,1,0,0,0,0,0,0,0.000015,-0.000030,-0.000000,1,0,0,0,0,0,0,0.000858,-0.000509,-0.000000,1,0,0,0,0,0,0
0.050000,0.000025,-0.000049,-0.000000,1,0,0,0,0,0,0,0.000025,-0.000049,-0.000000,1,0,0,0,0,0,0,0.001418,-0.000842,-0.000001,1,0,0,0,0,0,0
0.060000,0.000037,-0.000042,-0.000000,1,0,0,0,0,0,0,0.000037,-0.000073,-0.000000,1,0,0,0,0,0,0,0.002143,-0.001275,-0.000001,1,0,0,0,0,0,0
0.070000,0.000050,0.000182,0.000000,1,0,0,0,0,0,0,-0.000053,-0.000298,-0.000000,1,0,0,0,0,0,0,0.003019,-0.001798,-0.000003,1,0,0,0,0,0,0
0.080000,0.000066,0.000334,0.000000,1,0,0,0,0,0,0,-0.000142,-0.000537,0.000000,1,0,0,0,0,0,0,0.004013,-0.002393,-0.000005,1,0,0,0,0,0,0
0.090000,0.000084,0.000623,0.000000,1,0,0,0,0,0,0,-0.000211,-0.000745,0.000000,1,0,0,0,0,0,0,0.005101,-0.003045,-0.000008,1,0,0,0,0,0,0
0.100000,0.000103,0.001004,0.000000,1,0,0,0,0,0,0,-0.000406,-0.001198,0.000000,1,0,0,0,0,0,0,0.006265,-0.003743,-0.000012,1,0,0,0,0,0,0
0.110000,0.000123,0.001437,0.000000,1,0,0,0,0,0,0,-0.000597,-0.001658,0.000000,1,0,0,0,0,0,0,0.007490,-0.004480,-0.000017,1,0,0,0,0,0,0
0.120000,0.000145,0.002002,0.000000,1,0,0,0,0,0,0,-0.000808,-0.002156,0.000001,1,0,0,0,0,0,0,0.008762,-0.005247,-0.000023,1,0,0,0,0,0,0
0.130000,0.000168,0.002634,0.000000,1,0,0,0,0,0,0,-0.001106,-0.002820,0.000001,1,0,0,0,0,0,0,0.010070,-0.006036,-0.000030,1,0,0,0,0,0,0
0.140000,0.000192,0.003378,0.000000,1,0,0,0,0,0,0,-0.001393,-0.003468,0.000002,1,0,0,0,0,0,0,0.011403,-0.006840,-0.000039,1,0,0,0,0,0,0
0.150000,0.000217,0.004237,0.000001,1,0,0,0,0,0,0,-0.001766,-0.004262,0.000003,1,0,0,0,0,0,0,0.012748,-0.007654,-0.000049,1,0,0,0,0,0,0
0.160000,0.000242,0.005203,0.000001,1,0,0,0,0,0,0,-0.002165,-0.005102,0.000005,1,0,0,0,0,0,0,0.014110,-0.008477,-0.000060,1,0,0,0,0,0,0
0.170000,0.000268,0.006310,0.000001,1,0,0,0,0,0,0,-0.002624,-0.006033,0.000007,1,0,0,0,0,0,0,0.015508,-0.009322,-0.000072,1,0,0,0,0,0,0
0.180000,0.000294,0.007542,0.000001,1,0,0,0,0,0,0,-0.003145,-0.007059,0.000010,1,0,0,0,0,0,0,0.016934,-0.010184,-0.000086,1,0,0,0,0,0,0
0.190000,0.000321,0.008910,0.000002,1,0,0,0,0,0,0,-0.003730,-0.008172,0.000014,1,0,0,0,0,0,0,0.018375,-0.011055,-0.000101,1,0,0,0,0,0,0
0.200000,0.000348,0.010419,0.000002,1,0,0,0,0,0,0,-0.004383,-0.009376,0.000019,1,0,0,0,0,0,0,0.019821,-0.011929,-0.000118,1,0,0,0,0,0,0
0.210000,0.000375,0.012025,0.000003,1,0,0,0,0,0,0,-0.005116,-0.010673,0.000025,1,0,0,0,0,0,0,0.021266,-0.012803,-0.000136,1,0,0,0,0,0,0
0.220000,0.000403,0.013676,0.000003,1,0,0,0,0,0,0,-0.005915,-0.012037,0.000033,1,0,0,0,0,0,0,0.022708,-0.013674,-0.000155,1,0,0,0,0,0,0
0.230000,0.000430,0.015350,0.000004,1,0,0,0,0,0,0,-0.006776,-0.013450,0.000042,1,0,0,0,0,0,0,0.024145,-0.014542,-0.000175,1,0,0,0,0,0,0
0.240000,0.000456,0.017044,0.000005,1,0,0,0,0,0,0,-0.007678,-0.014874,0.000052,1,0,0,0,0,0,0,0.025572,-0.015403,-0.000197,1,0,0,0,0,0,0
0.250000,0.000483,0.018739,0.000006,1,0,0,0,0,0,0,-0.008605,-0.016282,0.000064,1,0,0,0,0,0,0,0.026979,-0.016253,-0.000219,1,0,0,0,0,0,0
0.260000,0.000508,0.020398,0.000006,1,0,0,0,0,0,0,-0.009558,-0.017664,0.000077,1,0,0,0,0,0,0,0.028352,-0.017082,-0.000242,1,0,0,0,0,0,0
0.270000,0.000533,0.021960,0.000007,1,0,0,0,0,0,0,-0.010532,-0.019010,0.000091,1,0,0,0,0,0,0,0.029674,-0.017881,-0.000265,1,0,0,0,0,0,0
0.280000,0.000558,0.023404,0.000008,1,0,0,0,0,0,0,-0.011516,-0.020302,0.000105,1,0,0,0,0,0,0,0.030930,-0.018641,-0.000288,1,0,0,0,0,0,0
0.290000,0.000581,0.024756,0.000008,1,0,0,0,0,0,0,-0.012495,-0.021520,0.000121,1,0,0,0,0,0,0,0.032111,-0.019356,-0.000311,1,0,0,0,0,0,0
0.300000,0.000603,0.026025,0.000009,1,0,0,0,0,0,0,-0.013456,-0.022650,0.000136,1,0,0,0,0,0,0,0.033211,-0.020023,-0.000332,1,0,0,0,0,0,0
0.310000,0.000624,0.027215,0.000010,1,0,0,0,0,0,0,-0.014385,-0.023677,0.000151,1,0,0,0,0,0,0,0.034217,-0.020634,-0.000353,1,0,0,0,0,0,0
0.320000,0.000644,0.028335,0.000010,1,0,0,0,0,0,0,-0.015271,-0.024588,0.000166,1,0,0,0,0,0,0,0.035108,-0.021178,-0.000372,1,0,0,0,0,0,0
0.330000,0.000662,0.029382,0.000011,1,0,0,0,0,0,0,-0.016112,-0.025379,0.000179,1,0,0,0,0,0,0,0.035868,-0.021645,-0.000388,1,0,0,0,0,0,0
0.340000,0.000680,0.030341,0.000012,1,0,0,0,0,0,0,-0.016909,-0.026045,0.000192,1,0,0,0,0,0,0,0.036492,-0.022031,-0.000402,1,0,0,0,0,0,0
0.350000,0.000696,0.031196,0.000012,1,0,0,0,0,0,0,-0.017671,-0.026584,0.000203,1,0,0,0,0,0,0,0.036976,-0.022335,-0.000414,1,0,0,0,0,0,0
0.360000,0.000711,0.031932,0.000013,1,0,0,0,0,0,0,-0.018398,-0.026990,0.000212,1,0,0,0,0,0,0,0.037320,-0.022555,-0.000422,1,0,0,0,0,0,0
0.370000,0.000725,0.032538,0.000013,1,0,0,0,0,0,0,-0.019084,-0.027259,0.000219,1,0,0,0,0,0,0,0.037525,-0.022693,-0.000427,1,0,0,0,0,0,0
0.380000,0.000738,0.033008,0.000013,1,0,0,0,0,0,0,-0.019723,-0.027386,0.000224,1,0,0,0,0,0,0,0.037593,-0.022751,-0.000429,1,0,0,0,0,0,0
0.390000,0.000749,0.033340,0.000013,1,0,0,0,0,0,0,-0.020306,-0.027371,0.000226,1,0,0,0,0,0,0,0.037537,-0.022734,-0.000428,1,0,0,0,0,0,0
0.400000,0.000760,0.033527,0.000013,1,0,0,0,0,0,0,-0.020828,-0.027214,0.000226,1,0,0,0,0,0,0,0.037363,-0.022646,-0.000425,1,0,0,0,0,0,0
0.410000,0.000769,0.033561,0.000013,1,0,0,0,0,0,0,-0.021284,-0.026917,0.000223,1,0,0,0,0,0,0,0.037077,-0.022493,-0.000419,1,0,0,0,0,0,0
0.420000,0.000777,0.033438,0.000013,1,0,0,0,0,0,0,-0.021671,-0.026482,0.000217,1,0,0,0,0,0,0,0.036690,-0.022279,-0.000411,1,0,0,0,0,0,0
0.430000,0.000784,0.033160,0.000013,1,0,0,0,0,0,0,-0.021985,-0.025914,0.000209,1,0,0,0,0,0,0,0.036212,-0.022010,-0.000401,1,0,0,0,0,0,0
0.440000,0.000790,0.032731,0.000013,1,0,0,0,0,0,0,-0.022215,-0.025223,0.000198,1,0,0,0,0,0,0,0.035650,-0.021690,-0.000389,1,0,0,0,0,0,0
0.450000,0.000794,0.032155,0.000012,1,0,0,0,0,0,0,-0.022358,-0.024418,0.000184,1,0,0,0,0,0,0,0.035015,-0.021327,-0.000376,1,0,0,0,0,0,0
0.460000,0.000797,0.031434,0.000012,1,0,0,0,0,0,0,-0.022412,-0.023501,0.000169,1,0,0,0,0,0,0,0.034333,-0.020935,-0.000363,1,0,0,0,0,0,0
0.470000,0.000800,0.030569,0.000011,1,0,0,0,0,0,0,-0.022377,-0.022477,0.000152,1,0,0,0,0,0,0,0.033630,-0.020528,-0.000349,1,0,0,0,0,0,0
0.480000,0.000801,0.029565,0.000010,1,0,0,0,0,0,0,-0.022252,-0.021350,0.000132,1,0,0,0,0,0,0,0.032929,-0.020121,-0.000335,1,0,0,0,0,0,0
0.490000,0.000801,0.028427,0.000009,1,0,0,0,0,0,0,-0.022040,-0.020118,0.000111,1,0,0,0,0,0,0,0.032258,-0.019729,-0.000322,1,0,0,0,0,0,0
0.500000,0.000800,0.027164,0.000009,1,0,0,0,0,0,0,-0.021739,-0.018786,0.000088,1,0,0,0,0,0,0,0.031640,-0.019365,-0.000310,1,0,0,0,0,0,0
0.510000,0.000798,0.025786,0.000008,1,0,0,0,0,0,0,-0.021350,-0.017363,0.000064,1,0,0,0,0,0,0,0.031094,-0.019043,-0.000300,1,0,0,0,0,0,0
0.520000,0.000795,0.024303,0.000007,1,0,0,0,0,0,0,-0.020873,-0.015860,0.000040,1,0,0,0,0,0,0,0.030632,-0.018767,-0.000291,1,0,0,0,0,0,0
0.530000,0.000792,0.022728,0.000005,1,0,0,0,0,0,0,-0.020312,-0.014291,0.000015,1,0,0,0,0,0,0,0.030254,-0.018540,-0.000284,1,0,0,0,0,0,0
0.540000,0.000788,0.021075,0.000004,1,0,0,0,0,0,0,-0.019670,-0.012669,-0.000010,1,0,0,0,0,0,0,0.029952,-0.018355,-0.000278,1,0,0,0,0,0,0
0.550000,0.000782,0.019353,0.000003,1,0,0,0,0,0,0,-0.018951,-0.011004,-0.000034,1,0,0,0,0,0,0,0.029722,-0.018211,-0.000274,1,0,0,0,0,0,0
0.560000,0.000776,0.017575,0.000002,1,0,0,0,0,0,0,-0.018160,-0.009306,-0.000058,1,0,0,0,0,0,0,0.029554,-0.018103,-0.000270,1,0,0,0,0,0,0
0.570000,0.000769,0.015753,0.000001,1,0,0,0,0,0,0,-0.017305,-0.007591,-0.000080,1,0,0,0,0,0,0,0.029431,-0.018021,-0.000268,1,0,0,0,0,0,0
0.580000,0.000761,0.013899,-0.000000,1,0,0,0,0,0,0,-0.016394,-0.005873,-0.000100,1,0,0,0,0,0,0,0.029335,-0.017954,-0.000265,1,0,0,0,0,0,0
0.590000,0.000751,0.012027,-0.000001,1,0,0,0,0,0,0,-0.015438,-0.004172,-0.000118,1,0,0,0,0,0,0,0.029253,-0.017895,-0.000264,1,0,0,0,0,0,0
0.600000,0.000740,0.010150,-0.000002,1,0,0,0,0,0,0,-0.014444,-0.002501,-0.000135,1,0,0,0,0,0,0,0.029180,-0.017841,-0.000262,1,0,0,0,0,0,0
0.610000,0.000727,0.008284,-0.000003,1,0,0,0,0,0,0,-0.013416,-0.000860,-0.000148,1,0,0,0,0,0,0,0.029115,-0.017792,-0.000260,1,0,0,0,0,0,0
0.620000,0.000712,0.006448,-0.000004,1,0,0,0,0,0,0,-0.012361,0.000752,-0.000160,1,0,0,0,0,0,0,0.029046,-0.017741,-0.000259,1,0,0,0,0,0,0
0.630000,0.000694,0.004663,-0.000005,1,0,0,0,0,0,0,-0.011288,0.002329,-0.000170,1,0,0,0,0,0,0,0.028961,-0.017683,-0.000257,1,0,0,0,0,0,0
0.640000,0.000672,0.002955,-0.000006,1,0,0,0,0,0,0,-0.010207,0.003866,-0.000177,1,0,0,0,0,0,0,0.028848,-0.017611,-0.000255,1,0,0,0,0,0,0
0.650000,0.000644,0.001356,-0.000007,1,0,0,0,0,0,0,-0.009132,0.005353,-0.000182,1,0,0,0,0,0,0,0.028699,-0.017520,-0.000252,1,0,0,0,0,0,0
0.660000,0.000610,-0.000097,-0.000007,1,0,0,0,0,0,0,-0.008075,0.006783,-0.000185,1,0,0,0,0,0,0,0.028514,-0.017411,-0.000249,1,0,0,0,0,0,0
0.670000,0.000567,-0.001359,-0.000007,1,0,0,0,0,0,0,-0.007051,0.008150,-0.000186,1,0,0,0,0,0,0,0.028298,-0.017288,-0.000246,1,0,0,0,0,0,0
0.680000,0.000512,-0.002386,-0.000008,1,0,0,0,0,0,0,-0.006078,0.009445,-0.000185,1,0,0,0,0,0,0,0.028061,-0.017158,-0.000242,1,0,0,0,0,0,0
0.690000,0.000443,-0.003141,-0.000007,1,0,0,0,0,0,0,-0.005177,0.010662,-0.000182,1,0,0,0,0,0,0,0.027819,-0.017029,-0.000238,1,0,0,0,0,0,0
0.700000,0.000358,-0.003598,-0.000007,1,0,0,0,0,0,0,-0.004377,0.011792,-0.000179,1,0,0,0,0,0,0,0.027587,-0.016911,-0.000235,1,0,0,0,0,0,0
0.710000,0.000256,-0.003758,-0.000007,1,0,0,0,0,0,0,-0.003714,0.012825,-0.000173,1,0,0,0,0,0,0,0.027375,-0.016812,-0.000232,1,0,0,0,0,0,0
0.720000,0.000136,-0.003620,-0.000006,1,0,0,0,0,0,0,-0.003234,0.013751,-0.000168,1,0,0,0,0,0,0,0.027191,-0.016736,-0.000230,1,0,0,0,0,0,0
0.730000,-0.000002,-0.003187,-0.000006,1,0,0,0,0,0,0,-0.002990,0.014558,-0.000161,1,0,0,0,0,0,0,0.027035,-0.016682,-0.000228,1,0,0,0,0,0,0
0.740000,-0.000156,-0.002513,-0.000006,1,0,0,0,0,0,0,-0.003037,0.015235,-0.000155,1,0,0,0,0,0,0,0.026905,-0.016650,-0.000227,1,0,0,0,0,0,0
0.750000,-0.000317,-0.001692,-0.000006,1,0,0,0,0,0,0,-0.003412,0.015777,-0.000148,1,0,0,0,0,0,0,0.026802,-0.016637,-0.000227,1,0,0,0,0,0,0
0.760000,-0.000479,-0.000817,-0.000006,1,0,0,0,0,0,0,-0.004115,0.016185,-0.000142,1,0,0,0,0,0,0,0.026729,-0.016646,-0.000227,1,0,0,0,0,0,0
0.770000,-0.000634,0.000052,-0.000006,1,0,0,0,0,0,0,-0.005102,0.016466,-0.000137,1,0,0,0,0,0,0,0.026693,-0.016678,-0.000227,1,0,0,0,0,0,0
0.780000,-0.000781,0.000888,-0.000006,1,0,0,0,0,0,0,-0.006346,0.016622,-0.000132,1,0,0,0,0,0,0,0.026702,-0.016736,-0.000229,1,0,0,0,0,0,0
0.790000,-0.000918,0.001692,-0.000006,1,0,0,0,0,0,0,-0.007828,0.016652,-0.000127,1,0,0,0,0,0,0,0.026764,-0.016821,-0.000231,1,0,0,0,0,0,0
0.800000,-0.001050,0.002489,-0.000007,1,0,0,0,0,0,0,-0.009454,0.016566,-0.000122,1,0,0,0,0,0,0,0.026885,-0.016937,-0.000233,1,0,0,0,0,0,0
0.810000,-0.001182,0.003339,-0.000007,1,0,0,0,0,0,0,-0.011086,0.016387,-0.000117,1,0,0,0,0,0,0,0.027078,-0.017086,-0.000237,1,0,0,0,0,0,0
0.820000,-0.001319,0.004280,-0.000008,1,0,0,0,0,0,0,-0.012608,0.016139,-0.000112,1,0,0,0,0,0,0,0.027358,-0.017275,-0.000242,1,0,0,0,0,0,0
0.830000,-0.001463,0.005318,-0.000009,1,0,0,0,0,0,0,-0.013962,0.015837,-0.000106,1,0,0,0,0,0,0,0.027752,-0.017517,-0.000248,1,0,0,0,0,0,0
0.840000,-0.001617,0.006466,-0.000011,1,0,0,0,0,0,0,-0.015146,0.015489,-0.000101,1,0,0,0,0,0,0,0.028294,-0.017830,-0.000257,1,0,0,0,0,0,0
0.850000,-0.001780,0.007736,-0.000013,1,0,0,0,0,0,0,-0.016235,0.015077,-0.000095,1,0,0,0,0,0,0,0.029011,-0.018228,-0.000268,1,0,0,0,0,0,0
0.860000,-0.001949,0.009106,-0.000015,1,0,0,0,0,0,0,-0.017308,0.014577,-0.000088,1,0,0,0,0,0,0,0.029917,-0.018721,-0.000282,1,0,0,0,0,0,0
0.870000,-0.002118,0.010535,-0.000017,1,0,0,0,0,0,0,-0.018329,0.014004,-0.000080,1,0,0,0,0,0,0,0.030998,-0.019304,-0.000300,1,0,0,0,0,0,0
0.880000,-0.002277,0.011971,-0.000020,1,0,0,0,0,0,0,-0.019359,0.013333,-0.000070,1,0,0,0,0,0,0,0.032222,-0.019962,-0.000320,1,0,0,0,0,0,0
0.890000,-0.002417,0.013364,-0.000023,1,0,0,0,0,0,0,-0.020405,0.012556,-0.000058,1,0,0,0,0,0,0,0.033553,-0.020679,-0.000344,1,0,0,0,0,0,0
0.900000,-0.002536,0.014686,-0.000026,1,0,0,0,0,0,0,-0.021453,0.011674,-0.000043,1,0,0,0,0,0,0,0.034967,-0.021445,-0.000370,1,0,0,0,0,0,0
0.910000,-0.002630,0.015936,-0.000029,1,0,0,0,0,0,0,-0.022542,0.010654,-0.000025,1,0,0,0,0,0,0,0.036437,-0.022247,-0.000399,1,0,0,0,0,0,0
0.920000,-0.002699,0.017106,-0.000031,1,0,0,0,0,0,0,-0.023653,0.009490,-0.000004,1,0,0,0,0,0,0,0.037935,-0.023075,-0.000430,1,0,0,0,0,0,0
0.930000,-0.002745,0.018189,-0.000034,1,0,0,0,0,0,0,-0.024743,0.008197,0.000022,1,0,0,0,0,0,0,0.039446,-0.023920,-0.000463,1,0,0,0,0,0,0
0.940000,-0.002769,0.019184,-0.000036,1,0,0,0,0,0,0,-0.025772,0.006794,0.000050,1,0,0,0,0,0,0,0.040973,-0.024786,-0.000499,1,0,0,0,0,0,0
0.950000,-0.002770,0.020097,-0.000038,1,0,0,0,0,0,0,-0.026698,0.005316,0.000081,1,0,0,0,0,0,0,0.042523,-0.025678,-0.000536,1,0,0,0,0,0,0
0.960000,-0.002749,0.020941,-0.000040,1,0,0,0,0,0,0,-0.027487,0.003805,0.000113,1,0,0,0,0,0,0,0.044102,-0.026600,-0.000577,1,0,0,0,0,0,0
0.970000,-0.002706,0.021733,-0.000041,1,0,0,0,0,0,0,-0.028123,0.002291,0.000146,1,0,0,0,0,0,0,0.045715,-0.027552,-0.000620,1,0,0,0,0,0,0
0.980000,-0.002640,0.022498,-0.000043,1,0,0,0,0,0,0,-0.028605,0.000776,0.000178,1,0,0,0,0,0,0,0.047361,-0.028531,-0.000666,1,0,0,0,0,0,0
0.990000,-0.002554,0.023264,-0.000044,1,0,0,0,0,0,0,-0.028937,-0.000728,0.000211,1,0,0,0,0,0,0,0.049027,-0.029529,-0.000715,1,0,0,0,0,0,0
1.000000,-0.002449,0.024050,-0.000045,1,0,0,0,0,0,0,-0.029124,-0.002213,0.000242,1,0,0,0,0,0,0,0.050692,-0.030531,-0.000765,1,0,0,0,0,0,0
1.010000,-0.002330,0.024861,-0.000046,1,0,0,0,0,0,0,-0.029174,-0.003677,0.000273,1,0,0,0,0,0,0,0.052334,-0.031524,-0.000817,1,0,0,0,0,0,0
1.020000,-0.002201,0.025688,-0.000047,1,0,0,0,0,0,0,-0.029095,-0.005127,0.000302,1,0,0,0,0,0,0,0.053963,-0.032515,-0.000870,1,0,0,0,0,0,0
1.030000,-0.002065,0.026517,-0.000048,1,0,0,0,0,0,0,-0.028895,-0.006575,0.000331,1,0,0,0,0,0,0,0.055588,-0.033508,-0.000925,1,0,0,0,0,0,0
1.040000,-0.001924,0.027341,-0.000048,1,0,0,0,0,0,0,-0.028588,-0.008046,0.000359,1,0,0,0,0,0,0,0.057201,-0.034499,-0.000982,1,0,0,0,0,0,0
1.050000,-0.001780,0.028172,-0.000048,1,0,0,0,0,0,0,-0.028194,-0.009564,0.000388,1,0,0,0,0,0,0,0.058800,-0.035487,-0.001039,1,0,0,0,0,0,0
1.060000,-0.001634,0.029028,-0.000049,1,0,0,0,0,0,0,-0.027732,-0.011140,0.000417,1,0,0,0,0,0,0,0.060394,-0.036476,-0.001099,1,0,0,0,0,0,0
1.070000,-0.001490,0.029903,-0.000048,1,0,0,0,0,0,0,-0.027220,-0.012763,0.000446,1,0,0,0,0,0,0,0.062009,-0.037481,-0.001160,1,0,0,0,0,0,0
1.080000,-0.001350,0.030776,-0.000048,1,0,0,0,0,0,0,-0.026694,-0.014411,0.000475,1,0,0,0,0,0,0,0.063663,-0.038511,-0.001225,1,0,0,0,0,0,0
1.090000,-0.001215,0.031611,-0.000048,1,0,0,0,0,0,0,-0.026165,-0.016078,0.000502,1,0,0,0,0,0,0,0.065370,-0.039573,-0.001294,1,0,0,0,0,0,0
1.100000,-0.001085,0.032388,-0.000047,1,0,0,0,0,0,0,-0.025623,-0.017741,0.000528,1,0,0,0,0,0,0,0.067127,-0.040664,-0.001366,1,0,0,0,0,0,0
1.110000,-0.000963,0.033105,-0.000046,1,0,0,0,0,0,0,-0.025055,-0.019376,0.000552,1,0,0,0,0,0,0,0.068910,-0.041771,-0.001442,1,0,0,0,0,0,0
1.120000,-0.000850,0.033764,-0.000045,1,0,0,0,0,0,0,-0.024452,-0.020963,0.000573,1,0,0,0,0,0,0,0.070689,-0.042875,-0.001519,1,0,0,0,0,0,0
1.130000,-0.000747,0.034369,-0.000043,1,0,0,0,0,0,0,-0.023806,-0.022487,0.000591,1,0,0,0,0,0,0,0.072427,-0.043957,-0.001596,1,0,0,0,0,0,0
1.140000,-0.000655,0.034912,-0.000042,1,0,0,0,0,0,0,-0.023113,-0.023961,0.000606,1,0,0,0,0,0,0,0.074075,-0.044986,-0.001672,1,0,0,0,0,0,0
1.150000,-0.000570,0.035378,-0.000040,1,0,0,0,0,0,0,-0.022367,-0.025388,0.000619,1,0,0,0,0,0,0,0.075576,-0.045932,-0.001742,1,0,0,0,0,0,0
1.160000,-0.000492,0.035771,-0.000039,1,0,0,0,0,0,0,-0.021564,-0.026749,0.000629,1,0,0,0,0,0,0,0.076882,-0.046766,-0.001806,1,0,0,0,0,0,0
1.170000,-0.000426,0.036104,-0.000037,1,0,0,0,0,0,0,-0.020710,-0.028029,0.000636,1,0,0,0,0,0,0,0.077953,-0.047465,-0.001860,1,0,0,0,0,0,0
1.180000,-0.000375,0.036393,-0.000036,1,0,0,0,0,0,0,-0.019808,-0.029219,0.000640,1,0,0,0,0,0,0,0.078758,-0.048008,-0.001902,1,0,0,0,0,0,0
1.190000,-0.000341,0.036658,-0.000034,1,0,0,0,0,0,0,-0.018865,-0.030316,0.000640,1,0,0,0,0,0,0,0.079286,-0.048389,-0.001931,1,0,0,0,0,0,0
1.200000,-0.000325,0.036905,-0.000032,1,0,0,0,0,0,0,-0.017892,-0.031307,0.000637,1,0,0,0,0,0,0,0.079538,-0.048605,-0.001948,1,0,0,0,0,0,0
1.210000,-0.000325,0.037129,-0.000031,1,0,0,0,0,0,0,-0.016894,-0.032175,0.000631,1,0,0,0,0,0,0,0.079530,-0.048665,-0.001952,1,0,0,0,0,0,0
1.220000,-0.000338,0.037322,-0.000029,1,0,0,0,0,0,0,-0.015877,-0.032927,0.000622,1,0,0,0,0,0,0,0.079283,-0.048579,-0.001944,1,0,0,0,0,0,0
1.230000,-0.000361,0.037485,-0.000028,1,0,0,0,0,0,0,-0.014850,-0.033576,0.000611,1,0,0,0,0,0,0,0.078824,-0.048359,-0.001926,1,0,0,0,0,0,0
1.240000,-0.000394,0.037625,-0.000027,1,0,0,0,0,0,0,-0.013829,-0.034126,0.000597,1,0,0,0,0,0,0,0.078181,-0.048023,-0.001898,1,0,0,0,0,0,0
1.250000,-0.000433,0.037726,-0.000025,1,0,0,0,0,0,0,-0.012829,-0.034580,0.000581,1,0,0,0,0,0,0,0.077390,-0.047588,-0.001863,1,0,0,0,0,0,0
1.260000,-0.000475,0.037763,-0.000024,1,0,0,0,0,0,0,-0.011868,-0.034936,0.000564,1,0,0,0,0,0,0,0.076478,-0.047069,-0.001822,1,0,0,0,0,0,0
1.270000,-0.000516,0.037723,-0.000023,1,0,0,0,0,0,0,-0.010959,-0.035190,0.000546,1,0,0,0,0,0,0,0.075464,-0.046477,-0.001776,1,0,0,0,0,0,0
1.280000,-0.000558,0.037610,-0.000022,1,0,0,0,0,0,0,-0.010124,-0.035341,0.000526,1,0,0,0,0,0,0,0.074364,-0.045818,-0.001725,1,0,0,0,0,0,0
1.290000,-0.000602,0.037451,-0.000022,1,0,0,0,0,0,0,-0.009385,-0.035384,0.000505,1,0,0,0,0,0,0,0.073186,-0.045098,-0.001670,1,0,0,0,0,0,0
1.300000,-0.000651,0.037263,-0.000021,1,0,0,0,0,0,0,-0.008767,-0.035313,0.000484,1,0,0,0,0,0,0,0.071934,-0.044318,-0.001612,1,0,0,0,0,0,0
1.310000,-0.000706,0.037064,-0.000020,1,0,0,0,0,0,0,-0.008280,-0.035121,0.000463,1,0,0,0,0,0,0,0.070608,-0.043479,-0.001551,1,0,0,0,0,0,0
1.320000,-0.000768,0.036867,-0.000019,1,0,0,0,0,0,0,-0.007914,-0.034803,0.000441,1,0,0,0,0,0,0,0.069210,-0.042584,-0.001487,1,0,0,0,0,0,0
1.330000,-0.000840,0.036686,-0.000019,1,0,0,0,0,0,0,-0.007645,-0.034366,0.000419,1,0,0,0,0,0,0,0.067735,-0.041629,-0.001421,1,0,0,0,0,0,0
1.340000,-0.000926,0.036530,-0.000019,1,0,0,0,0,0,0,-0.007463,-0.033817,0.000397,1,0,0,0,0,0,0,0.066184,-0.040619,-0.001353,1,0,0,0,0,0,0
1.350000,-0.001027,0.036399,-0.000018,1,0,0,0,0,0,0,-0.007381,-0.033170,0.000375,1,0,0,0,0,0,0,0.064577,-0.039565,-0.001283,1,0,0,0,0,0,0
1.360000,-0.001146,0.036285,-0.000018,1,0,0,0,0,0,0,-0.007403,-0.032435,0.000354,1,0,0,0,0,0,0,0.062933,-0.038479,-0.001213,1,0,0,0,0,0,0
1.370000,-0.001283,0.036169,-0.000018,1,0,0,0,0,0,0,-0.007540,-0.031627,0.000333,1,0,0,0,0,0,0,0.061267,-0.037372,-0.001144,1,0,0,0,0,0,0
1.380000,-0.001438,0.036033,-0.000018,1,0,0,0,0,0,0,-0.007817,-0.030759,0.000313,1,0,0,0,0,0,0,0.059592,-0.036255,-0.001076,1,0,0,0,0,0,0
1.390000,-0.001610,0.035875,-0.000018,1,0,0,0,0,0,0,-0.008228,-0.029839,0.000294,1,0,0,0,0,0,0,0.057921,-0.035136,-0.001010,1,0,0,0,0,0,0
1.400000,-0.001805,0.035702,-0.000019,1,0,0,0,0,0,0,-0.008751,-0.028874,0.000275,1,0,0,0,0,0,0,0.056264,-0.034024,-0.000947,1,0,0,0,0,0,0
1.410000,-0.002021,0.035514,-0.000019,1,0,0,0,0,0,0,-0.009380,-0.027867,0.000256,1,0,0,0,0,0,0,0.054626,-0.032926,-0.000887,1,0,0,0,0,0,0
1.420000,-0.002257,0.035301,-0.000019,1,0,0,0,0,0,0,-0.010106,-0.026822,0.000238,1,0,0,0,0,0,0,0.053005,-0.031842,-0.000829,1,0,0,0,0,0,0
1.430000,-0.002505,0.035043,-0.000020,1,0,0,0,0,0,0,-0.010899,-0.025737,0.000219,1,0,0,0,0,0,0,0.051395,-0.030774,-0.000774,1,0,0,0,0,0,0
1.440000,-0.002767,0.034743,-0.000020,1,0,0,0,0,0,0,-0.011722,-0.024612,0.000201,1,0,0,0,0,0,0,0.049786,-0.029719,-0.000721,1,0,0,0,0,0,0
1.450000,-0.003050,0.034424,-0.000021,1,0,0,0,0,0,0,-0.012541,-0.023447,0.000183,1,0,0,0,0,0,0,0.048154,-0.028664,-0.000670,1,0,0,0,0,0,0
1.460000,-0.003356,0.034096,-0.000022,1,0,0,0,0,0,0,-0.013332,-0.022243,0.000165,1,0,0,0,0,0,0,0.046471,-0.027593,-0.000621,1,0,0,0,0,0,0
1.470000,-0.003685,0.033757,-0.000023,1,0,0,0,0,0,0,-0.014079,-0.021004,0.000146,1,0,0,0,0,0,0,0.044727,-0.026502,-0.000572,1,0,0,0,0,0,0
1.480000,-0.004032,0.033400,-0.000023,1,0,0,0,0,0,0,-0.014781,-0.019736,0.000127,1,0,0,0,0,0,0,0.042928,-0.025395,-0.000525,1,0,0,0,0,0,0
1.490000,-0.004392,0.033016,-0.000024,1,0,0,0,0,0,0,-0.015444,-0.018445,0.000108,1,0,0,0,0,0,0,0.041079,-0.024275,-0.000479,1,0,0,0,0,0,0
1.500000,-0.004753,0.032590,-0.000025,1,0,0,0,0,0,0,-0.016078,-0.017137,0.000089,1,0,0,0,0,0,0,0.039186,-0.023144,-0.000434,1,0,0,0,0,0,0
1.510000,-0.005104,0.032108,-0.000026,1,0,0,0,0,0,0,-0.016695,-0.015819,0.000070,1,0,0,0,0,0,0,0.037262,-0.022014,-0.000392,1,0,0,0,0,0,0
1.520000,-0.005436,0.031564,-0.000026,1,0,0,0,0,0,0,-0.017312,-0.014498,0.000051,1,0,0,0,0,0,0,0.035320,-0.020889,-0.000352,1,0,0,0,0,0,0
1.530000,-0.005742,0.030958,-0.000026,1,0,0,0,0,0,0,-0.017934,-0.013177,0.000032,1,0,0,0,0,0,0,0.033373,-0.019776,-0.000315,1,0,0,0,0,0,0
1.540000,-0.006015,0.030295,-0.000026,1,0,0,0,0,0,0,-0.018564,-0.011857,0.000012,1,0,0,0,0,0,0,0.031434,-0.018681,-0.000280,1,0,0,0,0,0,0
1.550000,-0.006251,0.029579,-0.000025,1,0,0,0,0,0,0,-0.019201,-0.010540,-0.000007,1,0,0,0,0,0,0,0.029517,-0.017608,-0.000249,1,0,0,0,0,0,0
1.560000,-0.006443,0.028813,-0.000024,1,0,0,0,0,0,0,-0.019846,-0.009221,-0.000027,1,0,0,0,0,0,0,0.027633,-0.016562,-0.000219,1,0,0,0,0,0,0
1.570000,-0.006586,0.027997,-0.000023,1,0,0,0,0,0,0,-0.020494,-0.007894,-0.000047,1,0,0,0,0,0,0,0.025793,-0.015545,-0.000193,1,0,0,0,0,0,0
1.580000,-0.006673,0.027125,-0.000022,1,0,0,0,0,0,0,-0.021143,-0.006551,-0.000067,1,0,0,0,0,0,0,0.024004,-0.014559,-0.000169,1,0,0,0,0,0,0
1.590000,-0.006703,0.026189,-0.000019,1,0,0,0,0,0,0,-0.021789,-0.005177,-0.000089,1,0,0,0,0,0,0,0.022273,-0.013607,-0.000147,1,0,0,0,0,0,0
1.600000,-0.006673,0.025180,-0.000017,1,0,0,0,0,0,0,-0.022426,-0.003753,-0.000112,1,0,0,0,0,0,0,0.020614,-0.012695,-0.000128,1,0,0,0,0,0,0
1.610000,-0.006582,0.024091,-0.000014,1,0,0,0,0,0,0,-0.023041,-0.002255,-0.000137,1,0,0,0,0,0,0,0.019039,-0.011828,-0.000111,1,0,0,0,0,0,0
1.620000,-0.006433,0.022919,-0.000010,1,0,0,0,0,0,0,-0.023606,-0.000671,-0.000164,1,0,0,0,0,0,0,0.017556,-0.011011,-0.000096,1,0,0,0,0,0,0
1.630000,-0.006229,0.021667,-0.000006,1,0,0,0,0,0,0,-0.024092,0.000990,-0.000194,1,0,0,0,0,0,0,0.016173,-0.010248,-0.000083,1,0,0,0,0,0,0
1.640000,-0.005974,0.020344,-0.000002,1,0,0,0,0,0,0,-0.024474,0.002696,-0.000225,1,0,0,0,0,0,0,0.014895,-0.009540,-0.000072,1,0,0,0,0,0,0
1.650000,-0.005676,0.018962,0.000003,1,0,0,0,0,0,0,-0.024750,0.004424,-0.000256,1,0,0,0,0,0,0,0.013725,-0.008891,-0.000063,1,0,0,0,0,0,0
1.660000,-0.005342,0.017539,0.000007,1,0,0,0,0,0,0,-0.024922,0.006154,-0.000287,1,0,0,0,0,0,0,0.012668,-0.008302,-0.000055,1,0,0,0,0,0,0
1.670000,-0.004981,0.016092,0.000011,1,0,0,0,0,0,0,-0.024995,0.007859,-0.000317,1,0,0,0,0,0,0,0.011731,-0.007778,-0.000048,1,0,0,0,0,0,0
1.680000,-0.004598,0.014637,0.000015,1,0,0,0,0,0,0,-0.024975,0.009514,-0.000346,1,0,0,0,0,0,0,0.010918,-0.007321,-0.000043,1,0,0,0,0,0,0
1.690000,-0.004199,0.013187,0.000019,1,0,0,0,0,0,0,-0.024867,0.011099,-0.000372,1,0,0,0,0,0,0,0.010232,-0.006934,-0.000039,1,0,0,0,0,0,0
1.700000,-0.003790,0.011753,0.000022,1,0,0,0,0,0,0,-0.024679,0.012597,-0.000395,1,0,0,0,0,0,0,0.009667,-0.006612,-0.000035,1,0,0,0,0,0,0
1.710000,-0.003376,0.010339,0.000024,1,0,0,0,0,0,0,-0.024413,0.013991,-0.000415,1,0,0,0,0,0,0,0.009224,-0.006356,-0.000033,1,0,0,0,0,0,0
1.720000,-0.002961,0.008945,0.000026,1,0,0,0,0,0,0,-0.024073,0.015268,-0.000432,1,0,0,0,0,0,0,0.008905,-0.006167,-0.000031,1,0,0,0,0,0,0
1.730000,-0.002548,0.007570,0.000027,1,0,0,0,0,0,0,-0.023659,0.016416,-0.000445,1,0,0,0,0,0,0,0.008710,-0.006044,-0.000029,1,0,0,0,0,0,0
1.740000,-0.002140,0.006210,0.000028,1,0,0,0,0,0,0,-0.023172,0.017426,-0.000453,1,0,0,0,0,0,0,0.008632,-0.005983,-0.000029,1,0,0,0,0,0,0
1.750000,-0.001736,0.004867,0.000029,1,0,0,0,0,0,0,-0.022611,0.018293,-0.000458,1,0,0,0,0,0,0,0.008656,-0.005976,-0.000028,1,0,0,0,0,0,0
1.760000,-0.001341,0.003554,0.000029,1,0,0,0,0,0,0,-0.021973,0.019016,-0.000459,1,0,0,0,0,0,0,0.008761,-0.006011,-0.000029,1,0,0,0,0,0,0
1.770000,-0.000958,0.002285,0.000028,1,0,0,0,0,0,0,-0.021259,0.019596,-0.000457,1,0,0,0,0,0,0,0.008939,-0.006084,-0.000029,1,0,0,0,0,0,0
1.780000,-0.000592,0.001068,0.000027,1,0,0,0,0,0,0,-0.020470,0.020037,-0.000451,1,0,0,0,0,0,0,0.009176,-0.006187,-0.000030,1,0,0,0,0,0,0
1.790000,-0.000244,-0.000098,0.000026,1,0,0,0,0,0,0,-0.019609,0.020342,-0.000442,1,0,0,0,0,0,0,0.009461,-0.006315,-0.000031,1,0,0,0,0,0,0
1.800000,0.000084,-0.001209,0.000025,1,0,0,0,0,0,0,-0.018678,0.020510,-0.000431,1,0,0,0,0,0,0,0.009796,-0.006468,-0.000032,1,0,0,0,0,0,0
1.810000,0.000393,-0.002262,0.000023,1,0,0,0,0,0,0,-0.017678,0.020532,-0.000417,1,0,0,0,0,0,0,0.010179,-0.006645,-0.000034,1,0,0,0,0,0,0
1.820000,0.000682,-0.003248,0.000021,1,0,0,0,0,0,0,-0.016613,0.020405,-0.000401,1,0,0,0,0,0,0,0.010600,-0.006843,-0.000036,1,0,0,0,0,0,0
1.830000,0.000951,-0.004159,0.000019,1,0,0,0,0,0,0,-0.015487,0.020128,-0.000382,1,0,0,0,0,0,0,0.011050,-0.007055,-0.000038,1,0,0,0,0,0,0
1.840000,0.001203,-0.004984,0.000017,1,0,0,0,0,0,0,-0.014309,0.019703,-0.000362,1,0,0,0,0,0,0,0.011518,-0.007277,-0.000041,1,0,0,0,0,0,0
1.850000,0.001440,-0.005716,0.000014,1,0,0,0,0,0,0,-0.013093,0.019138,-0.000341,1,0,0,0,0,0,0,0.011995,-0.007504,-0.000044,1,0,0,0,0,0,0
1.860000,0.001663,-0.006353,0.000012,1,0,0,0,0,0,0,-0.011853,0.018450,-0.000319,1,0,0,0,0,0,0,0.012471,-0.007731,-0.000046,1,0,0,0,0,0,0
1.870000,0.001875,-0.006891,0.000010,1,0,0,0,0,0,0,-0.010603,0.017657,-0.000298,1,0,0,0,0,0,0,0.012935,-0.007953,-0.000049,1,0,0,0,0,0,0
1.880000,0.002077,-0.007322,0.000008,1,0,0,0,0,0,0,-0.009355,0.016766,-0.000276,1,0,0,0,0,0,0,0.013376,-0.008163,-0.000052,1,0,0,0,0,0,0
1.890000,0.002270,-0.007641,0.000007,1,0,0,0,0,0,0,-0.008118,0.015786,-0.000256,1,0,0,0,0,0,0,0.013792,-0.008362,-0.000055,1,0,0,0,0,0,0
1.900000,0.002455,-0.007843,0.000005,1,0,0,0,0,0,0,-0.006902,0.014729,-0.000236,1,0,0,0,0,0,0,0.014187,-0.008551,-0.000058,1,0,0,0,0,0,0
1.910000,0.002635,-0.007923,0.000004,1,0,0,0,0,0,0,-0.005712,0.013610,-0.000217,1,0,0,0,0,0,0,0.014567,-0.008733,-0.000061,1,0,0,0,0,0,0
1.920000,0.002808,-0.007879,0.000003,1,0,0,0,0,0,0,-0.004557,0.012430,-0.000200,1,0,0,0,0,0,0,0.014933,-0.008910,-0.000063,1,0,0,0,0,0,0
1.930000,0.002977,-0.007702,0.000003,1,0,0,0,0,0,0,-0.003451,0.011173,-0.000185,1,0,0,0,0,0,0,0.015293,-0.009085,-0.000066,1,0,0,0,0,0,0
1.940000,0.003142,-0.007381,0.000003,1,0,0,0,0,0,0,-0.002410,0.009833,-0.000171,1,0,0,0,0,0,0,0.015657,-0.009266,-0.000069,1,0,0,0,0,0,0
1.950000,0.003304,-0.006911,0.000004,1,0,0,0,0,0,0,-0.001442,0.008411,-0.000158,1,0,0,0,0,0,0,0.016038,-0.009457,-0.000072,1,0,0,0,0,0,0
1.960000,0.003464,-0.006288,0.000005,1,0,0,0,0,0,0,-0.000555,0.006914,-0.000147,1,0,0,0,0,0,0,0.016447,-0.009668,-0.000076,1,0,0,0,0,0,0
1.970000,0.003623,-0.005515,0.000007,1,0,0,0,0,0,0,0.000249,0.005350,-0.000138,1,0,0,0,0,0,0,0.016901,-0.009905,-0.000080,1,0,0,0,0,0,0
1.980000,0.003783,-0.004598,0.000009,1,0,0,0,0,0,0,0.000966,0.003728,-0.000131,1,0,0,0,0,0,0,0.017413,-0.010177,-0.000085,1,0,0,0,0,0,0
1.990000,0.003944,-0.003556,0.000012,1,0,0,0,0,0,0,0.001595,0.002055,-0.000124,1,0,0,0,0,0,0,0.017992,-0.010489,-0.000091,1,0,0,0,0,0,0
2.000000,0.004105,-0.002418,0.000016,1,0,0,0,0,0,0,0.002136,0.000342,-0.000120,1,0,0,0,0,0,0,0.018641,-0.010844,-0.000098,1,0,0,0,0,0,0
2.010000,0.004263,-0.001208,0.000020,1,0,0,0,0,0,0,0.002574,-0.001415,-0.000117,1,0,0,0,0,0,0,0.019366,-0.011243,-0.000105,1,0,0,0,0,0,0
2.020000,0.004416,0.000115,0.000024,1,0,0,0,0,0,0,0.002879,-0.003229,-0.000114,1,0,0,0,0,0,0,0.020164,-0.011687,-0.000114,1,0,0,0,0,0,0
2.030000,0.004568,0.001569,0.000029,1,0,0,0,0,0,0,0.003059,-0.005071,-0.000113,1,0,0,0,0,0,0,0.021022,-0.012167,-0.000124,1,0,0,0,0,0,0
2.040000,0.004727,0.003151,0.000035,1,0,0,0,0,0,0,0.003131,-0.006900,-0.000112,1,0,0,0,0,0,0,0.021933,-0.012681,-0.000136,1,0,0,0,0,0,0
2.050000,0.004895,0.004837,0.000041,1,0,0,0,0,0,0,0.003117,-0.008674,-0.000112,1,0,0,0,0,0,0,0.022888,-0.013224,-0.000148,1,0,0,0,0,0,0
2.060000,0.005070,0.006585,0.000048,1,0,0,0,0,0,0,0.003033,-0.010360,-0.000111,1,0,0,0,0,0,0,0.023874,-0.013791,-0.000161,1,0,0,0,0,0,0
2.070000,0.005242,0.008357,0.000056,1,0,0,0,0,0,0,0.002889,-0.011938,-0.000110,1,0,0,0,0,0,0,0.024873,-0.014372,-0.000176,1,0,0,0,0,0,0
2.080000,0.005401,0.010125,0.000063,1,0,0,0,0,0,0,0.002679,-0.013406,-0.000108,1,0,0,0,0,0,0,0.025865,-0.014956,-0.000191,1,0,0,0,0,0,0
2.090000,0.005535,0.011875,0.000071,1,0,0,0,0,0,0,0.002391,-0.014766,-0.000106,1,0,0,0,0,0,0,0.026838,-0.015538,-0.000206,1,0,0,0,0,0,0
2.100000,0.005631,0.013599,0.000078,1,0,0,0,0,0,0,0.002021,-0.016026,-0.000104,1,0,0,0,0,0,0,0.027793,-0.016120,-0.000222,1,0,0,0,0,0,0
2.110000,0.005678,0.015287,0.000085,1,0,0,0,0,0,0,0.001558,-0.017196,-0.000100,1,0,0,0,0,0,0,0.028740,-0.016708,-0.000239,1,0,0,0,0,0,0
2.120000,0.005668,0.016927,0.000092,1,0,0,0,0,0,0,0.000999,-0.018285,-0.000097,1,0,0,0,0,0,0,0.029698,-0.017318,-0.000257,1,0,0,0,0,0,0
2.130000,0.005593,0.018506,0.000098,1,0,0,0,0,0,0,0.000338,-0.019302,-0.000092,1,0,0,0,0,0,0,0.030687,-0.017965,-0.000276,1,0,0,0,0,0,0
2.140000,0.005450,0.020014,0.000104,1,0,0,0,0,0,0,-0.000419,-0.020254,-0.000087,1,0,0,0,0,0,0,0.031717,-0.018660,-0.000298,1,0,0,0,0,0,0
2.150000,0.005240,0.021437,0.000109,1,0,0,0,0,0,0,-0.001259,-0.021146,-0.000081,1,0,0,0,0,0,0,0.032791,-0.019408,-0.000322,1,0,0,0,0,0,0
2.160000,0.004964,0.022764,0.000113,1,0,0,0,0,0,0,-0.002162,-0.021976,-0.000074,1,0,0,0,0,0,0,0.033905,-0.020215,-0.000349,1,0,0,0,0,0,0
2.170000,0.004629,0.023987,0.000115,1,0,0,0,0,0,0,-0.003108,-0.022746,-0.000066,1,0,0,0,0,0,0,0.035070,-0.021087,-0.000379,1,0,0,0,0,0,0
2.180000,0.004243,0.025100,0.000117,1,0,0,0,0,0,0,-0.004072,-0.023452,-0.000057,1,0,0,0,0,0,0,0.036307,-0.022041,-0.000412,1,0,0,0,0,0,0
2.190000,0.003815,0.026099,0.000117,1,0,0,0,0,0,0,-0.005034,-0.024094,-0.000048,1,0,0,0,0,0,0,0.037664,-0.023099,-0.000451,1,0,0,0,0,0,0
2.200000,0.003338,0.027004,0.000116,1,0,0,0,0,0,0,-0.005978,-0.024674,-0.000039,1,0,0,0,0,0,0,0.039218,-0.024299,-0.000496,1,0,0,0,0,0,0
2.210000,0.002801,0.027841,0.000115,1,0,0,0,0,0,0,-0.006894,-0.025196,-0.000029,1,0,0,0,0,0,0,0.041093,-0.025700,-0.000551,1,0,0,0,0,0,0
2.220000,0.002205,0.028630,0.000112,1,0,0,0,0,0,0,-0.007779,-0.025675,-0.000018,1,0,0,0,0,0,0,0.043455,-0.027382,-0.000621,1,0,0,0,0,0,0
2.230000,0.001564,0.029378,0.000109,1,0,0,0,0,0,0,-0.008629,-0.026118,-0.000008,1,0,0,0,0,0,0,0.046476,-0.029421,-0.000711,1,0,0,0,0,0,0
2.240000,0.000903,0.030075,0.000105,1,0,0,0,0,0,0,-0.009443,-0.026537,0.000003,1,0,0,0,0,0,0,0.050251,-0.031855,-0.000827,1,0,0,0,0,0,0
2.250000,0.000244,0.030711,0.000100,1,0,0,0,0,0,0,-0.010222,-0.026940,0.000014,1,0,0,0,0,0,0,0.054756,-0.034662,-0.000973,1,0,0,0,0,0,0
2.260000,-0.000398,0.031289,0.000094,1,0,0,0,0,0,0,-0.010971,-0.027327,0.000026,1,0,0,0,0,0,0,0.059897,-0.037791,-0.001150,1,0,0,0,0,0,0
2.270000,-0.001016,0.031829,0.000088,1,0,0,0,0,0,0,-0.011697,-0.027697,0.000037,1,0,0,0,0,0,0,0.065557,-0.041185,-0.001362,1,0,0,0,0,0,0
2.280000,-0.001609,0.032377,0.000081,1,0,0,0,0,0,0,-0.012412,-0.028053,0.000049,1,0,0,0,0,0,0,0.071595,-0.044780,-0.001607,1,0,0,0,0,0,0
2.290000,-0.002180,0.033018,0.000074,1,0,0,0,0,0,0,-0.013142,-0.028414,0.000061,1,0,0,0,0,0,0,0.077889,-0.048514,-0.001886,1,0,0,0,0,0,0
2.300000,-0.002738,0.033857,0.000065,1,0,0,0,0,0,0,-0.013930,-0.028807,0.000074,1,0,0,0,0,0,0,0.084376,-0.052348,-0.002197,1,0,0,0,0,0,0
2.310000,-0.003296,0.034988,0.000055,1,0,0,0,0,0,0,-0.014812,-0.029232,0.000088,1,0,0,0,0,0,0,0.091003,-0.056243,-0.002540,1,0,0,0,0,0,0
2.320000,-0.003871,0.036495,0.000043,1,0,0,0,0,0,0,-0.015804,-0.029660,0.000102,1,0,0,0,0,0,0,0.097648,-0.060131,-0.002908,1,0,0,0,0,0,0
2.330000,-0.004477,0.038488,0.000028,1,0,0,0,0,0,0,-0.016911,-0.030058,0.000116,1,0,0,0,0,0,0,0.104148,-0.063938,-0.003295,1,0,0,0,0,0,0
2.340000,-0.005124,0.041086,0.000009,1,0,0,0,0,0,0,-0.018160,-0.030412,0.000131,1,0,0,0,0,0,0,0.110393,-0.067628,-0.003694,1,0,0,0,0,0,0
2.350000,-0.005798,0.044412,-0.000016,1,0,0,0,0,0,0,-0.019624,-0.030730,0.000145,1,0,0,0,0,0,0,0.116393,-0.071229,-0.004107,1,0,0,0,0,0,0
2.360000,-0.006469,0.048596,-0.000049,1,0,0,0,0,0,0,-0.021373,-0.031008,0.000160,1,0,0,0,0,0,0,0.122271,-0.074814,-0.004540,1,0,0,0,0,0,0
2.370000,-0.007091,0.053720,-0.000090,1,0,0,0,0,0,0,-0.023401,-0.031220,0.000175,1,0,0,0,0,0,0,0.128136,-0.078435,-0.004998,1,0,0,0,0,0,0
2.380000,-0.007624,0.059750,-0.000141,1,0,0,0,0,0,0,-0.025670,-0.031334,0.000188,1,0,0,0,0,0,0,0.133934,-0.082046,-0.005477,1,0,0,0,0,0,0
2.390000,-0.008051,0.066567,-0.000200,1,0,0,0,0,0,0,-0.028209,-0.031332,0.000200,1,0,0,0,0,0,0,0.139459,-0.085529,-0.005959,1,0,0,0,0,0,0
2.400000,-0.008391,0.074002,-0.000265,1,0,0,0,0,0,0,-0.031072,-0.031213,0.000211,1,0,0,0,0,0,0,0.144493,-0.088758,-0.006423,1,0,0,0,0,0,0
2.410000,-0.008700,0.081883,-0.000336,1,0,0,0,0,0,0,-0.034248,-0.031007,0.000219,1,0,0,0,0,0,0,0.148930,-0.091662,-0.006854,1,0,0,0,0,0,0
2.420000,-0.009069,0.089968,-0.000410,1,0,0,0,0,0,0,-0.037738,-0.030782,0.000229,1,0,0,0,0,0,0,0.152813,-0.094248,-0.007248,1,0,0,0,0,0,0
2.430000,-0.009567,0.097809,-0.000484,1,0,0,0,0,0,0,-0.041638,-0.030629,0.000243,1,0,0,0,0,0,0,0.156249,-0.096565,-0.007609,1,0,0,0,0,0,0
2.440000,-0.010151,0.105130,-0.000556,1,0,0,0,0,0,0,-0.046115,-0.030657,0.000267,1,0,0,0,0,0,0,0.159342,-0.098675,-0.007944,1,0,0,0,0,0,0
2.450000,-0.010717,0.112123,-0.000628,1,0,0,0,0,0,0,-0.051407,-0.031008,0.000309,1,0,0,0,0,0,0,0.162162,-0.100621,-0.008258,1,0,0,0,0,0,0
2.460000,-0.011105,0.119266,-0.000705,1,0,0,0,0,0,0,-0.057724,-0.031859,0.000384,1,0,0,0,0,0,0,0.164753,-0.102421,-0.008552,1,0,0,0,0,0,0
2.470000,-0.011124,0.126835,-0.000788,1,0,0,0,0,0,0,-0.064941,-0.033308,0.000503,1,0,0,0,0,0,0,0.167164,-0.104082,-0.008826,1,0,0,0,0,0,0
2.480000,-0.010720,0.134539,-0.000869,1,0,0,0,0,0,0,-0.072663,-0.035333,0.000676,1,0,0,0,0,0,0,0.169501,-0.105620,-0.009084,1,0,0,0,0,0,0
2.490000,-0.009959,0.141966,-0.000940,1,0,0,0,0,0,0,-0.080595,-0.037952,0.000912,1,0,0,0,0,0,0,0.171959,-0.107090,-0.009332,1,0,0,0,0,0,0
2.500000,-0.009014,0.148749,-0.000993,1,0,0,0,0,0,0,-0.088447,-0.041220,0.001226,1,0,0,0,0,0,0,0.174753,-0.108550,-0.009584,1,0,0,0,0,0,0
2.510000,-0.008084,0.154731,-0.001028,1,0,0,0,0,0,0,-0.095732,-0.044960,0.001607,1,0,0,0,0,0,0,0.177961,-0.110007,-0.009840,1,0,0,0,0,0,0
2.520000,-0.007242,0.160049,-0.001048,1,0,0,0,0,0,0,-0.102157,-0.048773,0.002019,1,0,0,0,0,0,0,0.181439,-0.111384,-0.010090,1,0,0,0,0,0,0
2.530000,-0.006472,0.164838,-0.001056,1,0,0,0,0,0,0,-0.107907,-0.052485,0.002440,1,0,0,0,0,0,0,0.184910,-0.112557,-0.010309,1,0,0,0,0,0,0
2.540000,-0.005769,0.169049,-0.001053,1,0,0,0,0,0,0,-0.113406,-0.056102,0.002868,1,0,0,0,0,0,0,0.188091,-0.113409,-0.010477,1,0,0,0,0,0,0
2.550000,-0.005183,0.172607,-0.001040,1,0,0,0,0,0,0,-0.118992,-0.059513,0.003287,1,0,0,0,0,0,0,0.190739,-0.113843,-0.010572,1,0,0,0,0,0,0
2.560000,-0.004743,0.175547,-0.001021,1,0,0,0,0,0,0,-0.124558,-0.062522,0.003673,1,0,0,0,0,0,0,0.192664,-0.113787,-0.010578,1,0,0,0,0,0,0
2.570000,-0.004393,0.178007,-0.000996,1,0,0,0,0,0,0,-0.129839,-0.065074,0.004014,1,0,0,0,0,0,0,0.193785,-0.113230,-0.010491,1,0,0,0,0,0,0
2.580000,-0.004001,0.180070,-0.000969,1,0,0,0,0,0,0,-0.134583,-0.067275,0.004321,1,0,0,0,0,0,0,0.194137,-0.112227,-0.010322,1,0,0,0,0,0,0
2.590000,-0.003470,0.181693,-0.000938,1,0,0,0,0,0,0,-0.138682,-0.069324,0.004617,1,0,0,0,0,0,0,0.193795,-0.110865,-0.010087,1,0,0,0,0,0,0
2.600000,-0.002828,0.182846,-0.000905,1,0,0,0,0,0,0,-0.142253,-0.071348,0.004916,1,0,0,0,0,0,0,0.192782,-0.109218,-0.009802,1,0,0,0,0,0,0
2.610000,-0.002210,0.183676,-0.000869,1,0,0,0,0,0,0,-0.145444,-0.073330,0.005214,1,0,0,0,0,0,0,0.191072,-0.107348,-0.009481,1,0,0,0,0,0,0
2.620000,-0.001727,0.184495,-0.000831,1,0,0,0,0,0,0,-0.148242,-0.075143,0.005492,1,0,0,0,0,0,0,0.188681,-0.105330,-0.009138,1,0,0,0,0,0,0
2.630000,-0.001388,0.185553,-0.000792,1,0,0,0,0,0,0,-0.150479,-0.076706,0.005734,1,0,0,0,0,0,0,0.185698,-0.103256,-0.008792,1,0,0,0,0,0,0
2.640000,-0.001136,0.186836,-0.000754,1,0,0,0,0,0,0,-0.152025,-0.078057,0.005945,1,0,0,0,0,0,0,0.182208,-0.101189,-0.008455,1,0,0,0,0,0,0
2.650000,-0.000954,0.188238,-0.000716,1,0,0,0,0,0,0,-0.152932,-0.079277,0.006134,1,0,0,0,0,0,0,0.178189,-0.099121,-0.008125,1,0,0,0,0,0,0
2.660000,-0.000872,0.189711,-0.000679,1,0,0,0,0,0,0,-0.153427,-0.080356,0.006300,1,0,0,0,0,0,0,0.173550,-0.097014,-0.007794,1,0,0,0,0,0,0
2.670000,-0.000906,0.191260,-0.000643,1,0,0,0,0,0,0,-0.153760,-0.081175,0.006421,1,0,0,0,0,0,0,0.168259,-0.094860,-0.007461,1,0,0,0,0,0,0
2.680000,-0.001013,0.192766,-0.000610,1,0,0,0,0,0,0,-0.154050,-0.081620,0.006483,1,0,0,0,0,0,0,0.162449,-0.092734,-0.007140,1,0,0,0,0,0,0
2.690000,-0.001136,0.193936,-0.000579,1,0,0,0,0,0,0,-0.154260,-0.081713,0.006487,1,0,0,0,0,0,0,0.156382,-0.090744,-0.006847,1,0,0,0,0,0,0
2.700000,-0.001278,0.194460,-0.000550,1,0,0,0,0,0,0,-0.154310,-0.081596,0.006459,1,0,0,0,0,0,0,0.150329,-0.088965,-0.006591,1,0,0,0,0,0,0
2.710000,-0.001507,0.194131,-0.000522,1,0,0,0,0,0,0,-0.154167,-0.081405,0.006420,1,0,0,0,0,0,0,0.144455,-0.087399,-0.006368,1,0,0,0,0,0,0
2.720000,-0.001891,0.192849,-0.000496,1,0,0,0,0,0,0,-0.153875,-0.081169,0.006375,1,0,0,0,0,0,0,0.138811,-0.085985,-0.006168,1,0,0,0,0,0,0
2.730000,-0.002435,0.190659,-0.000470,1,0,0,0,0,0,0,-0.153529,-0.080820,0.006313,1,0,0,0,0,0,0,0.133412,-0.084642,-0.005977,1,0,0,0,0,0,0
2.740000,-0.003063,0.187687,-0.000446,1,0,0,0,0,0,0,-0.153234,-0.080294,0.006226,1,0,0,0,0,0,0,0.128311,-0.083308,-0.005785,1,0,0,0,0,0,0
2.750000,-0.003661,0.184104,-0.000421,1,0,0,0,0,0,0,-0.153006,-0.079638,0.006120,1,0,0,0,0,0,0,0.123645,-0.081966,-0.005593,1,0,0,0,0,0,0
2.760000,-0.004145,0.180119,-0.000398,1,0,0,0,0,0,0,-0.152919,-0.079042,0.006026,1,0,0,0,0,0,0,0.119562,-0.080618,-0.005400,1,0,0,0,0,0,0
2.770000,-0.004472,0.175987,-0.000376,1,0,0,0,0,0,0,-0.153069,-0.078713,0.005975,1,0,0,0,0,0,0,0.116047,-0.079215,-0.005201,1,0,0,0,0,0,0
2.780000,-0.004653,0.171840,-0.000357,1,0,0,0,0,0,0,-0.153467,-0.078709,0.005977,1,0,0,0,0,0,0,0.112875,-0.077631,-0.004984,1,0,0,0,0,0,0
2.790000,-0.004744,0.167611,-0.000338,1,0,0,0,0,0,0,-0.153978,-0.078908,0.006012,1,0,0,0,0,0,0,0.109741,-0.075726,-0.004735,1,0,0,0,0,0,0
2.800000,-0.004852,0.163066,-0.000319,1,0,0,0,0,0,0,-0.154374,-0.079136,0.006052,1,0,0,0,0,0,0,0.106402,-0.073408,-0.004448,1,0,0,0,0,0,0
2.810000,-0.005107,0.157984,-0.000297,1,0,0,0,0,0,0,-0.154503,-0.079337,0.006088,1,0,0,0,0,0,0,0.102747,-0.070659,-0.004125,1,0,0,0,0,0,0
2.820000,-0.005639,0.152345,-0.000273,1,0,0,0,0,0,0,-0.154202,-0.079491,0.006115,1,0,0,0,0,0,0,0.098767,-0.067528,-0.003777,1,0,0,0,0,0,0
2.830000,-0.006492,0.146298,-0.000244,1,0,0,0,0,0,0,-0.153329,-0.079559,0.006128,1,0,0,0,0,0,0,0.094508,-0.064106,-0.003416,1,0,0,0,0,0,0
2.840000,-0.007622,0.140120,-0.000212,1,0,0,0,0,0,0,-0.151833,-0.079464,0.006114,1,0,0,0,0,0,0,0.090054,-0.060506,-0.003057,1,0,0,0,0,0,0
2.850000,-0.008914,0.134069,-0.000179,1,0,0,0,0,0,0,-0.149684,-0.079011,0.006042,1,0,0,0,0,0,0,0.085522,-0.056849,-0.002712,1,0,0,0,0,0,0
2.860000,-0.010232,0.128269,-0.000146,1,0,0,0,0,0,0,-0.146932,-0.078022,0.005889,1,0,0,0,0,0,0,0.081036,-0.053253,-0.002393,1,0,0,0,0,0,0
2.870000,-0.011490,0.122710,-0.000113,1,0,0,0,0,0,0,-0.143694,-0.076416,0.005646,1,0,0,0,0,0,0,0.076683,-0.049814,-0.002104,1,0,0,0,0,0,0
2.880000,-0.012651,0.117285,-0.000080,1,0,0,0,0,0,0,-0.140132,-0.074249,0.005327,1,0,0,0,0,0,0,0.072486,-0.046598,-0.001850,1,0,0,0,0,0,0
2.890000,-0.013720,0.111912,-0.000047,1,0,0,0,0,0,0,-0.136434,-0.071642,0.004956,1,0,0,0,0,0,0,0.068424,-0.043642,-0.001630,1,0,0,0,0,0,0
2.900000,-0.014720,0.106652,-0.000013,1,0,0,0,0,0,0,-0.132767,-0.068737,0.004557,1,0,0,0,0,0,0,0.064487,-0.040982,-0.001443,1,0,0,0,0,0,0
2.910000,-0.015655,0.101572,0.000020,1,0,0,0,0,0,0,-0.129154,-0.065657,0.004149,1,0,0,0,0,0,0,0.060699,-0.038651,-0.001288,1,0,0,0,0,0,0
2.920000,-0.016521,0.096787,0.000050,1,0,0,0,0,0,0,-0.125514,-0.062453,0.003741,1,0,0,0,0,0,0,0.057108,-0.036690,-0.001165,1,0,0,0,0,0,0
2.930000,-0.017310,0.092445,0.000073,1,0,0,0,0,0,0,-0.121697,-0.059154,0.003338,1,0,0,0,0,0,0,0.053741,-0.035114,-0.001070,1,0,0,0,0,0,0
2.940000,-0.018027,0.088652,0.000089,1,0,0,0,0,0,0,-0.117612,-0.055815,0.002949,1,0,0,0,0,0,0,0.050599,-0.033915,-0.000999,1,0,0,0,0,0,0
2.950000,-0.018685,0.085422,0.000096,1,0,0,0,0,0,0,-0.113175,-0.052530,0.002585,1,0,0,0,0,0,0,0.047692,-0.033087,-0.000950,1,0,0,0,0,0,0
2.960000,-0.019305,0.082703,0.000094,1,0,0,0,0,0,0,-0.108388,-0.049387,0.002255,1,0,0,0,0,0,0,0.045059,-0.032631,-0.000920,1,0,0,0,0,0,0
2.970000,-0.019900,0.080368,0.000086,1,0,0,0,0,0,0,-0.103368,-0.046439,0.001965,1,0,0,0,0,0,0,0.042764,-0.032540,-0.000905,1,0,0,0,0,0,0
2.980000,-0.020472,0.078326,0.000074,1,0,0,0,0,0,0,-0.098281,-0.043691,0.001712,1,0,0,0,0,0,0,0.040927,-0.032852,-0.000906,1,0,0,0,0,0,0
2.990000,-0.021005,0.076557,0.000058,1,0,0,0,0,0,0,-0.093270,-0.041101,0.001488,1,0,0,0,0,0,0,0.039682,-0.033601,-0.000923,1,0,0,0,0,0,0
3.000000,-0.021465,0.075022,0.000039,1,0,0,0,0,0,0,-0.088436,-0.038637,0.001289,1,0,0,0,0,0,0,0.039081,-0.034746,-0.000954,1,0,0,0,0,0,0
3.010000,-0.021821,0.073708,0.000016,1,0,0,0,0,0,0,-0.083808,-0.036284,0.001110,1,0,0,0,0,0,0,0.039112,-0.036202,-0.000995,1,0,0,0,0,0,0
3.020000,-0.022056,0.072588,-0.000009,1,0,0,0,0,0,0,-0.079364,-0.034052,0.000952,1,0,0,0,0,0,0,0.039740,-0.037874,-0.001044,1,0,0,0,0,0,0
3.030000,-0.022188,0.071530,-0.000034,1,0,0,0,0,0,0,-0.075044,-0.031940,0.000813,1,0,0,0,0,0,0,0.040896,-0.039660,-0.001099,1,0,0,0,0,0,0
3.040000,-0.022269,0.070412,-0.000056,1,0,0,0,0,0,0,-0.070914,-0.029991,0.000693,1,0,0,0,0,0,0,0.042487,-0.041451,-0.001156,1,0,0,0,0,0,0
3.050000,-0.022363,0.069143,-0.000072,1,0,0,0,0,0,0,-0.067120,-0.028257,0.000596,1,0,0,0,0,0,0,0.044422,-0.043162,-0.001214,1,0,0,0,0,0,0
3.060000,-0.022500,0.067706,-0.000083,1,0,0,0,0,0,0,-0.063744,-0.026726,0.000517,1,0,0,0,0,0,0,0.046646,-0.044736,-0.001270,1,0,0,0,0,0,0
3.070000,-0.022666,0.066169,-0.000090,1,0,0,0,0,0,0,-0.060903,-0.025402,0.000455,1,0,0,0,0,0,0,0.049122,-0.046142,-0.001323,1,0,0,0,0,0,0
3.080000,-0.022811,0.064629,-0.000095,1,0,0,0,0,0,0,-0.058684,-0.024308,0.000409,1,0,0,0,0,0,0,0.051855,-0.047368,-0.001372,1,0,0,0,0,0,0
3.090000,-0.022877,0.063183,-0.000101,1,0,0,0,0,0,0,-0.057059,-0.023460,0.000378,1,0,0,0,0,0,0,0.054756,-0.048377,-0.001416,1,0,0,0,0,0,0
3.100000,-0.022829,0.061940,-0.000111,1,0,0,0,0,0,0,-0.055930,-0.022858,0.000362,1,0,0,0,0,0,0,0.057648,-0.049118,-0.001451,1,0,0,0,0,0,0
3.110000,-0.022666,0.060999,-0.000126,1,0,0,0,0,0,0,-0.055235,-0.022504,0.000359,1,0,0,0,0,0,0,0.060335,-0.049547,-0.001472,1,0,0,0,0,0,0
3.120000,-0.022418,0.060431,-0.000148,1,0,0,0,0,0,0,-0.054942,-0.022391,0.000369,1,0,0,0,0,0,0,0.062681,-0.049661,-0.001479,1,0,0,0,0,0,0
3.130000,-0.022113,0.060249,-0.000176,1,0,0,0,0,0,0,-0.055006,-0.022496,0.000390,1,0,0,0,0,0,0,0.064667,-0.049513,-0.001472,1,0,0,0,0,0,0
3.140000,-0.021768,0.060441,-0.000211,1,0,0,0,0,0,0,-0.055414,-0.022810,0.000422,1,0,0,0,0,0,0,0.066392,-0.049189,-0.001457,1,0,0,0,0,0,0
3.150000,-0.021390,0.060945,-0.000250,1,0,0,0,0,0,0,-0.056175,-0.023343,0.000465,1,0,0,0,0,0,0,0.068009,-0.048792,-0.001439,1,0,0,0,0,0,0
3.160000,-0.021006,0.061660,-0.000291,1,0,0,0,0,0,0,-0.057297,-0.024109,0.000520,1,0,0,0,0,0,0,0.069649,-0.048416,-0.001425,1,0,0,0,0,0,0
3.170000,-0.020682,0.062503,-0.000331,1,0,0,0,0,0,0,-0.058864,-0.025158,0.000592,1,0,0,0,0,0,0,0.071363,-0.048122,-0.001419,1,0,0,0,0,0,0
3.180000,-0.020501,0.063380,-0.000370,1,0,0,0,0,0,0,-0.060787,-0.026456,0.000680,1,0,0,0,0,0,0,0.073118,-0.047941,-0.001422,1,0,0,0,0,0,0
3.190000,-0.020511,0.064278,-0.000406,1,0,0,0,0,0,0,-0.062918,-0.027934,0.000779,1,0,0,0,0,0,0,0.074848,-0.047894,-0.001438,1,0,0,0,0,0,0
3.200000,-0.020706,0.065320,-0.000444,1,0,0,0,0,0,0,-0.065124,-0.029536,0.000889,1,0,0,0,0,0,0,0.076494,-0.048008,-0.001467,1,0,0,0,0,0,0
3.210000,-0.021032,0.066716,-0.000488,1,0,0,0,0,0,0,-0.067240,-0.031177,0.001003,1,0,0,0,0,0,0,0.078023,-0.048320,-0.001512,1,0,0,0,0,0,0
3.220000,-0.021396,0.068717,-0.000544,1,0,0,0,0,0,0,-0.069129,-0.032732,0.001112,1,0,0,0,0,0,0,0.079425,-0.048870,-0.001578,1,0,0,0,0,0,0
3.230000,-0.021674,0.071357,-0.000613,1,0,0,0,0,0,0,-0.070784,-0.034077,0.001209,1,0,0,0,0,0,0,0.080695,-0.049689,-0.001666,1,0,0,0,0,0,0
3.240000,-0.021813,0.074479,-0.000692,1,0,0,0,0,0,0,-0.072324,-0.035095,0.001282,1,0,0,0,0,0,0,0.081845,-0.050795,-0.001777,1,0,0,0,0,0,0
3.250000,-0.021862,0.077931,-0.000776,1,0,0,0,0,0,0,-0.073871,-0.035695,0.001326,1,0,0,0,0,0,0,0.082908,-0.052195,-0.001912,1,0,0,0,0,0,0
3.260000,-0.021915,0.081612,-0.000862,1,0,0,0,0,0,0,-0.075486,-0.035860,0.001338,1,0,0,0,0,0,0,0.083945,-0.053879,-0.002069,1,0,0,0,0,0,0
3.270000,-0.022064,0.085463,-0.000951,1,0,0,0,0,0,0,-0.077213,-0.035648,0.001322,1,0,0,0,0,0,0,0.085021,-0.055827,-0.002248,1,0,0,0,0,0,0
3.280000,-0.022351,0.089476,-0.001041,1,0,0,0,0,0,0,-0.079121,-0.035199,0.001290,1,0,0,0,0,0,0,0.086195,-0.058012,-0.002445,1,0,0,0,0,0,0
3.290000,-0.022775,0.093674,-0.001135,1,0,0,0,0,0,0,-0.081241,-0.034720,0.001256,1,0,0,0,0,0,0,0.087500,-0.060389,-0.002658,1,0,0,0,0,0,0
3.300000,-0.023331,0.098117,-0.001235,1,0,0,0,0,0,0,-0.083582,-0.034374,0.001235,1,0,0,0,0,0,0,0.088951,-0.062897,-0.002881,1,0,0,0,0,0,0
3.310000,-0.024029,0.102854,-0.001343,1,0,0,0,0,0,0,-0.086134,-0.034244,0.001235,1,0,0,0,0,0,0,0.090545,-0.065455,-0.003109,1,0,0,0,0,0,0
3.320000,-0.024865,0.107813,-0.001459,1,0,0,0,0,0,0,-0.088831,-0.034350,0.001257,1,0,0,0,0,0,0,0.092263,-0.067967,-0.003333,1,0,0,0,0,0,0
3.330000,-0.025821,0.112859,-0.001581,1,0,0,0,0,0,0,-0.091530,-0.034682,0.001303,1,0,0,0,0,0,0,0.094056,-0.070323,-0.003544,1,0,0,0,0,0,0
3.340000,-0.026890,0.117864,-0.001706,1,0,0,0,0,0,0,-0.094082,-0.035235,0.001370,1,0,0,0,0,0,0,0.095842,-0.072403,-0.003730,1,0,0,0,0,0,0
3.350000,-0.028066,0.122676,-0.001832,1,0,0,0,0,0,0,-0.096401,-0.035985,0.001459,1,0,0,0,0,0,0,0.097519,-0.074103,-0.003880,1,0,0,0,0,0,0
3.360000,-0.029327,0.127088,-0.001953,1,0,0,0,0,0,0,-0.098561,-0.036902,0.001565,1,0,0,0,0,0,0,0.098996,-0.075349,-0.003988,1,0,0,0,0,0,0
3.370000,-0.030653,0.130958,-0.002064,1,0,0,0,0,0,0,-0.100767,-0.037939,0.001685,1,0,0,0,0,0,0,0.100211,-0.076111,-0.004049,1,0,0,0,0,0,0
3.380000,-0.032029,0.134287,-0.002165,1,0,0,0,0,0,0,-0.103307,-0.039057,0.001814,1,0,0,0,0,0,0,0.101141,-0.076397,-0.004064,1,0,0,0,0,0,0
3.390000,-0.033425,0.137172,-0.002258,1,0,0,0,0,0,0,-0.106319,-0.040183,0.001945,1,0,0,0,0,0,0,0.101778,-0.076238,-0.004035,1,0,0,0,0,0,0
3.400000,-0.034777,0.139688,-0.002346,1,0,0,0,0,0,0,-0.109743,-0.041283,0.002077,1,0,0,0,0,0,0,0.102103,-0.075680,-0.003968,1,0,0,0,0,0,0
3.410000,-0.036018,0.141823,-0.002426,1,0,0,0,0,0,0,-0.113466,-0.042407,0.002214,1,0,0,0,0,0,0,0.102077,-0.074764,-0.003866,1,0,0,0,0,0,0
3.420000,-0.037112,0.143539,-0.002495,1,0,0,0,0,0,0,-0.117369,-0.043635,0.002369,1,0,0,0,0,0,0,0.101667,-0.073534,-0.003736,1,0,0,0,0,0,0
3.430000,-0.038040,0.144871,-0.002555,1,0,0,0,0,0,0,-0.121349,-0.044994,0.002543,1,0,0,0,0,0,0,0.100898,-0.072059,-0.003584,1,0,0,0,0,0,0
3.440000,-0.038763,0.145967,-0.002609,1,0,0,0,0,0,0,-0.125335,-0.046437,0.002734,1,0,0,0,0,0,0,0.099899,-0.070448,-0.003423,1,0,0,0,0,0,0
3.450000,-0.039210,0.147058,-0.002664,1,0,0,0,0,0,0,-0.129305,-0.047901,0.002932,1,0,0,0,0,0,0,0.098892,-0.068843,-0.003267,1,0,0,0,0,0,0
3.460000,-0.039299,0.148276,-0.002726,1,0,0,0,0,0,0,-0.133231,-0.049366,0.003136,1,0,0,0,0,0,0,0.098110,-0.067385,-0.003130,1,0,0,0,0,0,0
3.470000,-0.039003,0.149537,-0.002788,1,0,0,0,0,0,0,-0.137060,-0.050865,0.003350,1,0,0,0,0,0,0,0.097651,-0.066153,-0.003018,1,0,0,0,0,0,0
3.480000,-0.038385,0.150641,-0.002840,1,0,0,0,0,0,0,-0.140709,-0.052451,0.003581,1,0,0,0,0,0,0,0.097445,-0.065150,-0.002931,1,0,0,0,0,0,0
3.490000,-0.037570,0.151432,-0.002876,1,0,0,0,0,0,0,-0.144114,-0.054152,0.003832,1,0,0,0,0,0,0,0.097348,-0.064350,-0.002867,1,0,0,0,0,0,0
3.500000,-0.036688,0.151874,-0.002894,1,0,0,0,0,0,0,-0.147207,-0.055928,0.004099,1,0,0,0,0,0,0,0.097238,-0.063746,-0.002823,1,0,0,0,0,0,0
3.510000,-0.035796,0.152047,-0.002896,1,0,0,0,0,0,0,-0.149905,-0.057695,0.004366,1,0,0,0,0,0,0,0.097061,-0.063346,-0.002800,1,0,0,0,0,0,0
3.520000,-0.034853,0.152069,-0.002889,1,0,0,0,0,0,0,-0.152152,-0.059389,0.004624,1,0,0,0,0,0,0,0.096832,-0.063174,-0.002800,1,0,0,0,0,0,0
3.530000,-0.033787,0.152012,-0.002875,1,0,0,0,0,0,0,-0.153878,-0.060962,0.004863,1,0,0,0,0,0,0,0.096625,-0.063264,-0.002824,1,0,0,0,0,0,0
3.540000,-0.032563,0.151915,-0.002856,1,0,0,0,0,0,0,-0.155067,-0.062421,0.005083,1,0,0,0,0,0,0,0.096516,-0.063636,-0.002875,1,0,0,0,0,0,0
3.550000,-0.031205,0.151852,-0.002833,1,0,0,0,0,0,0,-0.155746,-0.063760,0.005281,1,0,0,0,0,0,0,0.096539,-0.064277,-0.002950,1,0,0,0,0,0,0
3.560000,-0.029763,0.151911,-0.002810,1,0,0,0,0,0,0,-0.155904,-0.064890,0.005443,1,0,0,0,0,0,0,0.096686,-0.065151,-0.003046,1,0,0,0,0,0,0
3.570000,-0.028271,0.152133,-0.002786,1,0,0,0,0,0,0,-0.155484,-0.065656,0.005543,1,0,0,0,0,0,0,0.096916,-0.066203,-0.003156,1,0,0,0,0,0,0
3.580000,-0.026749,0.152458,-0.002760,1,0,0,0,0,0,0,-0.154420,-0.065914,0.005560,1,0,0,0,0,0,0,0.097193,-0.067370,-0.003275,1,0,0,0,0,0,0
3.590000,-0.025248,0.152718,-0.002726,1,0,0,0,0,0,0,-0.152711,-0.065615,0.005488,1,0,0,0,0,0,0,0.097510,-0.068587,-0.003396,1,0,0,0,0,0,0
3.600000,-0.023876,0.152733,-0.002681,1,0,0,0,0,0,0,-0.150478,-0.064830,0.005340,1,0,0,0,0,0,0,0.097873,-0.069785,-0.003512,1,0,0,0,0,0,0
3.610000,-0.022775,0.152411,-0.002625,1,0,0,0,0,0,0,-0.147953,-0.063697,0.005142,1,0,0,0,0,0,0,0.098258,-0.070876,-0.003616,1,0,0,0,0,0,0
3.620000,-0.022052,0.151792,-0.002559,1,0,0,0,0,0,0,-0.145410,-0.062356,0.004918,1,0,0,0,0,0,0,0.098589,-0.071764,-0.003697,1,0,0,0,0,0,0
3.630000,-0.021722,0.150991,-0.002489,1,0,0,0,0,0,0,-0.143051,-0.060921,0.004685,1,0,0,0,0,0,0,0.098738,-0.072344,-0.003746,1,0,0,0,0,0,0
3.640000,-0.021711,0.150097,-0.002418,1,0,0,0,0,0,0,-0.140901,-0.059484,0.004459,1,0,0,0,0,0,0,0.098594,-0.072546,-0.003757,1,0,0,0,0,0,0
3.650000,-0.021915,0.149135,-0.002348,1,0,0,0,0,0,0,-0.138869,-0.058145,0.004252,1,0,0,0,0,0,0,0.098126,-0.072359,-0.003728,1,0,0,0,0,0,0
3.660000,-0.022236,0.148027,-0.002278,1,0,0,0,0,0,0,-0.136818,-0.057026,0.004082,1,0,0,0,0,0,0,0.097352,-0.071812,-0.003664,1,0,0,0,0,0,0
3.670000,-0.022619,0.146625,-0.002206,1,0,0,0,0,0,0,-0.134629,-0.056230,0.003961,1,0,0,0,0,0,0,0.096288,-0.070946,-0.003570,1,0,0,0,0,0,0
3.680000,-0.023058,0.144779,-0.002128,1,0,0,0,0,0,0,-0.132260,-0.055781,0.003890,1,0,0,0,0,0,0,0.094934,-0.069807,-0.003451,1,0,0,0,0,0,0
3.690000,-0.023560,0.142385,-0.002042,1,0,0,0,0,0,0,-0.129746,-0.055589,0.003853,1,0,0,0,0,0,0,0.093328,-0.068449,-0.003314,1,0,0,0,0,0,0
3.700000,-0.024120,0.139422,-0.001946,1,0,0,0,0,0,0,-0.127169,-0.055496,0.003827,1,0,0,0,0,0,0,0.091567,-0.066950,-0.003167,1,0,0,0,0,0,0
3.710000,-0.024693,0.135982,-0.001842,1,0,0,0,0,0,0,-0.124626,-0.055362,0.003794,1,0,0,0,0,0,0,0.089775,-0.065385,-0.003018,1,0,0,0,0,0,0
3.720000,-0.025207,0.132243,-0.001735,1,0,0,0,0,0,0,-0.122177,-0.055094,0.003742,1,0,0,0,0,0,0,0.088064,-0.063822,-0.002873,1,0,0,0,0,0,0
3.730000,-0.025582,0.128415,-0.001630,1,0,0,0,0,0,0,-0.119875,-0.054694,0.003672,1,0,0,0,0,0,0,0.086541,-0.062332,-0.002738,1,0,0,0,0,0,0
3.740000,-0.025747,0.124659,-0.001531,1,0,0,0,0,0,0,-0.117818,-0.054225,0.003593,1,0,0,0,0,0,0,0.085314,-0.060988,-0.002619,1,0,0,0,0,0,0
3.750000,-0.025662,0.121047,-0.001439,1,0,0,0,0,0,0,-0.116084,-0.053739,0.003513,1,0,0,0,0,0,0,0.084478,-0.059856,-0.002521,1,0,0,0,0,0,0
3.760000,-0.025325,0.117602,-0.001356,1,0,0,0,0,0,0,-0.114655,-0.053227,0.003430,1,0,0,0,0,0,0,0.084075,-0.058972,-0.002446,1,0,0,0,0,0,0
3.770000,-0.024763,0.114348,-0.001281,1,0,0,0,0,0,0,-0.113503,-0.052661,0.003342,1,0,0,0,0,0,0,0.084042,-0.058329,-0.002393,1,0,0,0,0,0,0
3.780000,-0.023998,0.111334,-0.001214,1,0,0,0,0,0,0,-0.112535,-0.052029,0.003249,1,0,0,0,0,0,0,0.084207,-0.057869,-0.002357,1,0,0,0,0,0,0
3.790000,-0.023037,0.108638,-0.001158,1,0,0,0,0,0,0,-0.111637,-0.051356,0.003153,1,0,0,0,0,0,0,0.084395,-0.057541,-0.002333,1,0,0,0,0,0,0
3.800000,-0.021885,0.106296,-0.001111,1,0,0,0,0,0,0,-0.110687,-0.050692,0.003061,1,0,0,0,0,0,0,0.084520,-0.057319,-0.002320,1,0,0,0,0,0,0
3.810000,-0.020575,0.104265,-0.001071,1,0,0,0,0,0,0,-0.109619,-0.050072,0.002976,1,0,0,0,0,0,0,0.084609,-0.057206,-0.002316,1,0,0,0,0,0,0
3.820000,-0.019181,0.102489,-0.001037,1,0,0,0,0,0,0,-0.108419,-0.049496,0.002898,1,0,0,0,0,0,0,0.084784,-0.057231,-0.002324,1,0,0,0,0,0,0
3.830000,-0.017797,0.100927,-0.001007,1,0,0,0,0,0,0,-0.107100,-0.048919,0.002822,1,0,0,0,0,0,0,0.085164,-0.057410,-0.002346,1,0,0,0,0,0,0
3.840000,-0.016500,0.099543,-0.000978,1,0,0,0,0,0,0,-0.105715,-0.048311,0.002745,1,0,0,0,0,0,0,0.085797,-0.057738,-0.002380,1,0,0,0,0,0,0
3.850000,-0.015302,0.098359,-0.000951,1,0,0,0,0,0,0,-0.104340,-0.047687,0.002667,1,0,0,0,0,0,0,0.086648,-0.058181,-0.002424,1,0,0,0,0,0,0
3.860000,-0.014171,0.097430,-0.000927,1,0,0,0,0,0,0,-0.102978,-0.047074,0.002592,1,0,0,0,0,0,0,0.087607,-0.058678,-0.002474,1,0,0,0,0,0,0
3.870000,-0.013065,0.096810,-0.000905,1,0,0,0,0,0,0,-0.101586,-0.046501,0.002523,1,0,0,0,0,0,0,0.088544,-0.059155,-0.002522,1,0,0,0,0,0,0
3.880000,-0.011971,0.096549,-0.000887,1,0,0,0,0,0,0,-0.100078,-0.045954,0.002457,1,0,0,0,0,0,0,0.089392,-0.059568,-0.002565,1,0,0,0,0,0,0
3.890000,-0.010914,0.096708,-0.000871,1,0,0,0,0,0,0,-0.098363,-0.045377,0.002390,1,0,0,0,0,0,0,0.090151,-0.059894,-0.002600,1,0,0,0,0,0,0
3.900000,-0.009936,0.097253,-0.000858,1,0,0,0,0,0,0,-0.096379,-0.044698,0.002314,1,0,0,0,0,0,0,0.090844,-0.060126,-0.002627,1,0,0,0,0,0,0
3.910000,-0.009076,0.098090,-0.000844,1,0,0,0,0,0,0,-0.094113,-0.043867,0.002225,1,0,0,0,0,0,0,0.091471,-0.060248,-0.002645,1,0,0,0,0,0,0
3.920000,-0.008381,0.099049,-0.000829,1,0,0,0,0,0,0,-0.091626,-0.042888,0.002125,1,0,0,0,0,0,0,0.091974,-0.060234,-0.002650,1,0,0,0,0,0,0
3.930000,-0.007915,0.099943,-0.000813,1,0,0,0,0,0,0,-0.089023,-0.041796,0.002016,1,0,0,0,0,0,0,0.092277,-0.060072,-0.002642,1,0,0,0,0,0,0
3.940000,-0.007755,0.100619,-0.000793,1,0,0,0,0,0,0,-0.086417,-0.040619,0.001903,1,0,0,0,0,0,0,0.092348,-0.059779,-0.002623,1,0,0,0,0,0,0
3.950000,-0.007932,0.101015,-0.000772,1,0,0,0,0,0,0,-0.083862,-0.039362,0.001787,1,0,0,0,0,0,0,0.092240,-0.059418,-0.002597,1,0,0,0,0,0,0
3.960000,-0.008421,0.101195,-0.000751,1,0,0,0,0,0,0,-0.081365,-0.038021,0.001667,1,0,0,0,0,0,0,0.092067,-0.059067,-0.002573,1,0,0,0,0,0,0
3.970000,-0.009131,0.101258,-0.000731,1,0,0,0,0,0,0,-0.078918,-0.036632,0.001548,1,0,0,0,0,0,0,0.091952,-0.058793,-0.002557,1,0,0,0,0,0,0
3.980000,-0.009923,0.101234,-0.000713,1,0,0,0,0,0,0,-0.076553,-0.035290,0.001436,1,0,0,0,0,0,0,0.091997,-0.058642,-0.002552,1,0,0,0,0,0,0
3.990000,-0.010676,0.101082,-0.000697,1,0,0,0,0,0,0,-0.074350,-0.034136,0.001343,1,0,0,0,0,0,0,0.092278,-0.058635,-0.002560,1,0,0,0,0,0,0
4.000000,-0.011313,0.100719,-0.000682,1,0,0,0,0,0,0,-0.072433,-0.033315,0.001278,1,0,0,0,0,0,0,0.092853,-0.058780,-0.002583,1,0,0,0,0,0,0
4.010000,-0.011808,0.100171,-0.000667,1,0,0,0,0,0,0,-0.070946,-0.032941,0.001246,1,0,0,0,0,0,0,0.093829,-0.059111,-0.002623,1,0,0,0,0,0,0
4.020000,-0.012162,0.099682,-0.000655,1,0,0,0,0,0,0,-0.070035,-0.033091,0.001252,1,0,0,0,0,0,0,0.095439,-0.059753,-0.002693,1,0,0,0,0,0,0
4.030000,-0.012351,0.099317,-0.000647,1,0,0,0,0,0,0,-0.069604,-0.033727,0.001291,1,0,0,0,0,0,0,0.097717,-0.060723,-0.002796,1,0,0,0,0,0,0
4.040000,-0.012349,0.099049,-0.000641,1,0,0,0,0,0,0,-0.069467,-0.034772,0.001358,1,0,0,0,0,0,0,0.100592,-0.061989,-0.002933,1,0,0,0,0,0,0
4.050000,-0.012160,0.098854,-0.000636,1,0,0,0,0,0,0,-0.069478,-0.036157,0.001446,1,0,0,0,0,0,0,0.103942,-0.063501,-0.003099,1,0,0,0,0,0,0
4.060000,-0.011812,0.098763,-0.000633,1,0,0,0,0,0,0,-0.069562,-0.037806,0.001550,1,0,0,0,0,0,0,0.107606,-0.065199,-0.003291,1,0,0,0,0,0,0
4.070000,-0.011345,0.098880,-0.000631,1,0,0,0,0,0,0,-0.069708,-0.039617,0.001664,1,0,0,0,0,0,0,0.111419,-0.067018,-0.003504,1,0,0,0,0,0,0
4.080000,-0.010774,0.099354,-0.000633,1,0,0,0,0,0,0,-0.069967,-0.041473,0.001778,1,0,0,0,0,0,0,0.115239,-0.068900,-0.003732,1,0,0,0,0,0,0
4.090000,-0.010075,0.100321,-0.000638,1,0,0,0,0,0,0,-0.070417,-0.043261,0.001886,1,0,0,0,0,0,0,0.118970,-0.070799,-0.003970,1,0,0,0,0,0,0
4.100000,-0.009201,0.101812,-0.000645,1,0,0,0,0,0,0,-0.071133,-0.044887,0.001981,1,0,0,0,0,0,0,0.122570,-0.072682,-0.004214,1,0,0,0,0,0,0
4.110000,-0.008128,0.103728,-0.000653,1,0,0,0,0,0,0,-0.072152,-0.046309,0.002061,1,0,0,0,0,0,0,0.126039,-0.074526,-0.004460,1,0,0,0,0,0,0
4.120000,-0.006887,0.105892,-0.000657,1,0,0,0,0,0,0,-0.073478,-0.047544,0.002128,1,0,0,0,0,0,0,0.129396,-0.076314,-0.004704,1,0,0,0,0,0,0
4.130000,-0.005553,0.108168,-0.000655,1,0,0,0,0,0,0,-0.075073,-0.048646,0.002187,1,0,0,0,0,0,0,0.132654,-0.078033,-0.004946,1,0,0,0,0,0,0
4.140000,-0.004220,0.110465,-0.000647,1,0,0,0,0,0,0,-0.076882,-0.049667,0.002243,1,0,0,0,0,0,0,0.135797,-0.079661,-0.005181,1,0,0,0,0,0,0
4.150000,-0.002972,0.112692,-0.000632,1,0,0,0,0,0,0,-0.078770,-0.050624,0.002297,1,0,0,0,0,0,0,0.138742,-0.081152,-0.005402,1,0,0,0,0,0,0
4.160000,-0.001842,0.114807,-0.000611,1,0,0,0,0,0,0,-0.080531,-0.051485,0.002347,1,0,0,0,0,0,0,0.141362,-0.082446,-0.005599,1,0,0,0,0,0,0
4.170000,-0.000829,0.116845,-0.000585,1,0,0,0,0,0,0,-0.082080,-0.052222,0.002390,1,0,0,0,0,0,0,0.143535,-0.083489,-0.005764,1,0,0,0,0,0,0
4.180000,0.000076,0.118845,-0.000555,1,0,0,0,0,0,0,-0.083458,-0.052840,0.002425,1,0,0,0,0,0,0,0.145176,-0.084251,-0.005889,1,0,0,0,0,0,0
4.190000,0.000887,0.120793,-0.000521,1,0,0,0,0,0,0,-0.084646,-0.053335,0.002453,1,0,0,0,0,0,0,0.146242,-0.084719,-0.005973,1,0,0,0,0,0,0
4.200000,0.001604,0.122648,-0.000485,1,0,0,0,0,0,0,-0.085617,-0.053704,0.002472,1,0,0,0,0,0,0,0.146737,-0.084903,-0.006014,1,0,0,0,0,0,0
4.210000,0.002218,0.124349,-0.000447,1,0,0,0,0,0,0,-0.086345,-0.053945,0.002482,1,0,0,0,0,0,0,0.146712,-0.084829,-0.006017,1,0,0,0,0,0,0
4.220000,0.002716,0.125823,-0.000409,1,0,0,0,0,0,0,-0.086815,-0.054064,0.002482,1,0,0,0,0,0,0,0.146243,-0.084539,-0.005988,1,0,0,0,0,0,0
4.230000,0.003092,0.127021,-0.000370,1,0,0,0,0,0,0,-0.087046,-0.054076,0.002475,1,0,0,0,0,0,0,0.145393,-0.084071,-0.005932,1,0,0,0,0,0,0
4.240000,0.003345,0.127937,-0.000333,1,0,0,0,0,0,0,-0.087045,-0.053989,0.002459,1,0,0,0,0,0,0,0.144187,-0.083450,-0.005853,1,0,0,0,0,0,0
4.250000,0.003484,0.128586,-0.000297,1,0,0,0,0,0,0,-0.086815,-0.053797,0.002436,1,0,0,0,0,0,0,0.142619,-0.082693,-0.005755,1,0,0,0,0,0,0
4.260000,0.003526,0.128980,-0.000264,1,0,0,0,0,0,0,-0.086365,-0.053490,0.002403,1,0,0,0,0,0,0,0.140687,-0.081813,-0.005639,1,0,0,0,0,0,0
4.270000,0.003496,0.129114,-0.000233,1,0,0,0,0,0,0,-0.085702,-0.053056,0.002359,1,0,0,0,0,0,0,0.138423,-0.080832,-0.005509,1,0,0,0,0,0,0
4.280000,0.003409,0.128989,-0.000205,1,0,0,0,0,0,0,-0.084813,-0.052475,0.002304,1,0,0,0,0,0,0,0.135900,-0.079788,-0.005371,1,0,0,0,0,0,0
4.290000,0.003262,0.128616,-0.000179,1,0,0,0,0,0,0,-0.083720,-0.051750,0.002238,1,0,0,0,0,0,0,0.133241,-0.078736,-0.005233,1,0,0,0,0,0,0
4.300000,0.003047,0.127981,-0.000157,1,0,0,0,0,0,0,-0.082461,-0.050890,0.002162,1,0,0,0,0,0,0,0.130572,-0.077716,-0.005099,1,0,0,0,0,0,0
4.310000,0.002738,0.127061,-0.000137,1,0,0,0,0,0,0,-0.081039,-0.049902,0.002077,1,0,0,0,0,0,0,0.127991,-0.076744,-0.004973,1,0,0,0,0,0,0
4.320000,0.002298,0.125814,-0.000120,1,0,0,0,0,0,0,-0.079446,-0.048799,0.001985,1,0,0,0,0,0,0,0.125542,-0.075811,-0.004851,1,0,0,0,0,0,0
