time,drone0_roll,drone0_pitch,drone0_yaw,drone0_des_qw,drone0_des_qx,drone0_des_qy,drone0_des_qz,drone0_err_x,drone0_err_y,drone0_err_z,drone1_roll,drone1_pitch,drone1_yaw,drone1_des_qw,drone1_des_qx,drone1_des_qy,drone1_des_qz,drone1_err_x,drone1_err_y,drone1_err_z,drone2_roll,drone2_pitch,drone2_yaw,drone2_des_qw,drone2_des_qx,drone2_des_qy,drone2_des_qz,drone2_err_x,drone2_err_y,drone2_err_z
0.000000,0.000000,0.000000,0.000000,1,0,0,0,0,0,0,0.000000,0.000000,0.000000,1,0,0,0,0,0,0,0.000000,0.000000,0.000000,1,0,0,0,0,0,0
0.010000,0.000001,-0.000001,-0.000000,1,0,0,0,0,0,0,0.000001,-0.000001,-0.000000,1,0,0,0,0,0,0,0.000001,-0.000001,-0.000000,1,0,0,0,0,0,0
0.020000,0.000003,-0.000006,-0.000000,1,0,0,0,0,0,0,0.000003,-0.000006,-0.000000,1,0,0,0,0,0,0,0.000003,-0.000006,-0.000000,1,0,0,0,0,0,0
0.030000,0.000008,-0.000016,-0.000000,1,0,0,0,0,0,0,0.000008,-0.000016,-0.000000,1,0,0,0,0,0,0,0.000084,-0.000058,-0.000000,1,0,0,0,0,0,0
0.040000,0.000015,-0.000030,-0.000000,1,0,0,0,0,0,0,0.000015,-0.000030,-0.000000,1,0,0,0,0,0,0,0.000250,-0.000162,-0.000000,1,0,0,0,0,0,0
0.050000,0.000025,0.000131,0.000000,1,0,0,0,0,0,0,0.000025,-0.000049,-0.000000,1,0,0,0,0,0,0,0.000537,-0.000339,-0.000000,1,0,0,0,0,0,0
0.060000,0.000037,0.000272,0.000000,1,0,0,0,0,0,0,0.000037,-0.000073,-0.000000,1,0,0,0,0,0,0,0.000952,-0.000593,-0.000000,1,0,0,0,0,0,0
0.070000,0.000050,0.000610,0.000000,1,0,0,0,0,0,0,-0.000045,-0.000370,-0.000000,1,0,0,0,0,0,0,0.001502,-0.000928,-0.000001,1,0,0,0,0,0,0
0.080000,0.000066,0.001009,0.000000,1,0,0,0,0,0,0,-0.000103,-0.000615,0.000000,1,0,0,0,0,0,0,0.002191,-0.001345,-0.000001,1,0,0,0,0,0,0
0.090000,0.000083,0.001534,0.000000,1,0,0,0,0,0,0,-0.000155,-0.000855,0.000000,1,0,0,0,0,0,0,0.003020,-0.001847,-0.000003,1,0,0,0,0,0,0
0.100000,0.000102,0.002196,0.000000,1,0,0,0,0,0,0,-0.000313,-0.001397,0.000000,1,0,0,0,0,0,0,0.003989,-0.002431,-0.000005,1,0,0,0,0,0,0
0.110000,0.000123,0.002980,0.000000,1,0,0,0,0,0,0,-0.000450,-0.001894,0.000000,1,0,0,0,0,0,0,0.005075,-0.003086,-0.000008,1,0,0,0,0,0,0
0.120000,0.000144,0.003894,0.000000,1,0,0,0,0,0,0,-0.000610,-0.002456,0.000001,1,0,0,0,0,0,0,0.006249,-0.003795,-0.000012,1,0,0,0,0,0,0
0.130000,0.000167,0.004951,0.000001,1,0,0,0,0,0,0,-0.000836,-0.003200,0.000001,1,0,0,0,0,0,0,0.007491,-0.004545,-0.000017,1,0,0,0,0,0,0
0.140000,0.000191,0.006159,0.000001,1,0,0,0,0,0,0,-0.001052,-0.003919,0.000002,1,0,0,0,0,0,0,0.008784,-0.005326,-0.000023,1,0,0,0,0,0,0
0.150000,0.000215,0.007522,0.000001,1,0,0,0,0,0,0,-0.001323,-0.004770,0.000003,1,0,0,0,0,0,0,0.010113,-0.006130,-0.000031,1,0,0,0,0,0,0
0.160000,0.000241,0.009003,0.000001,1,0,0,0,0,0,0,-0.001633,-0.005712,0.000004,1,0,0,0,0,0,0,0.011469,-0.006950,-0.000040,1,0,0,0,0,0,0
0.170000,0.000267,0.010557,0.000002,1,0,0,0,0,0,0,-0.001963,-0.006691,0.000006,1,0,0,0,0,0,0,0.012842,-0.007781,-0.000050,1,0,0,0,0,0,0
0.180000,0.000293,0.012155,0.000002,1,0,0,0,0,0,0,-0.002364,-0.007813,0.000008,1,0,0,0,0,0,0,0.014215,-0.008614,-0.000061,1,0,0,0,0,0,0
0.190000,0.000320,0.013789,0.000003,1,0,0,0,0,0,0,-0.002794,-0.008984,0.000012,1,0,0,0,0,0,0,0.015578,-0.009440,-0.000073,1,0,0,0,0,0,0
0.200000,0.000347,0.015447,0.000003,1,0,0,0,0,0,0,-0.003294,-0.010276,0.000015,1,0,0,0,0,0,0,0.016948,-0.010271,-0.000087,1,0,0,0,0,0,0
0.210000,0.000374,0.017106,0.000004,1,0,0,0,0,0,0,-0.003845,-0.011640,0.000020,1,0,0,0,0,0,0,0.018321,-0.011103,-0.000101,1,0,0,0,0,0,0
0.220000,0.000401,0.018729,0.000004,1,0,0,0,0,0,0,-0.004466,-0.013100,0.000027,1,0,0,0,0,0,0,0.019687,-0.011931,-0.000117,1,0,0,0,0,0,0
0.230000,0.000428,0.020287,0.000005,1,0,0,0,0,0,0,-0.005130,-0.014594,0.000034,1,0,0,0,0,0,0,0.021040,-0.012751,-0.000134,1,0,0,0,0,0,0
0.240000,0.000454,0.021787,0.000006,1,0,0,0,0,0,0,-0.005826,-0.016088,0.000042,1,0,0,0,0,0,0,0.022379,-0.013562,-0.000151,1,0,0,0,0,0,0
0.250000,0.000480,0.023240,0.000006,1,0,0,0,0,0,0,-0.006553,-0.017571,0.000052,1,0,0,0,0,0,0,0.023700,-0.014363,-0.000170,1,0,0,0,0,0,0
0.260000,0.000505,0.024650,0.000007,1,0,0,0,0,0,0,-0.007306,-0.019026,0.000062,1,0,0,0,0,0,0,0.024998,-0.015149,-0.000189,1,0,0,0,0,0,0
0.270000,0.000530,0.026017,0.000008,1,0,0,0,0,0,0,-0.008084,-0.020441,0.000073,1,0,0,0,0,0,0,0.026260,-0.015913,-0.000208,1,0,0,0,0,0,0
0.280000,0.000554,0.027339,0.000008,1,0,0,0,0,0,0,-0.008884,-0.021802,0.000085,1,0,0,0,0,0,0,0.027467,-0.016645,-0.000228,1,0,0,0,0,0,0
0.290000,0.000576,0.028611,0.000009,1,0,0,0,0,0,0,-0.009699,-0.023096,0.000098,1,0,0,0,0,0,0,0.028604,-0.017335,-0.000247,1,0,0,0,0,0,0
0.300000,0.000598,0.029814,0.000010,1,0,0,0,0,0,0,-0.010521,-0.024306,0.000111,1,0,0,0,0,0,0,0.029660,-0.017977,-0.000266,1,0,0,0,0,0,0
0.310000,0.000619,0.030928,0.000010,1,0,0,0,0,0,0,-0.011339,-0.025416,0.000124,1,0,0,0,0,0,0,0.030632,-0.018569,-0.000284,1,0,0,0,0,0,0
0.320000,0.000639,0.031931,0.000011,1,0,0,0,0,0,0,-0.012143,-0.026411,0.000137,1,0,0,0,0,0,0,0.031511,-0.019105,-0.000301,1,0,0,0,0,0,0
0.330000,0.000658,0.032812,0.000011,1,0,0,0,0,0,0,-0.012923,-0.027280,0.000149,1,0,0,0,0,0,0,0.032283,-0.019579,-0.000316,1,0,0,0,0,0,0
0.340000,0.000676,0.033564,0.000012,1,0,0,0,0,0,0,-0.013671,-0.028012,0.000160,1,0,0,0,0,0,0,0.032931,-0.019979,-0.000329,1,0,0,0,0,0,0
0.350000,0.000692,0.034182,0.000012,1,0,0,0,0,0,0,-0.014386,-0.028601,0.000170,1,0,0,0,0,0,0,0.033447,-0.020301,-0.000340,1,0,0,0,0,0,0
0.360000,0.000707,0.034651,0.000012,1,0,0,0,0,0,0,-0.015078,-0.029043,0.000179,1,0,0,0,0,0,0,0.033829,-0.020544,-0.000348,1,0,0,0,0,0,0
0.370000,0.000721,0.034959,0.000013,1,0,0,0,0,0,0,-0.015745,-0.029331,0.000185,1,0,0,0,0,0,0,0.034076,-0.020707,-0.000353,1,0,0,0,0,0,0
0.380000,0.000734,0.035102,0.000013,1,0,0,0,0,0,0,-0.016382,-0.029463,0.000190,1,0,0,0,0,0,0,0.034190,-0.020792,-0.000356,1,0,0,0,0,0,0
0.390000,0.000745,0.035079,0.000013,1,0,0,0,0,0,0,-0.016980,-0.029436,0.000192,1,0,0,0,0,0,0,0.034174,-0.020798,-0.000356,1,0,0,0,0,0,0
0.400000,0.000756,0.034896,0.000013,1,0,0,0,0,0,0,-0.017535,-0.029250,0.000192,1,0,0,0,0,0,0,0.034037,-0.020733,-0.000354,1,0,0,0,0,0,0
0.410000,0.000764,0.034561,0.000012,1,0,0,0,0,0,0,-0.018039,-0.028909,0.000190,1,0,0,0,0,0,0,0.033785,-0.020599,-0.000349,1,0,0,0,0,0,0
0.420000,0.000772,0.034083,0.000012,1,0,0,0,0,0,0,-0.018491,-0.028416,0.000185,1,0,0,0,0,0,0,0.033422,-0.020398,-0.000343,1,0,0,0,0,0,0
0.430000,0.000778,0.033469,0.000012,1,0,0,0,0,0,0,-0.018885,-0.027775,0.000177,1,0,0,0,0,0,0,0.032953,-0.020135,-0.000334,1,0,0,0,0,0,0
0.440000,0.000783,0.032726,0.000011,1,0,0,0,0,0,0,-0.019214,-0.026997,0.000168,1,0,0,0,0,0,0,0.032386,-0.019813,-0.000323,1,0,0,0,0,0,0
0.450000,0.000788,0.031863,0.000011,1,0,0,0,0,0,0,-0.019472,-0.026093,0.000155,1,0,0,0,0,0,0,0.031731,-0.019439,-0.000311,1,0,0,0,0,0,0
0.460000,0.000791,0.030886,0.000010,1,0,0,0,0,0,0,-0.019656,-0.025069,0.000141,1,0,0,0,0,0,0,0.030998,-0.019017,-0.000298,1,0,0,0,0,0,0
0.470000,0.000793,0.029805,0.000009,1,0,0,0,0,0,0,-0.019763,-0.023931,0.000125,1,0,0,0,0,0,0,0.030204,-0.018559,-0.000283,1,0,0,0,0,0,0
0.480000,0.000794,0.028629,0.000008,1,0,0,0,0,0,0,-0.019792,-0.022688,0.000107,1,0,0,0,0,0,0,0.029365,-0.018073,-0.000269,1,0,0,0,0,0,0
0.490000,0.000794,0.027367,0.000008,1,0,0,0,0,0,0,-0.019743,-0.021337,0.000087,1,0,0,0,0,0,0,0.028503,-0.017572,-0.000254,1,0,0,0,0,0,0
0.500000,0.000793,0.026031,0.000007,1,0,0,0,0,0,0,-0.019617,-0.019878,0.000065,1,0,0,0,0,0,0,0.027638,-0.017067,-0.000240,1,0,0,0,0,0,0
0.510000,0.000791,0.024631,0.000006,1,0,0,0,0,0,0,-0.019411,-0.018313,0.000042,1,0,0,0,0,0,0,0.026798,-0.016576,-0.000226,1,0,0,0,0,0,0
0.520000,0.000788,0.023181,0.000005,1,0,0,0,0,0,0,-0.019125,-0.016655,0.000018,1,0,0,0,0,0,0,0.026012,-0.016115,-0.000214,1,0,0,0,0,0,0
0.530000,0.000784,0.021697,0.000004,1,0,0,0,0,0,0,-0.018758,-0.014920,-0.000006,1,0,0,0,0,0,0,0.025313,-0.015703,-0.000203,1,0,0,0,0,0,0
0.540000,0.000778,0.020196,0.000003,1,0,0,0,0,0,0,-0.018312,-0.013126,-0.000031,1,0,0,0,0,0,0,0.024735,-0.015360,-0.000194,1,0,0,0,0,0,0
0.550000,0.000772,0.018701,0.000002,1,0,0,0,0,0,0,-0.017790,-0.011285,-0.000055,1,0,0,0,0,0,0,0.024301,-0.015101,-0.000187,1,0,0,0,0,0,0
0.560000,0.000763,0.017236,0.000001,1,0,0,0,0,0,0,-0.017194,-0.009406,-0.000079,1,0,0,0,0,0,0,0.024019,-0.014931,-0.000183,1,0,0,0,0,0,0
0.570000,0.000753,0.015831,0.000001,1,0,0,0,0,0,0,-0.016531,-0.007505,-0.000102,1,0,0,0,0,0,0,0.023878,-0.014844,-0.000181,1,0,0,0,0,0,0
0.580000,0.000739,0.014521,-0.000000,1,0,0,0,0,0,0,-0.015812,-0.005609,-0.000123,1,0,0,0,0,0,0,0.023868,-0.014835,-0.000180,1,0,0,0,0,0,0
0.590000,0.000721,0.013349,-0.000001,1,0,0,0,0,0,0,-0.015046,-0.003749,-0.000142,1,0,0,0,0,0,0,0.023974,-0.014896,-0.000182,1,0,0,0,0,0,0
0.600000,0.000699,0.012361,-0.000001,1,0,0,0,0,0,0,-0.014240,-0.001936,-0.000158,1,0,0,0,0,0,0,0.024156,-0.015005,-0.000184,1,0,0,0,0,0,0
0.610000,0.000670,0.011602,-0.000001,1,0,0,0,0,0,0,-0.013393,-0.000156,-0.000173,1,0,0,0,0,0,0,0.024370,-0.015135,-0.000187,1,0,0,0,0,0,0
0.620000,0.000634,0.011102,-0.000001,1,0,0,0,0,0,0,-0.012510,0.001593,-0.000185,1,0,0,0,0,0,0,0.024582,-0.015267,-0.000190,1,0,0,0,0,0,0
0.630000,0.000589,0.010860,-0.000001,1,0,0,0,0,0,0,-0.011599,0.003305,-0.000195,1,0,0,0,0,0,0,0.024776,-0.015392,-0.000193,1,0,0,0,0,0,0
0.640000,0.000535,0.010869,-0.000001,1,0,0,0,0,0,0,-0.010672,0.004974,-0.000203,1,0,0,0,0,0,0,0.024955,-0.015512,-0.000196,1,0,0,0,0,0,0
0.650000,0.000471,0.011118,-0.000000,1,0,0,0,0,0,0,-0.009737,0.006592,-0.000209,1,0,0,0,0,0,0,0.025137,-0.015638,-0.000199,1,0,0,0,0,0,0
0.660000,0.000399,0.011549,-0.000000,1,0,0,0,0,0,0,-0.008808,0.008150,-0.000213,1,0,0,0,0,0,0,0.025318,-0.015771,-0.000202,1,0,0,0,0,0,0
0.670000,0.000321,0.012069,0.000000,1,0,0,0,0,0,0,-0.007895,0.009643,-0.000215,1,0,0,0,0,0,0,0.025482,-0.015901,-0.000205,1,0,0,0,0,0,0
0.680000,0.000240,0.012598,0.000001,1,0,0,0,0,0,0,-0.007013,0.011065,-0.000215,1,0,0,0,0,0,0,0.025603,-0.016015,-0.000208,1,0,0,0,0,0,0
0.690000,0.000160,0.013090,0.000001,1,0,0,0,0,0,0,-0.006180,0.012412,-0.000214,1,0,0,0,0,0,0,0.025663,-0.016102,-0.000210,1,0,0,0,0,0,0
0.700000,0.000080,0.013532,0.000001,1,0,0,0,0,0,0,-0.005420,0.013678,-0.000210,1,0,0,0,0,0,0,0.025655,-0.016156,-0.000211,1,0,0,0,0,0,0
0.710000,0.000001,0.013933,0.000001,1,0,0,0,0,0,0,-0.004760,0.014855,-0.000206,1,0,0,0,0,0,0,0.025579,-0.016178,-0.000212,1,0,0,0,0,0,0
0.720000,-0.000080,0.014332,0.000001,1,0,0,0,0,0,0,-0.004243,0.015936,-0.000201,1,0,0,0,0,0,0,0.025442,-0.016172,-0.000211,1,0,0,0,0,0,0
0.730000,-0.000169,0.014767,0.000001,1,0,0,0,0,0,0,-0.003918,0.016909,-0.000194,1,0,0,0,0,0,0,0.025256,-0.016144,-0.000210,1,0,0,0,0,0,0
0.740000,-0.000268,0.015248,0.000000,1,0,0,0,0,0,0,-0.003851,0.017761,-0.000188,1,0,0,0,0,0,0,0.025038,-0.016105,-0.000209,1,0,0,0,0,0,0
0.750000,-0.000377,0.015767,0.000000,1,0,0,0,0,0,0,-0.004107,0.018477,-0.000181,1,0,0,0,0,0,0,0.024808,-0.016066,-0.000207,1,0,0,0,0,0,0
0.760000,-0.000496,0.016303,-0.000000,1,0,0,0,0,0,0,-0.004729,0.019045,-0.000175,1,0,0,0,0,0,0,0.024588,-0.016041,-0.000206,1,0,0,0,0,0,0
0.770000,-0.000623,0.016827,-0.000001,1,0,0,0,0,0,0,-0.005709,0.019460,-0.000169,1,0,0,0,0,0,0,0.024393,-0.016035,-0.000206,1,0,0,0,0,0,0
0.780000,-0.000751,0.017308,-0.000001,1,0,0,0,0,0,0,-0.006981,0.019727,-0.000163,1,0,0,0,0,0,0,0.024233,-0.016054,-0.000206,1,0,0,0,0,0,0
0.790000,-0.000878,0.017729,-0.000002,1,0,0,0,0,0,0,-0.008514,0.019844,-0.000158,1,0,0,0,0,0,0,0.024113,-0.016096,-0.000206,1,0,0,0,0,0,0
0.800000,-0.000999,0.018087,-0.000003,1,0,0,0,0,0,0,-0.010276,0.019808,-0.000153,1,0,0,0,0,0,0,0.024034,-0.016160,-0.000207,1,0,0,0,0,0,0
0.810000,-0.001116,0.018387,-0.000003,1,0,0,0,0,0,0,-0.012155,0.019634,-0.000147,1,0,0,0,0,0,0,0.024006,-0.016250,-0.000208,1,0,0,0,0,0,0
0.820000,-0.001225,0.018635,-0.000004,1,0,0,0,0,0,0,-0.014000,0.019349,-0.000141,1,0,0,0,0,0,0,0.024037,-0.016368,-0.000210,1,0,0,0,0,0,0
0.830000,-0.001325,0.018839,-0.000005,1,0,0,0,0,0,0,-0.015699,0.018986,-0.000134,1,0,0,0,0,0,0,0.024137,-0.016518,-0.000213,1,0,0,0,0,0,0
0.840000,-0.001417,0.019010,-0.000005,1,0,0,0,0,0,0,-0.017211,0.018562,-0.000128,1,0,0,0,0,0,0,0.024312,-0.016702,-0.000217,1,0,0,0,0,0,0
0.850000,-0.001499,0.019168,-0.000006,1,0,0,0,0,0,0,-0.018546,0.018083,-0.000120,1,0,0,0,0,0,0,0.024560,-0.016914,-0.000221,1,0,0,0,0,0,0
0.860000,-0.001571,0.019333,-0.000007,1,0,0,0,0,0,0,-0.019792,0.017518,-0.000112,1,0,0,0,0,0,0,0.024875,-0.017151,-0.000226,1,0,0,0,0,0,0
0.870000,-0.001634,0.019528,-0.000008,1,0,0,0,0,0,0,-0.020992,0.016850,-0.000101,1,0,0,0,0,0,0,0.025256,-0.017410,-0.000232,1,0,0,0,0,0,0
0.880000,-0.001688,0.019778,-0.000009,1,0,0,0,0,0,0,-0.022166,0.016067,-0.000089,1,0,0,0,0,0,0,0.025716,-0.017697,-0.000238,1,0,0,0,0,0,0
0.890000,-0.001732,0.020105,-0.000010,1,0,0,0,0,0,0,-0.023315,0.015162,-0.000073,1,0,0,0,0,0,0,0.026282,-0.018026,-0.000246,1,0,0,0,0,0,0
0.900000,-0.001767,0.020532,-0.000011,1,0,0,0,0,0,0,-0.024450,0.014123,-0.000054,1,0,0,0,0,0,0,0.026993,-0.018420,-0.000256,1,0,0,0,0,0,0
0.910000,-0.001793,0.021072,-0.000012,1,0,0,0,0,0,0,-0.025598,0.012913,-0.000030,1,0,0,0,0,0,0,0.027882,-0.018899,-0.000269,1,0,0,0,0,0,0
0.920000,-0.001809,0.021724,-0.000014,1,0,0,0,0,0,0,-0.026723,0.011551,-0.000002,1,0,0,0,0,0,0,0.028956,-0.019470,-0.000285,1,0,0,0,0,0,0
0.930000,-0.001815,0.022475,-0.000016,1,0,0,0,0,0,0,-0.027797,0.010050,0.000030,1,0,0,0,0,0,0,0.030187,-0.020124,-0.000304,1,0,0,0,0,0,0
0.940000,-0.001809,0.023297,-0.000017,1,0,0,0,0,0,0,-0.028809,0.008417,0.000066,1,0,0,0,0,0,0,0.031538,-0.020842,-0.000326,1,0,0,0,0,0,0
0.950000,-0.001791,0.024158,-0.000019,1,0,0,0,0,0,0,-0.029738,0.006676,0.000107,1,0,0,0,0,0,0,0.032977,-0.021613,-0.000351,1,0,0,0,0,0,0
0.960000,-0.001760,0.025026,-0.000021,1,0,0,0,0,0,0,-0.030563,0.004879,0.000149,1,0,0,0,0,0,0,0.034479,-0.022425,-0.000378,1,0,0,0,0,0,0
0.970000,-0.001716,0.025890,-0.000022,1,0,0,0,0,0,0,-0.031262,0.003081,0.000192,1,0,0,0,0,0,0,0.036016,-0.023268,-0.000408,1,0,0,0,0,0,0
0.980000,-0.001661,0.026756,-0.000024,1,0,0,0,0,0,0,-0.031828,0.001320,0.000233,1,0,0,0,0,0,0,0.037549,-0.024123,-0.000440,1,0,0,0,0,0,0
0.990000,-0.001597,0.027636,-0.000025,1,0,0,0,0,0,0,-0.032260,-0.000388,0.000273,1,0,0,0,0,0,0,0.039042,-0.024968,-0.000473,1,0,0,0,0,0,0
1.000000,-0.001525,0.028598,-0.000027,1,0,0,0,0,0,0,-0.032562,-0.002035,0.000311,1,0,0,0,0,0,0,0.040522,-0.025821,-0.000508,1,0,0,0,0,0,0
1.010000,-0.001450,0.029703,-0.000028,1,0,0,0,0,0,0,-0.032735,-0.003615,0.000347,1,0,0,0,0,0,0,0.042024,-0.026706,-0.000546,1,0,0,0,0,0,0
1.020000,-0.001374,0.030968,-0.000030,1,0,0,0,0,0,0,-0.032785,-0.005135,0.000379,1,0,0,0,0,0,0,0.043557,-0.027624,-0.000586,1,0,0,0,0,0,0
1.030000,-0.001302,0.032371,-0.000031,1,0,0,0,0,0,0,-0.032716,-0.006604,0.000410,1,0,0,0,0,0,0,0.045131,-0.028577,-0.000629,1,0,0,0,0,0,0
1.040000,-0.001237,0.033876,-0.000032,1,0,0,0,0,0,0,-0.032535,-0.008035,0.000439,1,0,0,0,0,0,0,0.046767,-0.029569,-0.000675,1,0,0,0,0,0,0
1.050000,-0.001180,0.035471,-0.000034,1,0,0,0,0,0,0,-0.032250,-0.009448,0.000466,1,0,0,0,0,0,0,0.048467,-0.030597,-0.000725,1,0,0,0,0,0,0
1.060000,-0.001136,0.037170,-0.000035,1,0,0,0,0,0,0,-0.031872,-0.010877,0.000494,1,0,0,0,0,0,0,0.050213,-0.031646,-0.000778,1,0,0,0,0,0,0
1.070000,-0.001104,0.038943,-0.000036,1,0,0,0,0,0,0,-0.031422,-0.012363,0.000522,1,0,0,0,0,0,0,0.051987,-0.032703,-0.000833,1,0,0,0,0,0,0
1.080000,-0.001084,0.040738,-0.000037,1,0,0,0,0,0,0,-0.030941,-0.013920,0.000551,1,0,0,0,0,0,0,0.053761,-0.033752,-0.000890,1,0,0,0,0,0,0
1.090000,-0.001073,0.042500,-0.000038,1,0,0,0,0,0,0,-0.030428,-0.015543,0.000581,1,0,0,0,0,0,0,0.055509,-0.034778,-0.000947,1,0,0,0,0,0,0
1.100000,-0.001073,0.044228,-0.000039,1,0,0,0,0,0,0,-0.029869,-0.017222,0.000611,1,0,0,0,0,0,0,0.057214,-0.035776,-0.001004,1,0,0,0,0,0,0
1.110000,-0.001092,0.045975,-0.000040,1,0,0,0,0,0,0,-0.029249,-0.018933,0.000641,1,0,0,0,0,0,0,0.058865,-0.036743,-0.001061,1,0,0,0,0,0,0
1.120000,-0.001130,0.047755,-0.000041,1,0,0,0,0,0,0,-0.028557,-0.020648,0.000669,1,0,0,0,0,0,0,0.060461,-0.037683,-0.001119,1,0,0,0,0,0,0
1.130000,-0.001193,0.049578,-0.000042,1,0,0,0,0,0,0,-0.027785,-0.022343,0.000695,1,0,0,0,0,0,0,0.062010,-0.038606,-0.001177,1,0,0,0,0,0,0
1.140000,-0.001283,0.051465,-0.000044,1,0,0,0,0,0,0,-0.026932,-0.023989,0.000717,1,0,0,0,0,0,0,0.063531,-0.039528,-0.001236,1,0,0,0,0,0,0
1.150000,-0.001402,0.053421,-0.000046,1,0,0,0,0,0,0,-0.025988,-0.025589,0.000736,1,0,0,0,0,0,0,0.065043,-0.040463,-0.001297,1,0,0,0,0,0,0
1.160000,-0.001547,0.055418,-0.000048,1,0,0,0,0,0,0,-0.024937,-0.027152,0.000752,1,0,0,0,0,0,0,0.066554,-0.041417,-0.001361,1,0,0,0,0,0,0
1.170000,-0.001713,0.057408,-0.000051,1,0,0,0,0,0,0,-0.023790,-0.028651,0.000764,1,0,0,0,0,0,0,0.068056,-0.042388,-0.001428,1,0,0,0,0,0,0
1.180000,-0.001897,0.059363,-0.000054,1,0,0,0,0,0,0,-0.022558,-0.030068,0.000772,1,0,0,0,0,0,0,0.069535,-0.043366,-0.001496,1,0,0,0,0,0,0
1.190000,-0.002096,0.061252,-0.000058,1,0,0,0,0,0,0,-0.021252,-0.031393,0.000776,1,0,0,0,0,0,0,0.070967,-0.044337,-0.001565,1,0,0,0,0,0,0
1.200000,-0.002299,0.062997,-0.000062,1,0,0,0,0,0,0,-0.019892,-0.032610,0.000774,1,0,0,0,0,0,0,0.072310,-0.045277,-0.001633,1,0,0,0,0,0,0
1.210000,-0.002495,0.064517,-0.000066,1,0,0,0,0,0,0,-0.018506,-0.033694,0.000769,1,0,0,0,0,0,0,0.073522,-0.046158,-0.001698,1,0,0,0,0,0,0
1.220000,-0.002686,0.065833,-0.000070,1,0,0,0,0,0,0,-0.017110,-0.034631,0.000758,1,0,0,0,0,0,0,0.074563,-0.046958,-0.001758,1,0,0,0,0,0,0
1.230000,-0.002876,0.066964,-0.000075,1,0,0,0,0,0,0,-0.015697,-0.035436,0.000744,1,0,0,0,0,0,0,0.075397,-0.047654,-0.001810,1,0,0,0,0,0,0
1.240000,-0.003060,0.067892,-0.000079,1,0,0,0,0,0,0,-0.014256,-0.036134,0.000727,1,0,0,0,0,0,0,0.075991,-0.048227,-0.001853,1,0,0,0,0,0,0
1.250000,-0.003236,0.068606,-0.000082,1,0,0,0,0,0,0,-0.012801,-0.036726,0.000707,1,0,0,0,0,0,0,0.076328,-0.048666,-0.001885,1,0,0,0,0,0,0
1.260000,-0.003401,0.069112,-0.000085,1,0,0,0,0,0,0,-0.011349,-0.037209,0.000684,1,0,0,0,0,0,0,0.076388,-0.048961,-0.001907,1,0,0,0,0,0,0
1.270000,-0.003557,0.069421,-0.000088,1,0,0,0,0,0,0,-0.009915,-0.037577,0.000660,1,0,0,0,0,0,0,0.076159,-0.049098,-0.001915,1,0,0,0,0,0,0
1.280000,-0.003701,0.069540,-0.000091,1,0,0,0,0,0,0,-0.008513,-0.037824,0.000634,1,0,0,0,0,0,0,0.075642,-0.049074,-0.001911,1,0,0,0,0,0,0
1.290000,-0.003834,0.069484,-0.000093,1,0,0,0,0,0,0,-0.007156,-0.037950,0.000607,1,0,0,0,0,0,0,0.074853,-0.048894,-0.001894,1,0,0,0,0,0,0
1.300000,-0.003956,0.069270,-0.000094,1,0,0,0,0,0,0,-0.005856,-0.037956,0.000578,1,0,0,0,0,0,0,0.073815,-0.048563,-0.001866,1,0,0,0,0,0,0
1.310000,-0.004069,0.068905,-0.000095,1,0,0,0,0,0,0,-0.004632,-0.037842,0.000550,1,0,0,0,0,0,0,0.072554,-0.048091,-0.001828,1,0,0,0,0,0,0
1.320000,-0.004169,0.068383,-0.000096,1,0,0,0,0,0,0,-0.003501,-0.037611,0.000521,1,0,0,0,0,0,0,0.071101,-0.047494,-0.001780,1,0,0,0,0,0,0
1.330000,-0.004258,0.067711,-0.000096,1,0,0,0,0,0,0,-0.002478,-0.037263,0.000492,1,0,0,0,0,0,0,0.069488,-0.046788,-0.001725,1,0,0,0,0,0,0
1.340000,-0.004340,0.066935,-0.000095,1,0,0,0,0,0,0,-0.001567,-0.036806,0.000464,1,0,0,0,0,0,0,0.067757,-0.045997,-0.001665,1,0,0,0,0,0,0
1.350000,-0.004418,0.066082,-0.000094,1,0,0,0,0,0,0,-0.000773,-0.036248,0.000437,1,0,0,0,0,0,0,0.065945,-0.045140,-0.001601,1,0,0,0,0,0,0
1.360000,-0.004493,0.065172,-0.000093,1,0,0,0,0,0,0,-0.000107,-0.035602,0.000411,1,0,0,0,0,0,0,0.064079,-0.044228,-0.001535,1,0,0,0,0,0,0
1.370000,-0.004570,0.064224,-0.000092,1,0,0,0,0,0,0,0.000409,-0.034883,0.000386,1,0,0,0,0,0,0,0.062173,-0.043267,-0.001468,1,0,0,0,0,0,0
1.380000,-0.004647,0.063243,-0.000091,1,0,0,0,0,0,0,0.000742,-0.034108,0.000363,1,0,0,0,0,0,0,0.060237,-0.042258,-0.001398,1,0,0,0,0,0,0
1.390000,-0.004726,0.062220,-0.000089,1,0,0,0,0,0,0,0.000861,-0.033291,0.000340,1,0,0,0,0,0,0,0.058279,-0.041204,-0.001328,1,0,0,0,0,0,0
1.400000,-0.004801,0.061132,-0.000088,1,0,0,0,0,0,0,0.000757,-0.032434,0.000319,1,0,0,0,0,0,0,0.056301,-0.040104,-0.001258,1,0,0,0,0,0,0
1.410000,-0.004872,0.059964,-0.000086,1,0,0,0,0,0,0,0.000449,-0.031529,0.000299,1,0,0,0,0,0,0,0.054286,-0.038947,-0.001186,1,0,0,0,0,0,0
1.420000,-0.004935,0.058709,-0.000083,1,0,0,0,0,0,0,-0.000050,-0.030569,0.000280,1,0,0,0,0,0,0,0.052219,-0.037725,-0.001113,1,0,0,0,0,0,0
1.430000,-0.004991,0.057374,-0.000080,1,0,0,0,0,0,0,-0.000749,-0.029548,0.000262,1,0,0,0,0,0,0,0.050124,-0.036450,-0.001040,1,0,0,0,0,0,0
1.440000,-0.005037,0.055960,-0.000077,1,0,0,0,0,0,0,-0.001629,-0.028462,0.000245,1,0,0,0,0,0,0,0.048030,-0.035137,-0.000968,1,0,0,0,0,0,0
1.450000,-0.005073,0.054463,-0.000073,1,0,0,0,0,0,0,-0.002647,-0.027309,0.000229,1,0,0,0,0,0,0,0.045948,-0.033792,-0.000897,1,0,0,0,0,0,0
1.460000,-0.005096,0.052867,-0.000069,1,0,0,0,0,0,0,-0.003725,-0.026091,0.000212,1,0,0,0,0,0,0,0.043884,-0.032422,-0.000828,1,0,0,0,0,0,0
1.470000,-0.005104,0.051160,-0.000064,1,0,0,0,0,0,0,-0.004800,-0.024814,0.000196,1,0,0,0,0,0,0,0.041843,-0.031030,-0.000761,1,0,0,0,0,0,0
1.480000,-0.005096,0.049331,-0.000059,1,0,0,0,0,0,0,-0.005866,-0.023488,0.000180,1,0,0,0,0,0,0,0.039830,-0.029623,-0.000696,1,0,0,0,0,0,0
1.490000,-0.005070,0.047376,-0.000053,1,0,0,0,0,0,0,-0.006926,-0.022122,0.000164,1,0,0,0,0,0,0,0.037855,-0.028210,-0.000635,1,0,0,0,0,0,0
1.500000,-0.005025,0.045289,-0.000046,1,0,0,0,0,0,0,-0.007988,-0.020724,0.000147,1,0,0,0,0,0,0,0.035928,-0.026801,-0.000576,1,0,0,0,0,0,0
1.510000,-0.004959,0.043076,-0.000039,1,0,0,0,0,0,0,-0.009067,-0.019302,0.000131,1,0,0,0,0,0,0,0.034060,-0.025403,-0.000521,1,0,0,0,0,0,0
1.520000,-0.004872,0.040747,-0.000032,1,0,0,0,0,0,0,-0.010173,-0.017865,0.000114,1,0,0,0,0,0,0,0.032255,-0.024025,-0.000470,1,0,0,0,0,0,0
1.530000,-0.004764,0.038320,-0.000024,1,0,0,0,0,0,0,-0.011321,-0.016424,0.000096,1,0,0,0,0,0,0,0.030516,-0.022673,-0.000422,1,0,0,0,0,0,0
1.540000,-0.004634,0.035814,-0.000016,1,0,0,0,0,0,0,-0.012511,-0.014986,0.000078,1,0,0,0,0,0,0,0.028846,-0.021350,-0.000378,1,0,0,0,0,0,0
1.550000,-0.004482,0.033252,-0.000009,1,0,0,0,0,0,0,-0.013734,-0.013561,0.000060,1,0,0,0,0,0,0,0.027236,-0.020056,-0.000337,1,0,0,0,0,0,0
1.560000,-0.004310,0.030652,-0.000001,1,0,0,0,0,0,0,-0.014978,-0.012151,0.000041,1,0,0,0,0,0,0,0.025679,-0.018792,-0.000300,1,0,0,0,0,0,0
1.570000,-0.004117,0.028033,0.000006,1,0,0,0,0,0,0,-0.016228,-0.010759,0.000022,1,0,0,0,0,0,0,0.024168,-0.017556,-0.000265,1,0,0,0,0,0,0
1.580000,-0.003904,0.025412,0.000013,1,0,0,0,0,0,0,-0.017469,-0.009385,0.000002,1,0,0,0,0,0,0,0.022704,-0.016351,-0.000234,1,0,0,0,0,0,0
1.590000,-0.003672,0.022800,0.000019,1,0,0,0,0,0,0,-0.018686,-0.008024,-0.000018,1,0,0,0,0,0,0,0.021280,-0.015176,-0.000205,1,0,0,0,0,0,0
1.600000,-0.003424,0.020205,0.000024,1,0,0,0,0,0,0,-0.019865,-0.006670,-0.000039,1,0,0,0,0,0,0,0.019893,-0.014031,-0.000178,1,0,0,0,0,0,0
1.610000,-0.003162,0.017633,0.000029,1,0,0,0,0,0,0,-0.020988,-0.005316,-0.000061,1,0,0,0,0,0,0,0.018535,-0.012913,-0.000154,1,0,0,0,0,0,0
1.620000,-0.002887,0.015091,0.000034,1,0,0,0,0,0,0,-0.022037,-0.003953,-0.000083,1,0,0,0,0,0,0,0.017199,-0.011818,-0.000132,1,0,0,0,0,0,0
1.630000,-0.002603,0.012586,0.000037,1,0,0,0,0,0,0,-0.022993,-0.002573,-0.000107,1,0,0,0,0,0,0,0.015877,-0.010743,-0.000113,1,0,0,0,0,0,0
1.640000,-0.002311,0.010122,0.000040,1,0,0,0,0,0,0,-0.023837,-0.001176,-0.000132,1,0,0,0,0,0,0,0.014570,-0.009687,-0.000095,1,0,0,0,0,0,0
1.650000,-0.002011,0.007719,0.000042,1,0,0,0,0,0,0,-0.024561,0.000237,-0.000158,1,0,0,0,0,0,0,0.013292,-0.008659,-0.000079,1,0,0,0,0,0,0
1.660000,-0.001702,0.005406,0.000043,1,0,0,0,0,0,0,-0.025160,0.001661,-0.000184,1,0,0,0,0,0,0,0.012061,-0.007670,-0.000065,1,0,0,0,0,0,0
1.670000,-0.001387,0.003202,0.000044,1,0,0,0,0,0,0,-0.025635,0.003087,-0.000211,1,0,0,0,0,0,0,0.010886,-0.006723,-0.000053,1,0,0,0,0,0,0
1.680000,-0.001066,0.001121,0.000044,1,0,0,0,0,0,0,-0.025985,0.004504,-0.000237,1,0,0,0,0,0,0,0.009774,-0.005823,-0.000042,1,0,0,0,0,0,0
1.690000,-0.000742,-0.000822,0.000043,1,0,0,0,0,0,0,-0.026218,0.005912,-0.000264,1,0,0,0,0,0,0,0.008732,-0.004971,-0.000033,1,0,0,0,0,0,0
1.700000,-0.000419,-0.002614,0.000041,1,0,0,0,0,0,0,-0.026340,0.007330,-0.000290,1,0,0,0,0,0,0,0.007766,-0.004170,-0.000026,1,0,0,0,0,0,0
1.710000,-0.000099,-0.004243,0.000039,1,0,0,0,0,0,0,-0.026364,0.008761,-0.000316,1,0,0,0,0,0,0,0.006879,-0.003420,-0.000020,1,0,0,0,0,0,0
1.720000,0.000217,-0.005695,0.000037,1,0,0,0,0,0,0,-0.026303,0.010197,-0.000342,1,0,0,0,0,0,0,0.006074,-0.002721,-0.000015,1,0,0,0,0,0,0
1.730000,0.000526,-0.006936,0.000034,1,0,0,0,0,0,0,-0.026176,0.011613,-0.000367,1,0,0,0,0,0,0,0.005355,-0.002077,-0.000011,1,0,0,0,0,0,0
1.740000,0.000825,-0.007936,0.000031,1,0,0,0,0,0,0,-0.025993,0.012984,-0.000390,1,0,0,0,0,0,0,0.004721,-0.001485,-0.000007,1,0,0,0,0,0,0
1.750000,0.001113,-0.008676,0.000028,1,0,0,0,0,0,0,-0.025760,0.014286,-0.000411,1,0,0,0,0,0,0,0.004178,-0.000949,-0.000005,1,0,0,0,0,0,0
1.760000,0.001389,-0.009151,0.000026,1,0,0,0,0,0,0,-0.025481,0.015502,-0.000429,1,0,0,0,0,0,0,0.003747,-0.000478,-0.000002,1,0,0,0,0,0,0
1.770000,0.001651,-0.009381,0.000023,1,0,0,0,0,0,0,-0.025155,0.016618,-0.000443,1,0,0,0,0,0,0,0.003431,-0.000076,-0.000001,1,0,0,0,0,0,0
1.780000,0.001900,-0.009399,0.000021,1,0,0,0,0,0,0,-0.024784,0.017620,-0.000454,1,0,0,0,0,0,0,0.003226,0.000258,0.000000,1,0,0,0,0,0,0
1.790000,0.002136,-0.009234,0.000020,1,0,0,0,0,0,0,-0.024355,0.018500,-0.000462,1,0,0,0,0,0,0,0.003127,0.000523,0.000001,1,0,0,0,0,0,0
1.800000,0.002360,-0.008895,0.000019,1,0,0,0,0,0,0,-0.023849,0.019261,-0.000466,1,0,0,0,0,0,0,0.003134,0.000716,0.000002,1,0,0,0,0,0,0
1.810000,0.002571,-0.008393,0.000018,1,0,0,0,0,0,0,-0.023262,0.019913,-0.000467,1,0,0,0,0,0,0,0.003244,0.000835,0.000002,1,0,0,0,0,0,0
1.820000,0.002771,-0.007749,0.000018,1,0,0,0,0,0,0,-0.022601,0.020457,-0.000466,1,0,0,0,0,0,0,0.003452,0.000878,0.000002,1,0,0,0,0,0,0
1.830000,0.002960,-0.006997,0.000019,1,0,0,0,0,0,0,-0.021876,0.020890,-0.000461,1,0,0,0,0,0,0,0.003759,0.000840,0.000002,1,0,0,0,0,0,0
1.840000,0.003136,-0.006184,0.000019,1,0,0,0,0,0,0,-0.021096,0.021199,-0.000454,1,0,0,0,0,0,0,0.004159,0.000720,0.000002,1,0,0,0,0,0,0
1.850000,0.003301,-0.005337,0.000020,1,0,0,0,0,0,0,-0.020271,0.021362,-0.000443,1,0,0,0,0,0,0,0.004635,0.000524,0.000001,1,0,0,0,0,0,0
1.860000,0.003454,-0.004471,0.000022,1,0,0,0,0,0,0,-0.019406,0.021366,-0.000430,1,0,0,0,0,0,0,0.005172,0.000258,-0.000001,1,0,0,0,0,0,0
1.870000,0.003593,-0.003594,0.000023,1,0,0,0,0,0,0,-0.018505,0.021208,-0.000413,1,0,0,0,0,0,0,0.005768,-0.000080,-0.000002,1,0,0,0,0,0,0
1.880000,0.003720,-0.002697,0.000024,1,0,0,0,0,0,0,-0.017573,0.020894,-0.000395,1,0,0,0,0,0,0,0.006420,-0.000490,-0.000005,1,0,0,0,0,0,0
1.890000,0.003833,-0.001773,0.000026,1,0,0,0,0,0,0,-0.016614,0.020431,-0.000374,1,0,0,0,0,0,0,0.007118,-0.000969,-0.000008,1,0,0,0,0,0,0
1.900000,0.003932,-0.000832,0.000028,1,0,0,0,0,0,0,-0.015632,0.019833,-0.000352,1,0,0,0,0,0,0,0.007851,-0.001508,-0.000012,1,0,0,0,0,0,0
1.910000,0.004014,0.000113,0.000030,1,0,0,0,0,0,0,-0.014634,0.019111,-0.000329,1,0,0,0,0,0,0,0.008605,-0.002099,-0.000016,1,0,0,0,0,0,0
1.920000,0.004080,0.001051,0.000032,1,0,0,0,0,0,0,-0.013621,0.018276,-0.000305,1,0,0,0,0,0,0,0.009372,-0.002733,-0.000021,1,0,0,0,0,0,0
1.930000,0.004128,0.001974,0.000034,1,0,0,0,0,0,0,-0.012598,0.017333,-0.000282,1,0,0,0,0,0,0,0.010146,-0.003405,-0.000028,1,0,0,0,0,0,0
1.940000,0.004155,0.002876,0.000036,1,0,0,0,0,0,0,-0.011569,0.016285,-0.000259,1,0,0,0,0,0,0,0.010920,-0.004109,-0.000034,1,0,0,0,0,0,0
1.950000,0.004162,0.003759,0.000038,1,0,0,0,0,0,0,-0.010537,0.015128,-0.000236,1,0,0,0,0,0,0,0.011686,-0.004836,-0.000042,1,0,0,0,0,0,0
1.960000,0.004145,0.004626,0.000040,1,0,0,0,0,0,0,-0.009505,0.013858,-0.000213,1,0,0,0,0,0,0,0.012444,-0.005585,-0.000050,1,0,0,0,0,0,0
1.970000,0.004102,0.005480,0.000041,1,0,0,0,0,0,0,-0.008477,0.012468,-0.000192,1,0,0,0,0,0,0,0.013206,-0.006365,-0.000059,1,0,0,0,0,0,0
1.980000,0.004034,0.006327,0.000043,1,0,0,0,0,0,0,-0.007454,0.010954,-0.000171,1,0,0,0,0,0,0,0.013971,-0.007176,-0.000069,1,0,0,0,0,0,0
1.990000,0.003939,0.007171,0.000045,1,0,0,0,0,0,0,-0.006440,0.009320,-0.000151,1,0,0,0,0,0,0,0.014733,-0.008011,-0.000080,1,0,0,0,0,0,0
2.000000,0.003817,0.008013,0.000046,1,0,0,0,0,0,0,-0.005436,0.007574,-0.000133,1,0,0,0,0,0,0,0.015486,-0.008862,-0.000092,1,0,0,0,0,0,0
2.010000,0.003663,0.008859,0.000047,1,0,0,0,0,0,0,-0.004445,0.005700,-0.000117,1,0,0,0,0,0,0,0.016225,-0.009729,-0.000104,1,0,0,0,0,0,0
2.020000,0.003461,0.009713,0.000049,1,0,0,0,0,0,0,-0.003464,0.003652,-0.000102,1,0,0,0,0,0,0,0.016936,-0.010611,-0.000117,1,0,0,0,0,0,0
2.030000,0.003213,0.010571,0.000050,1,0,0,0,0,0,0,-0.002500,0.001454,-0.000090,1,0,0,0,0,0,0,0.017604,-0.011491,-0.000131,1,0,0,0,0,0,0
2.040000,0.002925,0.011422,0.000050,1,0,0,0,0,0,0,-0.001566,-0.000848,-0.000079,1,0,0,0,0,0,0,0.018222,-0.012357,-0.000145,1,0,0,0,0,0,0
2.050000,0.002602,0.012261,0.000051,1,0,0,0,0,0,0,-0.000674,-0.003203,-0.000072,1,0,0,0,0,0,0,0.018785,-0.013199,-0.000158,1,0,0,0,0,0,0
2.060000,0.002251,0.013081,0.000051,1,0,0,0,0,0,0,0.000163,-0.005550,-0.000066,1,0,0,0,0,0,0,0.019294,-0.014007,-0.000172,1,0,0,0,0,0,0
2.070000,0.001878,0.013870,0.000050,1,0,0,0,0,0,0,0.000935,-0.007829,-0.000063,1,0,0,0,0,0,0,0.019753,-0.014774,-0.000185,1,0,0,0,0,0,0
2.080000,0.001490,0.014611,0.000049,1,0,0,0,0,0,0,0.001630,-0.009987,-0.000062,1,0,0,0,0,0,0,0.020173,-0.015501,-0.000197,1,0,0,0,0,0,0
2.090000,0.001098,0.015287,0.000048,1,0,0,0,0,0,0,0.002238,-0.011990,-0.000063,1,0,0,0,0,0,0,0.020572,-0.016191,-0.000209,1,0,0,0,0,0,0
2.100000,0.000707,0.015891,0.000046,1,0,0,0,0,0,0,0.002747,-0.013823,-0.000064,1,0,0,0,0,0,0,0.020981,-0.016855,-0.000220,1,0,0,0,0,0,0
2.110000,0.000323,0.016430,0.000044,1,0,0,0,0,0,0,0.003138,-0.015488,-0.000066,1,0,0,0,0,0,0,0.021437,-0.017509,-0.000231,1,0,0,0,0,0,0
2.120000,-0.000052,0.016935,0.000042,1,0,0,0,0,0,0,0.003402,-0.016993,-0.000068,1,0,0,0,0,0,0,0.021982,-0.018171,-0.000243,1,0,0,0,0,0,0
2.130000,-0.000420,0.017441,0.000039,1,0,0,0,0,0,0,0.003539,-0.018355,-0.000071,1,0,0,0,0,0,0,0.022657,-0.018861,-0.000256,1,0,0,0,0,0,0
2.140000,-0.000781,0.017995,0.000036,1,0,0,0,0,0,0,0.003555,-0.019591,-0.000073,1,0,0,0,0,0,0,0.023493,-0.019590,-0.000270,1,0,0,0,0,0,0
2.150000,-0.001139,0.018672,0.000033,1,0,0,0,0,0,0,0.003462,-0.020714,-0.000074,1,0,0,0,0,0,0,0.024499,-0.020363,-0.000286,1,0,0,0,0,0,0
2.160000,-0.001498,0.019523,0.000029,1,0,0,0,0,0,0,0.003269,-0.021736,-0.000075,1,0,0,0,0,0,0,0.025672,-0.021175,-0.000304,1,0,0,0,0,0,0
2.170000,-0.001859,0.020553,0.000025,1,0,0,0,0,0,0,0.002986,-0.022667,-0.000076,1,0,0,0,0,0,0,0.027001,-0.022021,-0.000324,1,0,0,0,0,0,0
2.180000,-0.002219,0.021735,0.000020,1,0,0,0,0,0,0,0.002619,-0.023515,-0.000076,1,0,0,0,0,0,0,0.028486,-0.022902,-0.000347,1,0,0,0,0,0,0
2.190000,-0.002579,0.023047,0.000014,1,0,0,0,0,0,0,0.002182,-0.024289,-0.000075,1,0,0,0,0,0,0,0.030135,-0.023823,-0.000373,1,0,0,0,0,0,0
2.200000,-0.002940,0.024496,0.000007,1,0,0,0,0,0,0,0.001689,-0.024997,-0.000074,1,0,0,0,0,0,0,0.031965,-0.024795,-0.000402,1,0,0,0,0,0,0
2.210000,-0.003306,0.026101,-0.000000,1,0,0,0,0,0,0,0.001121,-0.025664,-0.000072,1,0,0,0,0,0,0,0.033996,-0.025835,-0.000435,1,0,0,0,0,0,0
2.220000,-0.003678,0.027870,-0.000009,1,0,0,0,0,0,0,0.000485,-0.026309,-0.000069,1,0,0,0,0,0,0,0.036256,-0.026965,-0.000475,1,0,0,0,0,0,0
2.230000,-0.004057,0.029819,-0.000019,1,0,0,0,0,0,0,-0.000195,-0.026935,-0.000065,1,0,0,0,0,0,0,0.038815,-0.028232,-0.000523,1,0,0,0,0,0,0
2.240000,-0.004444,0.032026,-0.000031,1,0,0,0,0,0,0,-0.000897,-0.027539,-0.000061,1,0,0,0,0,0,0,0.041809,-0.029721,-0.000584,1,0,0,0,0,0,0
2.250000,-0.004843,0.034658,-0.000046,1,0,0,0,0,0,0,-0.001602,-0.028115,-0.000056,1,0,0,0,0,0,0,0.045423,-0.031552,-0.000666,1,0,0,0,0,0,0
2.260000,-0.005256,0.037939,-0.000064,1,0,0,0,0,0,0,-0.002300,-0.028657,-0.000051,1,0,0,0,0,0,0,0.049804,-0.033827,-0.000777,1,0,0,0,0,0,0
2.270000,-0.005666,0.042023,-0.000089,1,0,0,0,0,0,0,-0.002986,-0.029160,-0.000044,1,0,0,0,0,0,0,0.054942,-0.036555,-0.000923,1,0,0,0,0,0,0
2.280000,-0.006037,0.046884,-0.000119,1,0,0,0,0,0,0,-0.003659,-0.029625,-0.000038,1,0,0,0,0,0,0,0.060707,-0.039658,-0.001107,1,0,0,0,0,0,0
2.290000,-0.006331,0.052405,-0.000155,1,0,0,0,0,0,0,-0.004328,-0.030049,-0.000031,1,0,0,0,0,0,0,0.066966,-0.043048,-0.001328,1,0,0,0,0,0,0
2.300000,-0.006517,0.058511,-0.000195,1,0,0,0,0,0,0,-0.005005,-0.030433,-0.000023,1,0,0,0,0,0,0,0.073569,-0.046624,-0.001586,1,0,0,0,0,0,0
2.310000,-0.006596,0.065130,-0.000239,1,0,0,0,0,0,0,-0.005715,-0.030769,-0.000016,1,0,0,0,0,0,0,0.080317,-0.050280,-0.001874,1,0,0,0,0,0,0
2.320000,-0.006607,0.072145,-0.000284,1,0,0,0,0,0,0,-0.006490,-0.031048,-0.000008,1,0,0,0,0,0,0,0.087114,-0.054000,-0.002194,1,0,0,0,0,0,0
2.330000,-0.006615,0.079502,-0.000331,1,0,0,0,0,0,0,-0.007372,-0.031256,-0.000000,1,0,0,0,0,0,0,0.094013,-0.057895,-0.002557,1,0,0,0,0,0,0
2.340000,-0.006678,0.087262,-0.000379,1,0,0,0,0,0,0,-0.008411,-0.031383,0.000008,1,0,0,0,0,0,0,0.101035,-0.062075,-0.002975,1,0,0,0,0,0,0
2.350000,-0.006832,0.095456,-0.000430,1,0,0,0,0,0,0,-0.009656,-0.031426,0.000015,1,0,0,0,0,0,0,0.108036,-0.066525,-0.003452,1,0,0,0,0,0,0
2.360000,-0.007078,0.103968,-0.000484,1,0,0,0,0,0,0,-0.011139,-0.031401,0.000023,1,0,0,0,0,0,0,0.114810,-0.071140,-0.003977,1,0,0,0,0,0,0
2.370000,-0.007387,0.112551,-0.000540,1,0,0,0,0,0,0,-0.012872,-0.031339,0.000031,1,0,0,0,0,0,0,0.121174,-0.075754,-0.004532,1,0,0,0,0,0,0
2.380000,-0.007728,0.120883,-0.000596,1,0,0,0,0,0,0,-0.014857,-0.031281,0.000040,1,0,0,0,0,0,0,0.127059,-0.080208,-0.005093,1,0,0,0,0,0,0
2.390000,-0.008086,0.128670,-0.000650,1,0,0,0,0,0,0,-0.017100,-0.031270,0.000051,1,0,0,0,0,0,0,0.132517,-0.084425,-0.005647,1,0,0,0,0,0,0
2.400000,-0.008463,0.135783,-0.000702,1,0,0,0,0,0,0,-0.019585,-0.031336,0.000064,1,0,0,0,0,0,0,0.137574,-0.088342,-0.006179,1,0,0,0,0,0,0
2.410000,-0.008871,0.142285,-0.000751,1,0,0,0,0,0,0,-0.022269,-0.031485,0.000081,1,0,0,0,0,0,0,0.142176,-0.091873,-0.006674,1,0,0,0,0,0,0
2.420000,-0.009306,0.148298,-0.000799,1,0,0,0,0,0,0,-0.025149,-0.031724,0.000102,1,0,0,0,0,0,0,0.146286,-0.094961,-0.007117,1,0,0,0,0,0,0
2.430000,-0.009731,0.153893,-0.000846,1,0,0,0,0,0,0,-0.028317,-0.032095,0.000129,1,0,0,0,0,0,0,0.150003,-0.097627,-0.007508,1,0,0,0,0,0,0
2.440000,-0.010073,0.159081,-0.000892,1,0,0,0,0,0,0,-0.031894,-0.032628,0.000164,1,0,0,0,0,0,0,0.153534,-0.099957,-0.007857,1,0,0,0,0,0,0
2.450000,-0.010251,0.163848,-0.000935,1,0,0,0,0,0,0,-0.035914,-0.033288,0.000206,1,0,0,0,0,0,0,0.157035,-0.102013,-0.008170,1,0,0,0,0,0,0
2.460000,-0.010210,0.168193,-0.000974,1,0,0,0,0,0,0,-0.040384,-0.034012,0.000257,1,0,0,0,0,0,0,0.160501,-0.103776,-0.008445,1,0,0,0,0,0,0
2.470000,-0.009943,0.172117,-0.001008,1,0,0,0,0,0,0,-0.045382,-0.034778,0.000314,1,0,0,0,0,0,0,0.163851,-0.105183,-0.008670,1,0,0,0,0,0,0
2.480000,-0.009492,0.175659,-0.001035,1,0,0,0,0,0,0,-0.050976,-0.035595,0.000380,1,0,0,0,0,0,0,0.167040,-0.106211,-0.008839,1,0,0,0,0,0,0
2.490000,-0.008904,0.178964,-0.001055,1,0,0,0,0,0,0,-0.057148,-0.036515,0.000460,1,0,0,0,0,0,0,0.170090,-0.106894,-0.008957,1,0,0,0,0,0,0
2.500000,-0.008198,0.182249,-0.001070,1,0,0,0,0,0,0,-0.063854,-0.037629,0.000561,1,0,0,0,0,0,0,0.173025,-0.107293,-0.009034,1,0,0,0,0,0,0
2.510000,-0.007367,0.185620,-0.001079,1,0,0,0,0,0,0,-0.071061,-0.039051,0.000694,1,0,0,0,0,0,0,0.175893,-0.107487,-0.009082,1,0,0,0,0,0,0
2.520000,-0.006406,0.188959,-0.001081,1,0,0,0,0,0,0,-0.078627,-0.040866,0.000870,1,0,0,0,0,0,0,0.178827,-0.107595,-0.009122,1,0,0,0,0,0,0
2.530000,-0.005337,0.192102,-0.001073,1,0,0,0,0,0,0,-0.086251,-0.043127,0.001099,1,0,0,0,0,0,0,0.181977,-0.107755,-0.009179,1,0,0,0,0,0,0
2.540000,-0.004213,0.195027,-0.001057,1,0,0,0,0,0,0,-0.093530,-0.045881,0.001392,1,0,0,0,0,0,0,0.185318,-0.108022,-0.009265,1,0,0,0,0,0,0
2.550000,-0.003091,0.197927,-0.001031,1,0,0,0,0,0,0,-0.100026,-0.049019,0.001742,1,0,0,0,0,0,0,0.188593,-0.108331,-0.009368,1,0,0,0,0,0,0
2.560000,-0.002005,0.201060,-0.000998,1,0,0,0,0,0,0,-0.105640,-0.052253,0.002119,1,0,0,0,0,0,0,0.191471,-0.108575,-0.009465,1,0,0,0,0,0,0
2.570000,-0.000968,0.204453,-0.000958,1,0,0,0,0,0,0,-0.110657,-0.055423,0.002503,1,0,0,0,0,0,0,0.193675,-0.108681,-0.009542,1,0,0,0,0,0,0
2.580000,0.000002,0.207873,-0.000910,1,0,0,0,0,0,0,-0.115486,-0.058434,0.002881,1,0,0,0,0,0,0,0.195042,-0.108643,-0.009594,1,0,0,0,0,0,0
2.590000,0.000873,0.211002,-0.000855,1,0,0,0,0,0,0,-0.120346,-0.061086,0.003227,1,0,0,0,0,0,0,0.195501,-0.108502,-0.009628,1,0,0,0,0,0,0
2.600000,0.001596,0.213563,-0.000796,1,0,0,0,0,0,0,-0.125091,-0.063215,0.003519,1,0,0,0,0,0,0,0.195075,-0.108337,-0.009657,1,0,0,0,0,0,0
2.610000,0.002107,0.215409,-0.000735,1,0,0,0,0,0,0,-0.129553,-0.064829,0.003753,1,0,0,0,0,0,0,0.193847,-0.108228,-0.009694,1,0,0,0,0,0,0
2.620000,0.002340,0.216526,-0.000674,1,0,0,0,0,0,0,-0.133621,-0.066120,0.003952,1,0,0,0,0,0,0,0.191881,-0.108194,-0.009741,1,0,0,0,0,0,0
2.630000,0.002254,0.216962,-0.000617,1,0,0,0,0,0,0,-0.137375,-0.067370,0.004151,1,0,0,0,0,0,0,0.189122,-0.108116,-0.009771,1,0,0,0,0,0,0
2.640000,0.001859,0.216723,-0.000563,1,0,0,0,0,0,0,-0.141015,-0.068836,0.004385,1,0,0,0,0,0,0,0.185430,-0.107764,-0.009739,1,0,0,0,0,0,0
2.650000,0.001228,0.215646,-0.000516,1,0,0,0,0,0,0,-0.144585,-0.070624,0.004672,1,0,0,0,0,0,0,0.180762,-0.106936,-0.009609,1,0,0,0,0,0,0
2.660000,0.000459,0.213435,-0.000476,1,0,0,0,0,0,0,-0.147806,-0.072589,0.004989,1,0,0,0,0,0,0,0.175287,-0.105595,-0.009378,1,0,0,0,0,0,0
2.670000,-0.000379,0.209879,-0.000440,1,0,0,0,0,0,0,-0.150380,-0.074527,0.005305,1,0,0,0,0,0,0,0.169310,-0.103853,-0.009074,1,0,0,0,0,0,0
2.680000,-0.001275,0.205068,-0.000408,1,0,0,0,0,0,0,-0.152175,-0.076255,0.005590,1,0,0,0,0,0,0,0.163087,-0.101854,-0.008726,1,0,0,0,0,0,0
2.690000,-0.002247,0.199368,-0.000377,1,0,0,0,0,0,0,-0.153305,-0.077623,0.005817,1,0,0,0,0,0,0,0.156728,-0.099670,-0.008353,1,0,0,0,0,0,0
2.700000,-0.003298,0.193180,-0.000347,1,0,0,0,0,0,0,-0.154056,-0.078583,0.005978,1,0,0,0,0,0,0,0.150276,-0.097306,-0.007958,1,0,0,0,0,0,0
2.710000,-0.004386,0.186745,-0.000316,1,0,0,0,0,0,0,-0.154698,-0.079157,0.006075,1,0,0,0,0,0,0,0.143801,-0.094760,-0.007545,1,0,0,0,0,0,0
2.720000,-0.005437,0.180105,-0.000285,1,0,0,0,0,0,0,-0.155301,-0.079413,0.006121,1,0,0,0,0,0,0,0.137418,-0.092066,-0.007121,1,0,0,0,0,0,0
2.730000,-0.006389,0.173227,-0.000253,1,0,0,0,0,0,0,-0.155734,-0.079445,0.006130,1,0,0,0,0,0,0,0.131216,-0.089275,-0.006698,1,0,0,0,0,0,0
2.740000,-0.007231,0.166133,-0.000219,1,0,0,0,0,0,0,-0.155898,-0.079362,0.006121,1,0,0,0,0,0,0,0.125219,-0.086425,-0.006280,1,0,0,0,0,0,0
2.750000,-0.008000,0.158955,-0.000184,1,0,0,0,0,0,0,-0.155786,-0.079264,0.006111,1,0,0,0,0,0,0,0.119401,-0.083538,-0.005873,1,0,0,0,0,0,0
2.760000,-0.008755,0.151877,-0.000149,1,0,0,0,0,0,0,-0.155428,-0.079174,0.006101,1,0,0,0,0,0,0,0.113769,-0.080645,-0.005480,1,0,0,0,0,0,0
2.770000,-0.009537,0.145063,-0.000115,1,0,0,0,0,0,0,-0.154920,-0.079048,0.006086,1,0,0,0,0,0,0,0.108384,-0.077810,-0.005110,1,0,0,0,0,0,0
2.780000,-0.010354,0.138610,-0.000083,1,0,0,0,0,0,0,-0.154329,-0.078784,0.006048,1,0,0,0,0,0,0,0.103384,-0.075144,-0.004772,1,0,0,0,0,0,0
2.790000,-0.011183,0.132559,-0.000054,1,0,0,0,0,0,0,-0.153697,-0.078296,0.005975,1,0,0,0,0,0,0,0.098889,-0.072750,-0.004475,1,0,0,0,0,0,0
2.800000,-0.012000,0.126895,-0.000028,1,0,0,0,0,0,0,-0.153056,-0.077569,0.005866,1,0,0,0,0,0,0,0.094911,-0.070669,-0.004219,1,0,0,0,0,0,0
2.810000,-0.012793,0.121588,-0.000004,1,0,0,0,0,0,0,-0.152450,-0.076674,0.005732,1,0,0,0,0,0,0,0.091333,-0.068867,-0.003998,1,0,0,0,0,0,0
2.820000,-0.013572,0.116636,0.000016,1,0,0,0,0,0,0,-0.151938,-0.075725,0.005593,1,0,0,0,0,0,0,0.087948,-0.067250,-0.003800,1,0,0,0,0,0,0
2.830000,-0.014358,0.112085,0.000033,1,0,0,0,0,0,0,-0.151510,-0.074809,0.005462,1,0,0,0,0,0,0,0.084569,-0.065740,-0.003618,1,0,0,0,0,0,0
2.840000,-0.015168,0.108004,0.000044,1,0,0,0,0,0,0,-0.151065,-0.073954,0.005343,1,0,0,0,0,0,0,0.081085,-0.064305,-0.003448,1,0,0,0,0,0,0
2.850000,-0.016009,0.104434,0.000049,1,0,0,0,0,0,0,-0.150420,-0.073132,0.005232,1,0,0,0,0,0,0,0.077455,-0.062950,-0.003289,1,0,0,0,0,0,0
2.860000,-0.016881,0.101377,0.000046,1,0,0,0,0,0,0,-0.149480,-0.072359,0.005130,1,0,0,0,0,0,0,0.073683,-0.061700,-0.003143,1,0,0,0,0,0,0
2.870000,-0.017777,0.098757,0.000038,1,0,0,0,0,0,0,-0.148187,-0.071685,0.005046,1,0,0,0,0,0,0,0.069795,-0.060590,-0.003011,1,0,0,0,0,0,0
2.880000,-0.018686,0.096381,0.000027,1,0,0,0,0,0,0,-0.146456,-0.071123,0.004979,1,0,0,0,0,0,0,0.065836,-0.059637,-0.002893,1,0,0,0,0,0,0
2.890000,-0.019595,0.094022,0.000017,1,0,0,0,0,0,0,-0.144272,-0.070711,0.004933,1,0,0,0,0,0,0,0.061896,-0.058856,-0.002788,1,0,0,0,0,0,0
2.900000,-0.020510,0.091533,0.000011,1,0,0,0,0,0,0,-0.141611,-0.070408,0.004902,1,0,0,0,0,0,0,0.058086,-0.058247,-0.002694,1,0,0,0,0,0,0
2.910000,-0.021448,0.088867,0.000010,1,0,0,0,0,0,0,-0.138445,-0.070081,0.004863,1,0,0,0,0,0,0,0.054474,-0.057754,-0.002607,1,0,0,0,0,0,0
2.920000,-0.022421,0.086039,0.000015,1,0,0,0,0,0,0,-0.134771,-0.069595,0.004799,1,0,0,0,0,0,0,0.051039,-0.057253,-0.002520,1,0,0,0,0,0,0
2.930000,-0.023418,0.083116,0.000024,1,0,0,0,0,0,0,-0.130630,-0.068821,0.004692,1,0,0,0,0,0,0,0.047719,-0.056600,-0.002425,1,0,0,0,0,0,0
2.940000,-0.024413,0.080191,0.000034,1,0,0,0,0,0,0,-0.126126,-0.067700,0.004539,1,0,0,0,0,0,0,0.044526,-0.055728,-0.002321,1,0,0,0,0,0,0
2.950000,-0.025344,0.077300,0.000046,1,0,0,0,0,0,0,-0.121414,-0.066246,0.004344,1,0,0,0,0,0,0,0.041547,-0.054640,-0.002209,1,0,0,0,0,0,0
2.960000,-0.026148,0.074410,0.000059,1,0,0,0,0,0,0,-0.116679,-0.064510,0.004119,1,0,0,0,0,0,0,0.038923,-0.053406,-0.002095,1,0,0,0,0,0,0
2.970000,-0.026779,0.071446,0.000076,1,0,0,0,0,0,0,-0.112066,-0.062572,0.003876,1,0,0,0,0,0,0,0.036790,-0.052125,-0.001983,1,0,0,0,0,0,0
2.980000,-0.027219,0.068336,0.000099,1,0,0,0,0,0,0,-0.107610,-0.060511,0.003627,1,0,0,0,0,0,0,0.035205,-0.050872,-0.001875,1,0,0,0,0,0,0
2.990000,-0.027480,0.065092,0.000126,1,0,0,0,0,0,0,-0.103282,-0.058389,0.003380,1,0,0,0,0,0,0,0.034131,-0.049674,-0.001774,1,0,0,0,0,0,0
3.000000,-0.027592,0.061847,0.000154,1,0,0,0,0,0,0,-0.098998,-0.056265,0.003142,1,0,0,0,0,0,0,0.033527,-0.048533,-0.001678,1,0,0,0,0,0,0
3.010000,-0.027590,0.058814,0.000177,1,0,0,0,0,0,0,-0.094722,-0.054231,0.002922,1,0,0,0,0,0,0,0.033345,-0.047441,-0.001588,1,0,0,0,0,0,0
3.020000,-0.027503,0.056234,0.000188,1,0,0,0,0,0,0,-0.090375,-0.052365,0.002727,1,0,0,0,0,0,0,0.033539,-0.046392,-0.001503,1,0,0,0,0,0,0
3.030000,-0.027347,0.054243,0.000185,1,0,0,0,0,0,0,-0.085926,-0.050705,0.002558,1,0,0,0,0,0,0,0.034076,-0.045391,-0.001423,1,0,0,0,0,0,0
3.040000,-0.027128,0.052835,0.000166,1,0,0,0,0,0,0,-0.081413,-0.049240,0.002413,1,0,0,0,0,0,0,0.034937,-0.044464,-0.001350,1,0,0,0,0,0,0
3.050000,-0.026845,0.051914,0.000137,1,0,0,0,0,0,0,-0.076920,-0.047915,0.002283,1,0,0,0,0,0,0,0.036106,-0.043653,-0.001285,1,0,0,0,0,0,0
3.060000,-0.026504,0.051355,0.000101,1,0,0,0,0,0,0,-0.072521,-0.046617,0.002160,1,0,0,0,0,0,0,0.037579,-0.043020,-0.001229,1,0,0,0,0,0,0
3.070000,-0.026131,0.051124,0.000058,1,0,0,0,0,0,0,-0.068290,-0.045249,0.002036,1,0,0,0,0,0,0,0.039349,-0.042627,-0.001186,1,0,0,0,0,0,0
3.080000,-0.025763,0.051224,0.000010,1,0,0,0,0,0,0,-0.064334,-0.043763,0.001909,1,0,0,0,0,0,0,0.041398,-0.042520,-0.001159,1,0,0,0,0,0,0
3.090000,-0.025448,0.051705,-0.000044,1,0,0,0,0,0,0,-0.060695,-0.042130,0.001777,1,0,0,0,0,0,0,0.043691,-0.042721,-0.001148,1,0,0,0,0,0,0
3.100000,-0.025236,0.052677,-0.000107,1,0,0,0,0,0,0,-0.057428,-0.040377,0.001643,1,0,0,0,0,0,0,0.046204,-0.043244,-0.001157,1,0,0,0,0,0,0
3.110000,-0.025166,0.054245,-0.000182,1,0,0,0,0,0,0,-0.054583,-0.038570,0.001513,1,0,0,0,0,0,0,0.048898,-0.044090,-0.001186,1,0,0,0,0,0,0
3.120000,-0.025243,0.056420,-0.000269,1,0,0,0,0,0,0,-0.052179,-0.036793,0.001389,1,0,0,0,0,0,0,0.051729,-0.045247,-0.001236,1,0,0,0,0,0,0
3.130000,-0.025432,0.059108,-0.000366,1,0,0,0,0,0,0,-0.050266,-0.035137,0.001278,1,0,0,0,0,0,0,0.054650,-0.046716,-0.001309,1,0,0,0,0,0,0
3.140000,-0.025693,0.062196,-0.000470,1,0,0,0,0,0,0,-0.048946,-0.033707,0.001182,1,0,0,0,0,0,0,0.057581,-0.048483,-0.001405,1,0,0,0,0,0,0
3.150000,-0.026002,0.065600,-0.000579,1,0,0,0,0,0,0,-0.048287,-0.032597,0.001105,1,0,0,0,0,0,0,0.060394,-0.050503,-0.001523,1,0,0,0,0,0,0
3.160000,-0.026351,0.069235,-0.000693,1,0,0,0,0,0,0,-0.048247,-0.031844,0.001049,1,0,0,0,0,0,0,0.062933,-0.052700,-0.001658,1,0,0,0,0,0,0
3.170000,-0.026747,0.073031,-0.000809,1,0,0,0,0,0,0,-0.048717,-0.031420,0.001010,1,0,0,0,0,0,0,0.065081,-0.054988,-0.001804,1,0,0,0,0,0,0
3.180000,-0.027206,0.076967,-0.000927,1,0,0,0,0,0,0,-0.049617,-0.031269,0.000987,1,0,0,0,0,0,0,0.066833,-0.057315,-0.001957,1,0,0,0,0,0,0
3.190000,-0.027735,0.081045,-0.001048,1,0,0,0,0,0,0,-0.050929,-0.031332,0.000976,1,0,0,0,0,0,0,0.068297,-0.059703,-0.002117,1,0,0,0,0,0,0
3.200000,-0.028321,0.085249,-0.001173,1,0,0,0,0,0,0,-0.052628,-0.031533,0.000975,1,0,0,0,0,0,0,0.069645,-0.062227,-0.002288,1,0,0,0,0,0,0
3.210000,-0.028934,0.089493,-0.001298,1,0,0,0,0,0,0,-0.054642,-0.031803,0.000980,1,0,0,0,0,0,0,0.071027,-0.064913,-0.002472,1,0,0,0,0,0,0
3.220000,-0.029538,0.093614,-0.001420,1,0,0,0,0,0,0,-0.056972,-0.032170,0.000992,1,0,0,0,0,0,0,0.072482,-0.067673,-0.002662,1,0,0,0,0,0,0
3.230000,-0.030117,0.097430,-0.001533,1,0,0,0,0,0,0,-0.059684,-0.032753,0.001021,1,0,0,0,0,0,0,0.073967,-0.070358,-0.002848,1,0,0,0,0,0,0
3.240000,-0.030673,0.100813,-0.001634,1,0,0,0,0,0,0,-0.062856,-0.033726,0.001077,1,0,0,0,0,0,0,0.075431,-0.072811,-0.003018,1,0,0,0,0,0,0
3.250000,-0.031219,0.103743,-0.001721,1,0,0,0,0,0,0,-0.066318,-0.035141,0.001166,1,0,0,0,0,0,0,0.076859,-0.074913,-0.003164,1,0,0,0,0,0,0
3.260000,-0.031752,0.106292,-0.001796,1,0,0,0,0,0,0,-0.069840,-0.036967,0.001290,1,0,0,0,0,0,0,0.078297,-0.076626,-0.003281,1,0,0,0,0,0,0
3.270000,-0.032250,0.108558,-0.001863,1,0,0,0,0,0,0,-0.073260,-0.039172,0.001448,1,0,0,0,0,0,0,0.079811,-0.077985,-0.003372,1,0,0,0,0,0,0
3.280000,-0.032675,0.110603,-0.001923,1,0,0,0,0,0,0,-0.076393,-0.041624,0.001631,1,0,0,0,0,0,0,0.081427,-0.079053,-0.003443,1,0,0,0,0,0,0
3.290000,-0.032987,0.112445,-0.001977,1,0,0,0,0,0,0,-0.079121,-0.044123,0.001824,1,0,0,0,0,0,0,0.083147,-0.079896,-0.003499,1,0,0,0,0,0,0
3.300000,-0.033168,0.114076,-0.002024,1,0,0,0,0,0,0,-0.081493,-0.046555,0.002016,1,0,0,0,0,0,0,0.084976,-0.080589,-0.003545,1,0,0,0,0,0,0
3.310000,-0.033223,0.115508,-0.002065,1,0,0,0,0,0,0,-0.083649,-0.048853,0.002200,1,0,0,0,0,0,0,0.086910,-0.081203,-0.003590,1,0,0,0,0,0,0
3.320000,-0.033186,0.116787,-0.002099,1,0,0,0,0,0,0,-0.085714,-0.050918,0.002367,1,0,0,0,0,0,0,0.088923,-0.081786,-0.003636,1,0,0,0,0,0,0
3.330000,-0.033111,0.117973,-0.002130,1,0,0,0,0,0,0,-0.087753,-0.052651,0.002508,1,0,0,0,0,0,0,0.090950,-0.082342,-0.003685,1,0,0,0,0,0,0
3.340000,-0.033052,0.119148,-0.002159,1,0,0,0,0,0,0,-0.089817,-0.054002,0.002617,1,0,0,0,0,0,0,0.092882,-0.082837,-0.003732,1,0,0,0,0,0,0
3.350000,-0.033058,0.120446,-0.002191,1,0,0,0,0,0,0,-0.091961,-0.054995,0.002696,1,0,0,0,0,0,0,0.094618,-0.083240,-0.003776,1,0,0,0,0,0,0
3.360000,-0.033155,0.122019,-0.002232,1,0,0,0,0,0,0,-0.094230,-0.055737,0.002755,1,0,0,0,0,0,0,0.096123,-0.083572,-0.003816,1,0,0,0,0,0,0
3.370000,-0.033334,0.123938,-0.002284,1,0,0,0,0,0,0,-0.096695,-0.056372,0.002808,1,0,0,0,0,0,0,0.097454,-0.083926,-0.003861,1,0,0,0,0,0,0
3.380000,-0.033564,0.126123,-0.002345,1,0,0,0,0,0,0,-0.099435,-0.057030,0.002866,1,0,0,0,0,0,0,0.098702,-0.084430,-0.003924,1,0,0,0,0,0,0
3.390000,-0.033834,0.128411,-0.002410,1,0,0,0,0,0,0,-0.102423,-0.057796,0.002941,1,0,0,0,0,0,0,0.099906,-0.085170,-0.004012,1,0,0,0,0,0,0
3.400000,-0.034164,0.130644,-0.002472,1,0,0,0,0,0,0,-0.105510,-0.058702,0.003035,1,0,0,0,0,0,0,0.101023,-0.086150,-0.004126,1,0,0,0,0,0,0
3.410000,-0.034578,0.132722,-0.002530,1,0,0,0,0,0,0,-0.108515,-0.059755,0.003151,1,0,0,0,0,0,0,0.101968,-0.087318,-0.004260,1,0,0,0,0,0,0
3.420000,-0.035096,0.134702,-0.002586,1,0,0,0,0,0,0,-0.111271,-0.060917,0.003284,1,0,0,0,0,0,0,0.102665,-0.088609,-0.004405,1,0,0,0,0,0,0
3.430000,-0.035729,0.136764,-0.002646,1,0,0,0,0,0,0,-0.113713,-0.062092,0.003422,1,0,0,0,0,0,0,0.103071,-0.089958,-0.004555,1,0,0,0,0,0,0
3.440000,-0.036442,0.139014,-0.002716,1,0,0,0,0,0,0,-0.115936,-0.063158,0.003552,1,0,0,0,0,0,0,0.103173,-0.091329,-0.004705,1,0,0,0,0,0,0
3.450000,-0.037151,0.141382,-0.002792,1,0,0,0,0,0,0,-0.118147,-0.064004,0.003658,1,0,0,0,0,0,0,0.102974,-0.092711,-0.004851,1,0,0,0,0,0,0
3.460000,-0.037768,0.143692,-0.002869,1,0,0,0,0,0,0,-0.120537,-0.064551,0.003731,1,0,0,0,0,0,0,0.102471,-0.094072,-0.004990,1,0,0,0,0,0,0
3.470000,-0.038224,0.145752,-0.002939,1,0,0,0,0,0,0,-0.123121,-0.064801,0.003771,1,0,0,0,0,0,0,0.101669,-0.095364,-0.005116,1,0,0,0,0,0,0
3.480000,-0.038478,0.147436,-0.002995,1,0,0,0,0,0,0,-0.125851,-0.064860,0.003791,1,0,0,0,0,0,0,0.100617,-0.096533,-0.005223,1,0,0,0,0,0,0
3.490000,-0.038523,0.148692,-0.003035,1,0,0,0,0,0,0,-0.128671,-0.064895,0.003811,1,0,0,0,0,0,0,0.099430,-0.097536,-0.005305,1,0,0,0,0,0,0
3.500000,-0.038369,0.149538,-0.003058,1,0,0,0,0,0,0,-0.131505,-0.065058,0.003853,1,0,0,0,0,0,0,0.098291,-0.098361,-0.005364,1,0,0,0,0,0,0
3.510000,-0.038030,0.150037,-0.003066,1,0,0,0,0,0,0,-0.134278,-0.065426,0.003926,1,0,0,0,0,0,0,0.097399,-0.098999,-0.005398,1,0,0,0,0,0,0
3.520000,-0.037510,0.150220,-0.003062,1,0,0,0,0,0,0,-0.136932,-0.066004,0.004032,1,0,0,0,0,0,0,0.096855,-0.099400,-0.005405,1,0,0,0,0,0,0
3.530000,-0.036798,0.150033,-0.003041,1,0,0,0,0,0,0,-0.139410,-0.066761,0.004166,1,0,0,0,0,0,0,0.096631,-0.099461,-0.005377,1,0,0,0,0,0,0
3.540000,-0.035882,0.149362,-0.003001,1,0,0,0,0,0,0,-0.141645,-0.067643,0.004321,1,0,0,0,0,0,0,0.096619,-0.099064,-0.005305,1,0,0,0,0,0,0
3.550000,-0.034763,0.148098,-0.002938,1,0,0,0,0,0,0,-0.143566,-0.068580,0.004484,1,0,0,0,0,0,0,0.096705,-0.098127,-0.005182,1,0,0,0,0,0,0
3.560000,-0.033467,0.146234,-0.002853,1,0,0,0,0,0,0,-0.145143,-0.069495,0.004646,1,0,0,0,0,0,0,0.096820,-0.096659,-0.005011,1,0,0,0,0,0,0
3.570000,-0.032041,0.143901,-0.002753,1,0,0,0,0,0,0,-0.146434,-0.070361,0.004799,1,0,0,0,0,0,0,0.096965,-0.094763,-0.004803,1,0,0,0,0,0,0
3.580000,-0.030530,0.141312,-0.002645,1,0,0,0,0,0,0,-0.147461,-0.071136,0.004937,1,0,0,0,0,0,0,0.097185,-0.092598,-0.004576,1,0,0,0,0,0,0
3.590000,-0.028970,0.138659,-0.002538,1,0,0,0,0,0,0,-0.148187,-0.071792,0.005055,1,0,0,0,0,0,0,0.097498,-0.090327,-0.004345,1,0,0,0,0,0,0
3.600000,-0.027384,0.136041,-0.002433,1,0,0,0,0,0,0,-0.148541,-0.072356,0.005158,1,0,0,0,0,0,0,0.097878,-0.088079,-0.004124,1,0,0,0,0,0,0
3.610000,-0.025794,0.133469,-0.002331,1,0,0,0,0,0,0,-0.148454,-0.072897,0.005254,1,0,0,0,0,0,0,0.098234,-0.085915,-0.003918,1,0,0,0,0,0,0
3.620000,-0.024245,0.130946,-0.002232,1,0,0,0,0,0,0,-0.147895,-0.073493,0.005355,1,0,0,0,0,0,0,0.098423,-0.083831,-0.003726,1,0,0,0,0,0,0
3.630000,-0.022810,0.128515,-0.002136,1,0,0,0,0,0,0,-0.146869,-0.074160,0.005462,1,0,0,0,0,0,0,0.098314,-0.081805,-0.003546,1,0,0,0,0,0,0
3.640000,-0.021580,0.126238,-0.002046,1,0,0,0,0,0,0,-0.145404,-0.074836,0.005564,1,0,0,0,0,0,0,0.097840,-0.079843,-0.003378,1,0,0,0,0,0,0
3.650000,-0.020633,0.124165,-0.001961,1,0,0,0,0,0,0,-0.143515,-0.075379,0.005640,1,0,0,0,0,0,0,0.097045,-0.078022,-0.003230,1,0,0,0,0,0,0
3.660000,-0.020008,0.122343,-0.001884,1,0,0,0,0,0,0,-0.141187,-0.075614,0.005664,1,0,0,0,0,0,0,0.096040,-0.076467,-0.003111,1,0,0,0,0,0,0
3.670000,-0.019696,0.120806,-0.001813,1,0,0,0,0,0,0,-0.138416,-0.075392,0.005617,1,0,0,0,0,0,0,0.094919,-0.075289,-0.003031,1,0,0,0,0,0,0
3.680000,-0.019643,0.119555,-0.001750,1,0,0,0,0,0,0,-0.135259,-0.074651,0.005494,1,0,0,0,0,0,0,0.093709,-0.074529,-0.002992,1,0,0,0,0,0,0
3.690000,-0.019784,0.118534,-0.001694,1,0,0,0,0,0,0,-0.131873,-0.073426,0.005305,1,0,0,0,0,0,0,0.092396,-0.074160,-0.002988,1,0,0,0,0,0,0
3.700000,-0.020074,0.117631,-0.001643,1,0,0,0,0,0,0,-0.128480,-0.071822,0.005069,1,0,0,0,0,0,0,0.090982,-0.074120,-0.003012,1,0,0,0,0,0,0
3.710000,-0.020490,0.116722,-0.001595,1,0,0,0,0,0,0,-0.125324,-0.069968,0.004805,1,0,0,0,0,0,0,0.089498,-0.074349,-0.003057,1,0,0,0,0,0,0
3.720000,-0.021022,0.115748,-0.001549,1,0,0,0,0,0,0,-0.122512,-0.067999,0.004534,1,0,0,0,0,0,0,0.087949,-0.074761,-0.003113,1,0,0,0,0,0,0
3.730000,-0.021649,0.114753,-0.001505,1,0,0,0,0,0,0,-0.119990,-0.066016,0.004268,1,0,0,0,0,0,0,0.086298,-0.075249,-0.003169,1,0,0,0,0,0,0
3.740000,-0.022323,0.113841,-0.001467,1,0,0,0,0,0,0,-0.117634,-0.064087,0.004018,1,0,0,0,0,0,0,0.084513,-0.075715,-0.003217,1,0,0,0,0,0,0
3.750000,-0.022981,0.113114,-0.001437,1,0,0,0,0,0,0,-0.115343,-0.062280,0.003789,1,0,0,0,0,0,0,0.082649,-0.076118,-0.003253,1,0,0,0,0,0,0
3.760000,-0.023545,0.112583,-0.001414,1,0,0,0,0,0,0,-0.113008,-0.060632,0.003586,1,0,0,0,0,0,0,0.080857,-0.076476,-0.003279,1,0,0,0,0,0,0
3.770000,-0.023938,0.112144,-0.001397,1,0,0,0,0,0,0,-0.110584,-0.059157,0.003409,1,0,0,0,0,0,0,0.079311,-0.076825,-0.003299,1,0,0,0,0,0,0
3.780000,-0.024105,0.111651,-0.001380,1,0,0,0,0,0,0,-0.108086,-0.057839,0.003255,1,0,0,0,0,0,0,0.078121,-0.077139,-0.003311,1,0,0,0,0,0,0
3.790000,-0.024019,0.110981,-0.001361,1,0,0,0,0,0,0,-0.105558,-0.056646,0.003119,1,0,0,0,0,0,0,0.077326,-0.077324,-0.003310,1,0,0,0,0,0,0
3.800000,-0.023684,0.110059,-0.001337,1,0,0,0,0,0,0,-0.103013,-0.055513,0.002992,1,0,0,0,0,0,0,0.076949,-0.077261,-0.003287,1,0,0,0,0,0,0
3.810000,-0.023141,0.108854,-0.001306,1,0,0,0,0,0,0,-0.100439,-0.054366,0.002867,1,0,0,0,0,0,0,0.077016,-0.076873,-0.003239,1,0,0,0,0,0,0
3.820000,-0.022437,0.107425,-0.001271,1,0,0,0,0,0,0,-0.097846,-0.053153,0.002738,1,0,0,0,0,0,0,0.077572,-0.076149,-0.003166,1,0,0,0,0,0,0
3.830000,-0.021604,0.105892,-0.001233,1,0,0,0,0,0,0,-0.095265,-0.051842,0.002603,1,0,0,0,0,0,0,0.078598,-0.075103,-0.003070,1,0,0,0,0,0,0
3.840000,-0.020655,0.104367,-0.001196,1,0,0,0,0,0,0,-0.092789,-0.050438,0.002462,1,0,0,0,0,0,0,0.079959,-0.073726,-0.002951,1,0,0,0,0,0,0
3.850000,-0.019579,0.102881,-0.001160,1,0,0,0,0,0,0,-0.090530,-0.048971,0.002319,1,0,0,0,0,0,0,0.081473,-0.072008,-0.002809,1,0,0,0,0,0,0
3.860000,-0.018363,0.101381,-0.001123,1,0,0,0,0,0,0,-0.088555,-0.047489,0.002180,1,0,0,0,0,0,0,0.083011,-0.069991,-0.002646,1,0,0,0,0,0,0
3.870000,-0.017017,0.099787,-0.001084,1,0,0,0,0,0,0,-0.086890,-0.046065,0.002049,1,0,0,0,0,0,0,0.084550,-0.067795,-0.002473,1,0,0,0,0,0,0
3.880000,-0.015579,0.098105,-0.001044,1,0,0,0,0,0,0,-0.085498,-0.044787,0.001935,1,0,0,0,0,0,0,0.086133,-0.065586,-0.002303,1,0,0,0,0,0,0
3.890000,-0.014105,0.096477,-0.001004,1,0,0,0,0,0,0,-0.084302,-0.043744,0.001844,1,0,0,0,0,0,0,0.087803,-0.063521,-0.002150,1,0,0,0,0,0,0
3.900000,-0.012653,0.095138,-0.000968,1,0,0,0,0,0,0,-0.083208,-0.043009,0.001781,1,0,0,0,0,0,0,0.089531,-0.061694,-0.002022,1,0,0,0,0,0,0
3.910000,-0.011268,0.094304,-0.000937,1,0,0,0,0,0,0,-0.082110,-0.042588,0.001746,1,0,0,0,0,0,0,0.091204,-0.060120,-0.001921,1,0,0,0,0,0,0
3.920000,-0.009977,0.094019,-0.000911,1,0,0,0,0,0,0,-0.080935,-0.042431,0.001734,1,0,0,0,0,0,0,0.092697,-0.058774,-0.001843,1,0,0,0,0,0,0
3.930000,-0.008802,0.094196,-0.000887,1,0,0,0,0,0,0,-0.079645,-0.042430,0.001733,1,0,0,0,0,0,0,0.093926,-0.057635,-0.001787,1,0,0,0,0,0,0
3.940000,-0.007772,0.094726,-0.000864,1,0,0,0,0,0,0,-0.078251,-0.042469,0.001734,1,0,0,0,0,0,0,0.094880,-0.056708,-0.001753,1,0,0,0,0,0,0
3.950000,-0.006926,0.095532,-0.000841,1,0,0,0,0,0,0,-0.076808,-0.042471,0.001731,1,0,0,0,0,0,0,0.095628,-0.056045,-0.001745,1,0,0,0,0,0,0
3.960000,-0.006294,0.096589,-0.000818,1,0,0,0,0,0,0,-0.075392,-0.042422,0.001722,1,0,0,0,0,0,0,0.096293,-0.055735,-0.001771,1,0,0,0,0,0,0
3.970000,-0.005894,0.097922,-0.000796,1,0,0,0,0,0,0,-0.074043,-0.042346,0.001710,1,0,0,0,0,0,0,0.096988,-0.055858,-0.001838,1,0,0,0,0,0,0
3.980000,-0.005719,0.099560,-0.000775,1,0,0,0,0,0,0,-0.072749,-0.042291,0.001698,1,0,0,0,0,0,0,0.097746,-0.056419,-0.001947,1,0,0,0,0,0,0
3.990000,-0.005737,0.101487,-0.000756,1,0,0,0,0,0,0,-0.071451,-0.042293,0.001689,1,0,0,0,0,0,0,0.098529,-0.057346,-0.002089,1,0,0,0,0,0,0
4.000000,-0.005890,0.103624,-0.000740,1,0,0,0,0,0,0,-0.070057,-0.042352,0.001683,1,0,0,0,0,0,0,0.099265,-0.058527,-0.002252,1,0,0,0,0,0,0
4.010000,-0.006117,0.105938,-0.000727,1,0,0,0,0,0,0,-0.068544,-0.042474,0.001680,1,0,0,0,0,0,0,0.099983,-0.059880,-0.002430,1,0,0,0,0,0,0
4.020000,-0.006376,0.108551,-0.000718,1,0,0,0,0,0,0,-0.067048,-0.042726,0.001685,1,0,0,0,0,0,0,0.100907,-0.061439,-0.002624,1,0,0,0,0,0,0
4.030000,-0.006638,0.111408,-0.000714,1,0,0,0,0,0,0,-0.065623,-0.043095,0.001695,1,0,0,0,0,0,0,0.102093,-0.063167,-0.002832,1,0,0,0,0,0,0
4.040000,-0.006893,0.114421,-0.000713,1,0,0,0,0,0,0,-0.064304,-0.043538,0.001708,1,0,0,0,0,0,0,0.103555,-0.065024,-0.003050,1,0,0,0,0,0,0
4.050000,-0.007138,0.117539,-0.000715,1,0,0,0,0,0,0,-0.063130,-0.044004,0.001720,1,0,0,0,0,0,0,0.105315,-0.066983,-0.003278,1,0,0,0,0,0,0
4.060000,-0.007362,0.120756,-0.000719,1,0,0,0,0,0,0,-0.062127,-0.044433,0.001728,1,0,0,0,0,0,0,0.107409,-0.069025,-0.003514,1,0,0,0,0,0,0
4.070000,-0.007535,0.124070,-0.000727,1,0,0,0,0,0,0,-0.061302,-0.044756,0.001728,1,0,0,0,0,0,0,0.109862,-0.071114,-0.003756,1,0,0,0,0,0,0
4.080000,-0.007608,0.127440,-0.000737,1,0,0,0,0,0,0,-0.060645,-0.044918,0.001717,1,0,0,0,0,0,0,0.112675,-0.073186,-0.003999,1,0,0,0,0,0,0
4.090000,-0.007536,0.130765,-0.000746,1,0,0,0,0,0,0,-0.060156,-0.044897,0.001694,1,0,0,0,0,0,0,0.115828,-0.075160,-0.004235,1,0,0,0,0,0,0
4.100000,-0.007297,0.133893,-0.000755,1,0,0,0,0,0,0,-0.059880,-0.044710,0.001662,1,0,0,0,0,0,0,0.119264,-0.076944,-0.004454,1,0,0,0,0,0,0
4.110000,-0.006905,0.136685,-0.000759,1,0,0,0,0,0,0,-0.059856,-0.044422,0.001625,1,0,0,0,0,0,0,0.122892,-0.078458,-0.004647,1,0,0,0,0,0,0
4.120000,-0.006404,0.139053,-0.000758,1,0,0,0,0,0,0,-0.060098,-0.044122,0.001589,1,0,0,0,0,0,0,0.126580,-0.079644,-0.004806,1,0,0,0,0,0,0
4.130000,-0.005858,0.140984,-0.000752,1,0,0,0,0,0,0,-0.060561,-0.043884,0.001558,1,0,0,0,0,0,0,0.130171,-0.080482,-0.004928,1,0,0,0,0,0,0
4.140000,-0.005324,0.142522,-0.000741,1,0,0,0,0,0,0,-0.061196,-0.043750,0.001535,1,0,0,0,0,0,0,0.133517,-0.080987,-0.005012,1,0,0,0,0,0,0
4.150000,-0.004832,0.143728,-0.000726,1,0,0,0,0,0,0,-0.061921,-0.043721,0.001520,1,0,0,0,0,0,0,0.136491,-0.081211,-0.005065,1,0,0,0,0,0,0
4.160000,-0.004383,0.144648,-0.000708,1,0,0,0,0,0,0,-0.062656,-0.043772,0.001513,1,0,0,0,0,0,0,0.139021,-0.081215,-0.005092,1,0,0,0,0,0,0
4.170000,-0.003969,0.145308,-0.000688,1,0,0,0,0,0,0,-0.063347,-0.043878,0.001510,1,0,0,0,0,0,0,0.141099,-0.081066,-0.005102,1,0,0,0,0,0,0
4.180000,-0.003575,0.145721,-0.000666,1,0,0,0,0,0,0,-0.063909,-0.043980,0.001508,1,0,0,0,0,0,0,0.142729,-0.080823,-0.005103,1,0,0,0,0,0,0
4.190000,-0.003192,0.145885,-0.000642,1,0,0,0,0,0,0,-0.064342,-0.044079,0.001508,1,0,0,0,0,0,0,0.143907,-0.080524,-0.005099,1,0,0,0,0,0,0
4.200000,-0.002818,0.145791,-0.000618,1,0,0,0,0,0,0,-0.064670,-0.044196,0.001510,1,0,0,0,0,0,0,0.144634,-0.080191,-0.005092,1,0,0,0,0,0,0
4.210000,-0.002453,0.145427,-0.000592,1,0,0,0,0,0,0,-0.064873,-0.044312,0.001512,1,0,0,0,0,0,0,0.144925,-0.079849,-0.005084,1,0,0,0,0,0,0
4.220000,-0.002110,0.144824,-0.000566,1,0,0,0,0,0,0,-0.064936,-0.044405,0.001513,1,0,0,0,0,0,0,0.144810,-0.079520,-0.005079,1,0,0,0,0,0,0
4.230000,-0.001802,0.144025,-0.000539,1,0,0,0,0,0,0,-0.064855,-0.044456,0.001512,1,0,0,0,0,0,0,0.144316,-0.079218,-0.005077,1,0,0,0,0,0,0
4.240000,-0.001546,0.143081,-0.000513,1,0,0,0,0,0,0,-0.064644,-0.044454,0.001508,1,0,0,0,0,0,0,0.143461,-0.078945,-0.005078,1,0,0,0,0,0,0
4.250000,-0.001354,0.142053,-0.000487,1,0,0,0,0,0,0,-0.064314,-0.044384,0.001499,1,0,0,0,0,0,0,0.142243,-0.078681,-0.005077,1,0,0,0,0,0,0
4.260000,-0.001236,0.140992,-0.000462,1,0,0,0,0,0,0,-0.063867,-0.044220,0.001484,1,0,0,0,0,0,0,0.140652,-0.078395,-0.005070,1,0,0,0,0,0,0
4.270000,-0.001187,0.139904,-0.000438,1,0,0,0,0,0,0,-0.063314,-0.043944,0.001462,1,0,0,0,0,0,0,0.138695,-0.078068,-0.005053,1,0,0,0,0,0,0
4.280000,-0.001199,0.138763,-0.000414,1,0,0,0,0,0,0,-0.062657,-0.043539,0.001433,1,0,0,0,0,0,0,0.136415,-0.077707,-0.005028,1,0,0,0,0,0,0
4.290000,-0.001269,0.137573,-0.000392,1,0,0,0,0,0,0,-0.061876,-0.042987,0.001394,1,0,0,0,0,0,0,0.133884,-0.077333,-0.004997,1,0,0,0,0,0,0
4.300000,-0.001389,0.136313,-0.000371,1,0,0,0,0,0,0,-0.060961,-0.042287,0.001347,1,0,0,0,0,0,0,0.131204,-0.076985,-0.004965,1,0,0,0,0,0,0
4.310000,-0.001555,0.134966,-0.000352,1,0,0,0,0,0,0,-0.059953,-0.041447,0.001292,1,0,0,0,0,0,0,0.128480,-0.076704,-0.004936,1,0,0,0,0,0,0
4.320000,-0.001761,0.133509,-0.000334,1,0,0,0,0,0,0,-0.058887,-0.040478,0.001232,1,0,0,0,0,0,0,0.125773,-0.076497,-0.004913,1,0,0,0,0,0,0
