time,drone0_roll,drone0_pitch,drone0_yaw,drone0_des_qw,drone0_des_qx,drone0_des_qy,drone0_des_qz,drone0_err_x,drone0_err_y,drone0_err_z,drone1_roll,drone1_pitch,drone1_yaw,drone1_des_qw,drone1_des_qx,drone1_des_qy,drone1_des_qz,drone1_err_x,drone1_err_y,drone1_err_z,drone2_roll,drone2_pitch,drone2_yaw,drone2_des_qw,drone2_des_qx,drone2_des_qy,drone2_des_qz,drone2_err_x,drone2_err_y,drone2_err_z
0.000000,0.000000,0.000000,0.000000,1,0,0,0,0,0,0,0.000000,0.000000,0.000000,1,0,0,0,0,0,0,0.000000,0.000000,0.000000,1,0,0,0,0,0,0
0.010000,0.000001,-0.000001,-0.000000,1,0,0,0,0,0,0,0.000001,-0.000001,-0.000000,1,0,0,0,0,0,0,0.000382,-0.000213,-0.000000,1,0,0,0,0,0,0
0.020000,0.000003,-0.000006,-0.000000,1,0,0,0,0,0,0,0.000003,-0.000006,-0.000000,1,0,0,0,0,0,0,0.001230,-0.000696,-0.000000,1,0,0,0,0,0,0
0.030000,0.000008,-0.000016,-0.000000,1,0,0,0,0,0,0,0.000008,-0.000016,-0.000000,1,0,0,0,0,0,0,0.002400,-0.001372,-0.000002,1,0,0,0,0,0,0
0.040000,0.000015,-0.000030,-0.000000,1,0,0,0,0,0,0,0.000015,-0.000030,-0.000000,1,0,0,0,0,0,0,0.003859,-0.002220,-0.000004,1,0,0,0,0,0,0
0.050000,0.000025,-0.000049,-0.000000,1,0,0,0,0,0,0,0.000025,-0.000049,-0.000000,1,0,0,0,0,0,0,0.005597,-0.003232,-0.000009,1,0,0,0,0,0,0
0.060000,0.000037,0.000092,0.000000,1,0,0,0,0,0,0,0.000037,-0.000073,-0.000000,1,0,0,0,0,0,0,0.007606,-0.004405,-0.000017,1,0,0,0,0,0,0
0.070000,0.000050,0.000257,0.000000,1,0,0,0,0,0,0,-0.000049,-0.000340,-0.000000,1,0,0,0,0,0,0,0.009871,-0.005729,-0.000028,1,0,0,0,0,0,0
0.080000,0.000066,0.000462,0.000000,1,0,0,0,0,0,0,-0.000119,-0.000585,0.000000,1,0,0,0,0,0,0,0.012354,-0.007182,-0.000044,1,0,0,0,0,0,0
0.090000,0.000084,0.000848,0.000000,1,0,0,0,0,0,0,-0.000175,-0.000805,0.000000,1,0,0,0,0,0,0,0.015012,-0.008741,-0.000065,1,0,0,0,0,0,0
0.100000,0.000103,0.001251,0.000000,1,0,0,0,0,0,0,-0.000350,-0.001316,0.000000,1,0,0,0,0,0,0,0.017807,-0.010382,-0.000092,1,0,0,0,0,0,0
0.110000,0.000123,0.001807,0.000000,1,0,0,0,0,0,0,-0.000509,-0.001804,0.000000,1,0,0,0,0,0,0,0.020709,-0.012087,-0.000125,1,0,0,0,0,0,0
0.120000,0.000145,0.002438,0.000000,1,0,0,0,0,0,0,-0.000689,-0.002343,0.000001,1,0,0,0,0,0,0,0.023667,-0.013828,-0.000163,1,0,0,0,0,0,0
0.130000,0.000168,0.003178,0.000000,1,0,0,0,0,0,0,-0.000943,-0.003056,0.000001,1,0,0,0,0,0,0,0.026547,-0.015527,-0.000206,1,0,0,0,0,0,0
0.140000,0.000192,0.004049,0.000000,1,0,0,0,0,0,0,-0.001187,-0.003749,0.000002,1,0,0,0,0,0,0,0.029294,-0.017153,-0.000251,1,0,0,0,0,0,0
0.150000,0.000216,0.005031,0.000001,1,0,0,0,0,0,0,-0.001500,-0.004586,0.000003,1,0,0,0,0,0,0,0.031970,-0.018737,-0.000299,1,0,0,0,0,0,0
0.160000,0.000242,0.006152,0.000001,1,0,0,0,0,0,0,-0.001844,-0.005488,0.000005,1,0,0,0,0,0,0,0.034578,-0.020283,-0.000351,1,0,0,0,0,0,0
0.170000,0.000267,0.007415,0.000001,1,0,0,0,0,0,0,-0.002224,-0.006452,0.000007,1,0,0,0,0,0,0,0.037110,-0.021784,-0.000404,1,0,0,0,0,0,0
0.180000,0.000294,0.008819,0.000002,1,0,0,0,0,0,0,-0.002673,-0.007543,0.000009,1,0,0,0,0,0,0,0.039554,-0.023235,-0.000460,1,0,0,0,0,0,0
0.190000,0.000321,0.010360,0.000002,1,0,0,0,0,0,0,-0.003161,-0.008694,0.000013,1,0,0,0,0,0,0,0.041897,-0.024628,-0.000517,1,0,0,0,0,0,0
0.200000,0.000348,0.011978,0.000003,1,0,0,0,0,0,0,-0.003723,-0.009959,0.000017,1,0,0,0,0,0,0,0.044126,-0.025955,-0.000574,1,0,0,0,0,0,0
0.210000,0.000375,0.013634,0.000003,1,0,0,0,0,0,0,-0.004344,-0.011302,0.000023,1,0,0,0,0,0,0,0.046224,-0.027206,-0.000630,1,0,0,0,0,0,0
0.220000,0.000402,0.015318,0.000004,1,0,0,0,0,0,0,-0.005036,-0.012733,0.000029,1,0,0,0,0,0,0,0.048177,-0.028374,-0.000685,1,0,0,0,0,0,0
0.230000,0.000429,0.017019,0.000004,1,0,0,0,0,0,0,-0.005787,-0.014213,0.000037,1,0,0,0,0,0,0,0.049979,-0.029453,-0.000738,1,0,0,0,0,0,0
0.240000,0.000456,0.018712,0.000005,1,0,0,0,0,0,0,-0.006583,-0.015714,0.000047,1,0,0,0,0,0,0,0.051624,-0.030441,-0.000788,1,0,0,0,0,0,0
0.250000,0.000482,0.020355,0.000006,1,0,0,0,0,0,0,-0.007410,-0.017203,0.000057,1,0,0,0,0,0,0,0.053105,-0.031334,-0.000835,1,0,0,0,0,0,0
0.260000,0.000507,0.021910,0.000007,1,0,0,0,0,0,0,-0.008264,-0.018664,0.000069,1,0,0,0,0,0,0,0.054417,-0.032127,-0.000877,1,0,0,0,0,0,0
0.270000,0.000532,0.023377,0.000007,1,0,0,0,0,0,0,-0.009144,-0.020087,0.000082,1,0,0,0,0,0,0,0.055551,-0.032818,-0.000915,1,0,0,0,0,0,0
0.280000,0.000556,0.024772,0.000008,1,0,0,0,0,0,0,-0.010045,-0.021459,0.000096,1,0,0,0,0,0,0,0.056503,-0.033401,-0.000947,1,0,0,0,0,0,0
0.290000,0.000579,0.026100,0.000009,1,0,0,0,0,0,0,-0.010956,-0.022762,0.000110,1,0,0,0,0,0,0,0.057267,-0.033875,-0.000974,1,0,0,0,0,0,0
0.300000,0.000601,0.027370,0.000009,1,0,0,0,0,0,0,-0.011859,-0.023972,0.000125,1,0,0,0,0,0,0,0.057843,-0.034238,-0.000995,1,0,0,0,0,0,0
0.310000,0.000622,0.028581,0.000010,1,0,0,0,0,0,0,-0.012738,-0.025073,0.000139,1,0,0,0,0,0,0,0.058231,-0.034491,-0.001009,1,0,0,0,0,0,0
0.320000,0.000642,0.029720,0.000011,1,0,0,0,0,0,0,-0.013587,-0.026053,0.000153,1,0,0,0,0,0,0,0.058432,-0.034635,-0.001018,1,0,0,0,0,0,0
0.330000,0.000660,0.030766,0.000011,1,0,0,0,0,0,0,-0.014400,-0.026905,0.000166,1,0,0,0,0,0,0,0.058451,-0.034671,-0.001019,1,0,0,0,0,0,0
0.340000,0.000678,0.031699,0.000012,1,0,0,0,0,0,0,-0.015175,-0.027623,0.000178,1,0,0,0,0,0,0,0.058290,-0.034602,-0.001015,1,0,0,0,0,0,0
0.350000,0.000694,0.032507,0.000012,1,0,0,0,0,0,0,-0.015917,-0.028203,0.000189,1,0,0,0,0,0,0,0.057957,-0.034431,-0.001005,1,0,0,0,0,0,0
0.360000,0.000710,0.033180,0.000013,1,0,0,0,0,0,0,-0.016632,-0.028640,0.000198,1,0,0,0,0,0,0,0.057463,-0.034166,-0.000989,1,0,0,0,0,0,0
0.370000,0.000724,0.033714,0.000013,1,0,0,0,0,0,0,-0.017317,-0.028930,0.000205,1,0,0,0,0,0,0,0.056819,-0.033812,-0.000968,1,0,0,0,0,0,0
0.380000,0.000736,0.034102,0.000013,1,0,0,0,0,0,0,-0.017964,-0.029068,0.000210,1,0,0,0,0,0,0,0.056038,-0.033377,-0.000943,1,0,0,0,0,0,0
0.390000,0.000748,0.034330,0.000013,1,0,0,0,0,0,0,-0.018569,-0.029053,0.000213,1,0,0,0,0,0,0,0.055131,-0.032866,-0.000914,1,0,0,0,0,0,0
0.400000,0.000758,0.034394,0.000013,1,0,0,0,0,0,0,-0.019124,-0.028884,0.000213,1,0,0,0,0,0,0,0.054109,-0.032287,-0.000882,1,0,0,0,0,0,0
0.410000,0.000767,0.034296,0.000013,1,0,0,0,0,0,0,-0.019624,-0.028563,0.000210,1,0,0,0,0,0,0,0.052985,-0.031647,-0.000847,1,0,0,0,0,0,0
0.420000,0.000775,0.034037,0.000013,1,0,0,0,0,0,0,-0.020067,-0.028094,0.000205,1,0,0,0,0,0,0,0.051771,-0.030954,-0.000810,1,0,0,0,0,0,0
0.430000,0.000782,0.033625,0.000013,1,0,0,0,0,0,0,-0.020447,-0.027478,0.000197,1,0,0,0,0,0,0,0.050480,-0.030213,-0.000772,1,0,0,0,0,0,0
0.440000,0.000787,0.033060,0.000012,1,0,0,0,0,0,0,-0.020758,-0.026725,0.000186,1,0,0,0,0,0,0,0.049121,-0.029431,-0.000732,1,0,0,0,0,0,0
0.450000,0.000791,0.032348,0.000012,1,0,0,0,0,0,0,-0.020994,-0.025844,0.000173,1,0,0,0,0,0,0,0.047704,-0.028615,-0.000692,1,0,0,0,0,0,0
0.460000,0.000794,0.031494,0.000011,1,0,0,0,0,0,0,-0.021154,-0.024837,0.000158,1,0,0,0,0,0,0,0.046244,-0.027771,-0.000652,1,0,0,0,0,0,0
0.470000,0.000795,0.030503,0.000010,1,0,0,0,0,0,0,-0.021235,-0.023710,0.000140,1,0,0,0,0,0,0,0.044757,-0.026910,-0.000612,1,0,0,0,0,0,0
0.480000,0.000796,0.029386,0.000010,1,0,0,0,0,0,0,-0.021237,-0.022467,0.000120,1,0,0,0,0,0,0,0.043257,-0.026039,-0.000573,1,0,0,0,0,0,0
0.490000,0.000795,0.028152,0.000009,1,0,0,0,0,0,0,-0.021161,-0.021107,0.000098,1,0,0,0,0,0,0,0.041753,-0.025165,-0.000535,1,0,0,0,0,0,0
0.500000,0.000792,0.026814,0.000008,1,0,0,0,0,0,0,-0.021005,-0.019632,0.000074,1,0,0,0,0,0,0,0.040257,-0.024294,-0.000499,1,0,0,0,0,0,0
0.510000,0.000788,0.025381,0.000007,1,0,0,0,0,0,0,-0.020770,-0.018053,0.000049,1,0,0,0,0,0,0,0.038775,-0.023430,-0.000464,1,0,0,0,0,0,0
0.520000,0.000782,0.023866,0.000006,1,0,0,0,0,0,0,-0.020455,-0.016383,0.000022,1,0,0,0,0,0,0,0.037314,-0.022577,-0.000431,1,0,0,0,0,0,0
0.530000,0.000774,0.022280,0.000005,1,0,0,0,0,0,0,-0.020060,-0.014641,-0.000004,1,0,0,0,0,0,0,0.035883,-0.021741,-0.000400,1,0,0,0,0,0,0
0.540000,0.000764,0.020636,0.000004,1,0,0,0,0,0,0,-0.019588,-0.012838,-0.000031,1,0,0,0,0,0,0,0.034489,-0.020925,-0.000370,1,0,0,0,0,0,0
0.550000,0.000751,0.018947,0.000003,1,0,0,0,0,0,0,-0.019042,-0.010986,-0.000058,1,0,0,0,0,0,0,0.033139,-0.020134,-0.000343,1,0,0,0,0,0,0
0.560000,0.000734,0.017223,0.000002,1,0,0,0,0,0,0,-0.018428,-0.009100,-0.000084,1,0,0,0,0,0,0,0.031844,-0.019376,-0.000318,1,0,0,0,0,0,0
0.570000,0.000712,0.015482,0.000001,1,0,0,0,0,0,0,-0.017752,-0.007203,-0.000108,1,0,0,0,0,0,0,0.030615,-0.018657,-0.000295,1,0,0,0,0,0,0
0.580000,0.000683,0.013740,-0.000000,1,0,0,0,0,0,0,-0.017022,-0.005320,-0.000131,1,0,0,0,0,0,0,0.029463,-0.017985,-0.000274,1,0,0,0,0,0,0
0.590000,0.000646,0.012016,-0.000001,1,0,0,0,0,0,0,-0.016243,-0.003475,-0.000151,1,0,0,0,0,0,0,0.028401,-0.017367,-0.000255,1,0,0,0,0,0,0
0.600000,0.000599,0.010334,-0.000002,1,0,0,0,0,0,0,-0.015420,-0.001667,-0.000169,1,0,0,0,0,0,0,0.027437,-0.016811,-0.000239,1,0,0,0,0,0,0
0.610000,0.000537,0.008722,-0.000002,1,0,0,0,0,0,0,-0.014557,0.000114,-0.000185,1,0,0,0,0,0,0,0.026580,-0.016323,-0.000226,1,0,0,0,0,0,0
0.620000,0.000456,0.007215,-0.000003,1,0,0,0,0,0,0,-0.013665,0.001865,-0.000199,1,0,0,0,0,0,0,0.025836,-0.015908,-0.000214,1,0,0,0,0,0,0
0.630000,0.000351,0.005857,-0.000003,1,0,0,0,0,0,0,-0.012753,0.003580,-0.000211,1,0,0,0,0,0,0,0.025208,-0.015570,-0.000205,1,0,0,0,0,0,0
0.640000,0.000216,0.004697,-0.000003,1,0,0,0,0,0,0,-0.011832,0.005249,-0.000220,1,0,0,0,0,0,0,0.024697,-0.015312,-0.000198,1,0,0,0,0,0,0
0.650000,0.000045,0.003785,-0.000003,1,0,0,0,0,0,0,-0.010913,0.006863,-0.000227,1,0,0,0,0,0,0,0.024300,-0.015133,-0.000193,1,0,0,0,0,0,0
0.660000,-0.000166,0.003160,-0.000003,1,0,0,0,0,0,0,-0.010007,0.008417,-0.000232,1,0,0,0,0,0,0,0.024013,-0.015033,-0.000190,1,0,0,0,0,0,0
0.670000,-0.000417,0.002840,-0.000003,1,0,0,0,0,0,0,-0.009129,0.009904,-0.000235,1,0,0,0,0,0,0,0.023833,-0.015008,-0.000189,1,0,0,0,0,0,0
0.680000,-0.000705,0.002816,-0.000003,1,0,0,0,0,0,0,-0.008294,0.011318,-0.000236,1,0,0,0,0,0,0,0.023757,-0.015056,-0.000190,1,0,0,0,0,0,0
0.690000,-0.001029,0.003091,-0.000003,1,0,0,0,0,0,0,-0.007524,0.012654,-0.000235,1,0,0,0,0,0,0,0.023785,-0.015176,-0.000192,1,0,0,0,0,0,0
0.700000,-0.001384,0.003625,-0.000003,1,0,0,0,0,0,0,-0.006844,0.013905,-0.000233,1,0,0,0,0,0,0,0.023920,-0.015366,-0.000196,1,0,0,0,0,0,0
0.710000,-0.001750,0.004320,-0.000004,1,0,0,0,0,0,0,-0.006290,0.015064,-0.000229,1,0,0,0,0,0,0,0.024166,-0.015625,-0.000201,1,0,0,0,0,0,0
0.720000,-0.002109,0.005062,-0.000006,1,0,0,0,0,0,0,-0.005907,0.016123,-0.000225,1,0,0,0,0,0,0,0.024528,-0.015950,-0.000208,1,0,0,0,0,0,0
0.730000,-0.002448,0.005776,-0.000007,1,0,0,0,0,0,0,-0.005751,0.017071,-0.000220,1,0,0,0,0,0,0,0.025013,-0.016340,-0.000217,1,0,0,0,0,0,0
0.740000,-0.002763,0.006431,-0.000009,1,0,0,0,0,0,0,-0.005882,0.017897,-0.000214,1,0,0,0,0,0,0,0.025628,-0.016794,-0.000228,1,0,0,0,0,0,0
0.750000,-0.003052,0.007027,-0.000011,1,0,0,0,0,0,0,-0.006346,0.018593,-0.000208,1,0,0,0,0,0,0,0.026382,-0.017314,-0.000241,1,0,0,0,0,0,0
0.760000,-0.003322,0.007595,-0.000012,1,0,0,0,0,0,0,-0.007152,0.019154,-0.000203,1,0,0,0,0,0,0,0.027286,-0.017901,-0.000256,1,0,0,0,0,0,0
0.770000,-0.003582,0.008202,-0.000015,1,0,0,0,0,0,0,-0.008258,0.019582,-0.000198,1,0,0,0,0,0,0,0.028348,-0.018558,-0.000273,1,0,0,0,0,0,0
0.780000,-0.003837,0.008888,-0.000017,1,0,0,0,0,0,0,-0.009611,0.019880,-0.000193,1,0,0,0,0,0,0,0.029572,-0.019286,-0.000294,1,0,0,0,0,0,0
0.790000,-0.004087,0.009658,-0.000020,1,0,0,0,0,0,0,-0.011204,0.020043,-0.000188,1,0,0,0,0,0,0,0.030956,-0.020085,-0.000317,1,0,0,0,0,0,0
0.800000,-0.004332,0.010516,-0.000024,1,0,0,0,0,0,0,-0.012961,0.020076,-0.000183,1,0,0,0,0,0,0,0.032491,-0.020953,-0.000344,1,0,0,0,0,0,0
0.810000,-0.004568,0.011457,-0.000028,1,0,0,0,0,0,0,-0.014751,0.019991,-0.000178,1,0,0,0,0,0,0,0.034162,-0.021883,-0.000375,1,0,0,0,0,0,0
0.820000,-0.004792,0.012470,-0.000033,1,0,0,0,0,0,0,-0.016443,0.019812,-0.000173,1,0,0,0,0,0,0,0.035949,-0.022868,-0.000409,1,0,0,0,0,0,0
0.830000,-0.004995,0.013522,-0.000038,1,0,0,0,0,0,0,-0.017966,0.019554,-0.000167,1,0,0,0,0,0,0,0.037825,-0.023897,-0.000447,1,0,0,0,0,0,0
0.840000,-0.005173,0.014567,-0.000043,1,0,0,0,0,0,0,-0.019300,0.019229,-0.000161,1,0,0,0,0,0,0,0.039763,-0.024957,-0.000489,1,0,0,0,0,0,0
0.850000,-0.005320,0.015575,-0.000048,1,0,0,0,0,0,0,-0.020484,0.018831,-0.000154,1,0,0,0,0,0,0,0.041733,-0.026037,-0.000533,1,0,0,0,0,0,0
0.860000,-0.005438,0.016520,-0.000052,1,0,0,0,0,0,0,-0.021622,0.018333,-0.000145,1,0,0,0,0,0,0,0.043706,-0.027124,-0.000580,1,0,0,0,0,0,0
0.870000,-0.005525,0.017404,-0.000057,1,0,0,0,0,0,0,-0.022708,0.017737,-0.000135,1,0,0,0,0,0,0,0.045656,-0.028207,-0.000629,1,0,0,0,0,0,0
0.880000,-0.005584,0.018221,-0.000061,1,0,0,0,0,0,0,-0.023782,0.017025,-0.000122,1,0,0,0,0,0,0,0.047567,-0.029276,-0.000680,1,0,0,0,0,0,0
0.890000,-0.005616,0.018966,-0.000064,1,0,0,0,0,0,0,-0.024851,0.016190,-0.000106,1,0,0,0,0,0,0,0.049431,-0.030331,-0.000732,1,0,0,0,0,0,0
0.900000,-0.005622,0.019642,-0.000068,1,0,0,0,0,0,0,-0.025932,0.015215,-0.000086,1,0,0,0,0,0,0,0.051255,-0.031373,-0.000785,1,0,0,0,0,0,0
0.910000,-0.005604,0.020261,-0.000070,1,0,0,0,0,0,0,-0.027049,0.014072,-0.000062,1,0,0,0,0,0,0,0.053049,-0.032410,-0.000840,1,0,0,0,0,0,0
0.920000,-0.005563,0.020843,-0.000073,1,0,0,0,0,0,0,-0.028158,0.012779,-0.000034,1,0,0,0,0,0,0,0.054827,-0.033448,-0.000897,1,0,0,0,0,0,0
0.930000,-0.005502,0.021410,-0.000075,1,0,0,0,0,0,0,-0.029233,0.011344,-0.000001,1,0,0,0,0,0,0,0.056600,-0.034493,-0.000957,1,0,0,0,0,0,0
0.940000,-0.005424,0.021995,-0.000077,1,0,0,0,0,0,0,-0.030248,0.009787,0.000036,1,0,0,0,0,0,0,0.058370,-0.035546,-0.001019,1,0,0,0,0,0,0
0.950000,-0.005331,0.022627,-0.000080,1,0,0,0,0,0,0,-0.031165,0.008148,0.000076,1,0,0,0,0,0,0,0.060137,-0.036609,-0.001083,1,0,0,0,0,0,0
0.960000,-0.005226,0.023330,-0.000082,1,0,0,0,0,0,0,-0.031951,0.006479,0.000117,1,0,0,0,0,0,0,0.061894,-0.037676,-0.001149,1,0,0,0,0,0,0
0.970000,-0.005109,0.024113,-0.000085,1,0,0,0,0,0,0,-0.032591,0.004813,0.000158,1,0,0,0,0,0,0,0.063636,-0.038744,-0.001217,1,0,0,0,0,0,0
0.980000,-0.004982,0.024979,-0.000088,1,0,0,0,0,0,0,-0.033079,0.003160,0.000199,1,0,0,0,0,0,0,0.065359,-0.039809,-0.001287,1,0,0,0,0,0,0
0.990000,-0.004842,0.025925,-0.000091,1,0,0,0,0,0,0,-0.033417,0.001532,0.000238,1,0,0,0,0,0,0,0.067064,-0.040870,-0.001358,1,0,0,0,0,0,0
1.000000,-0.004690,0.026943,-0.000095,1,0,0,0,0,0,0,-0.033605,-0.000066,0.000276,1,0,0,0,0,0,0,0.068745,-0.041921,-0.001431,1,0,0,0,0,0,0
1.010000,-0.004525,0.028005,-0.000098,1,0,0,0,0,0,0,-0.033647,-0.001633,0.000313,1,0,0,0,0,0,0,0.070399,-0.042957,-0.001503,1,0,0,0,0,0,0
1.020000,-0.004344,0.029071,-0.000100,1,0,0,0,0,0,0,-0.033552,-0.003178,0.000348,1,0,0,0,0,0,0,0.072038,-0.043985,-0.001577,1,0,0,0,0,0,0
1.030000,-0.004148,0.030090,-0.000103,1,0,0,0,0,0,0,-0.033327,-0.004714,0.000382,1,0,0,0,0,0,0,0.073645,-0.044994,-0.001652,1,0,0,0,0,0,0
1.040000,-0.003941,0.031024,-0.000104,1,0,0,0,0,0,0,-0.032986,-0.006265,0.000416,1,0,0,0,0,0,0,0.075200,-0.045975,-0.001725,1,0,0,0,0,0,0
1.050000,-0.003726,0.031865,-0.000105,1,0,0,0,0,0,0,-0.032545,-0.007863,0.000450,1,0,0,0,0,0,0,0.076691,-0.046922,-0.001798,1,0,0,0,0,0,0
1.060000,-0.003509,0.032628,-0.000105,1,0,0,0,0,0,0,-0.032020,-0.009530,0.000485,1,0,0,0,0,0,0,0.078112,-0.047835,-0.001869,1,0,0,0,0,0,0
1.070000,-0.003299,0.033357,-0.000105,1,0,0,0,0,0,0,-0.031424,-0.011262,0.000520,1,0,0,0,0,0,0,0.079467,-0.048719,-0.001939,1,0,0,0,0,0,0
1.080000,-0.003103,0.034083,-0.000104,1,0,0,0,0,0,0,-0.030796,-0.013035,0.000555,1,0,0,0,0,0,0,0.080755,-0.049575,-0.002007,1,0,0,0,0,0,0
1.090000,-0.002926,0.034831,-0.000103,1,0,0,0,0,0,0,-0.030146,-0.014841,0.000589,1,0,0,0,0,0,0,0.081968,-0.050400,-0.002074,1,0,0,0,0,0,0
1.100000,-0.002772,0.035615,-0.000103,1,0,0,0,0,0,0,-0.029460,-0.016651,0.000622,1,0,0,0,0,0,0,0.083090,-0.051183,-0.002139,1,0,0,0,0,0,0
1.110000,-0.002647,0.036446,-0.000102,1,0,0,0,0,0,0,-0.028730,-0.018435,0.000651,1,0,0,0,0,0,0,0.084099,-0.051910,-0.002199,1,0,0,0,0,0,0
1.120000,-0.002554,0.037335,-0.000101,1,0,0,0,0,0,0,-0.027950,-0.020158,0.000677,1,0,0,0,0,0,0,0.084974,-0.052564,-0.002254,1,0,0,0,0,0,0
1.130000,-0.002494,0.038280,-0.000100,1,0,0,0,0,0,0,-0.027118,-0.021801,0.000699,1,0,0,0,0,0,0,0.085704,-0.053135,-0.002302,1,0,0,0,0,0,0
1.140000,-0.002467,0.039270,-0.000099,1,0,0,0,0,0,0,-0.026226,-0.023382,0.000718,1,0,0,0,0,0,0,0.086288,-0.053615,-0.002342,1,0,0,0,0,0,0
1.150000,-0.002469,0.040299,-0.000099,1,0,0,0,0,0,0,-0.025266,-0.024911,0.000733,1,0,0,0,0,0,0,0.086737,-0.054003,-0.002374,1,0,0,0,0,0,0
1.160000,-0.002492,0.041326,-0.000098,1,0,0,0,0,0,0,-0.024239,-0.026370,0.000744,1,0,0,0,0,0,0,0.087065,-0.054304,-0.002399,1,0,0,0,0,0,0
1.170000,-0.002515,0.042251,-0.000098,1,0,0,0,0,0,0,-0.023153,-0.027743,0.000751,1,0,0,0,0,0,0,0.087287,-0.054520,-0.002416,1,0,0,0,0,0,0
1.180000,-0.002528,0.043025,-0.000097,1,0,0,0,0,0,0,-0.022014,-0.029022,0.000755,1,0,0,0,0,0,0,0.087416,-0.054655,-0.002426,1,0,0,0,0,0,0
1.190000,-0.002529,0.043638,-0.000096,1,0,0,0,0,0,0,-0.020829,-0.030200,0.000754,1,0,0,0,0,0,0,0.087465,-0.054718,-0.002429,1,0,0,0,0,0,0
1.200000,-0.002517,0.044083,-0.000094,1,0,0,0,0,0,0,-0.019611,-0.031262,0.000749,1,0,0,0,0,0,0,0.087449,-0.054715,-0.002427,1,0,0,0,0,0,0
1.210000,-0.002501,0.044399,-0.000093,1,0,0,0,0,0,0,-0.018367,-0.032202,0.000741,1,0,0,0,0,0,0,0.087372,-0.054652,-0.002419,1,0,0,0,0,0,0
1.220000,-0.002488,0.044634,-0.000091,1,0,0,0,0,0,0,-0.017098,-0.033033,0.000729,1,0,0,0,0,0,0,0.087234,-0.054530,-0.002407,1,0,0,0,0,0,0
1.230000,-0.002481,0.044813,-0.000089,1,0,0,0,0,0,0,-0.015815,-0.033761,0.000714,1,0,0,0,0,0,0,0.087030,-0.054350,-0.002389,1,0,0,0,0,0,0
1.240000,-0.002481,0.044940,-0.000088,1,0,0,0,0,0,0,-0.014531,-0.034391,0.000697,1,0,0,0,0,0,0,0.086752,-0.054112,-0.002367,1,0,0,0,0,0,0
1.250000,-0.002488,0.045014,-0.000086,1,0,0,0,0,0,0,-0.013260,-0.034920,0.000678,1,0,0,0,0,0,0,0.086392,-0.053813,-0.002340,1,0,0,0,0,0,0
1.260000,-0.002500,0.045030,-0.000084,1,0,0,0,0,0,0,-0.012018,-0.035346,0.000656,1,0,0,0,0,0,0,0.085935,-0.053449,-0.002308,1,0,0,0,0,0,0
1.270000,-0.002518,0.044986,-0.000082,1,0,0,0,0,0,0,-0.010816,-0.035667,0.000633,1,0,0,0,0,0,0,0.085367,-0.053017,-0.002270,1,0,0,0,0,0,0
1.280000,-0.002543,0.044883,-0.000080,1,0,0,0,0,0,0,-0.009671,-0.035884,0.000609,1,0,0,0,0,0,0,0.084677,-0.052513,-0.002226,1,0,0,0,0,0,0
1.290000,-0.002577,0.044731,-0.000078,1,0,0,0,0,0,0,-0.008603,-0.035996,0.000584,1,0,0,0,0,0,0,0.083857,-0.051937,-0.002177,1,0,0,0,0,0,0
1.300000,-0.002624,0.044539,-0.000077,1,0,0,0,0,0,0,-0.007641,-0.036007,0.000558,1,0,0,0,0,0,0,0.082908,-0.051293,-0.002123,1,0,0,0,0,0,0
1.310000,-0.002688,0.044315,-0.000075,1,0,0,0,0,0,0,-0.006813,-0.035913,0.000532,1,0,0,0,0,0,0,0.081836,-0.050588,-0.002065,1,0,0,0,0,0,0
1.320000,-0.002769,0.044062,-0.000073,1,0,0,0,0,0,0,-0.006133,-0.035709,0.000506,1,0,0,0,0,0,0,0.080653,-0.049830,-0.002004,1,0,0,0,0,0,0
1.330000,-0.002871,0.043781,-0.000072,1,0,0,0,0,0,0,-0.005590,-0.035393,0.000480,1,0,0,0,0,0,0,0.079371,-0.049027,-0.001940,1,0,0,0,0,0,0
1.340000,-0.002994,0.043473,-0.000070,1,0,0,0,0,0,0,-0.005158,-0.034966,0.000454,1,0,0,0,0,0,0,0.078005,-0.048187,-0.001874,1,0,0,0,0,0,0
1.350000,-0.003140,0.043141,-0.000069,1,0,0,0,0,0,0,-0.004827,-0.034436,0.000429,1,0,0,0,0,0,0,0.076572,-0.047316,-0.001807,1,0,0,0,0,0,0
1.360000,-0.003313,0.042792,-0.000067,1,0,0,0,0,0,0,-0.004612,-0.033812,0.000405,1,0,0,0,0,0,0,0.075098,-0.046427,-0.001739,1,0,0,0,0,0,0
1.370000,-0.003517,0.042434,-0.000066,1,0,0,0,0,0,0,-0.004517,-0.033104,0.000382,1,0,0,0,0,0,0,0.073608,-0.045533,-0.001673,1,0,0,0,0,0,0
1.380000,-0.003755,0.042071,-0.000065,1,0,0,0,0,0,0,-0.004545,-0.032320,0.000359,1,0,0,0,0,0,0,0.072119,-0.044639,-0.001608,1,0,0,0,0,0,0
1.390000,-0.004029,0.041700,-0.000064,1,0,0,0,0,0,0,-0.004725,-0.031472,0.000337,1,0,0,0,0,0,0,0.070646,-0.043752,-0.001544,1,0,0,0,0,0,0
1.400000,-0.004336,0.041302,-0.000064,1,0,0,0,0,0,0,-0.005061,-0.030564,0.000316,1,0,0,0,0,0,0,0.069195,-0.042874,-0.001483,1,0,0,0,0,0,0
1.410000,-0.004671,0.040867,-0.000063,1,0,0,0,0,0,0,-0.005532,-0.029597,0.000296,1,0,0,0,0,0,0,0.067766,-0.042004,-0.001423,1,0,0,0,0,0,0
1.420000,-0.005023,0.040364,-0.000063,1,0,0,0,0,0,0,-0.006130,-0.028572,0.000277,1,0,0,0,0,0,0,0.066361,-0.041142,-0.001365,1,0,0,0,0,0,0
1.430000,-0.005373,0.039762,-0.000062,1,0,0,0,0,0,0,-0.006849,-0.027493,0.000258,1,0,0,0,0,0,0,0.064976,-0.040288,-0.001309,1,0,0,0,0,0,0
1.440000,-0.005705,0.039048,-0.000060,1,0,0,0,0,0,0,-0.007670,-0.026360,0.000239,1,0,0,0,0,0,0,0.063609,-0.039439,-0.001254,1,0,0,0,0,0,0
1.450000,-0.006013,0.038231,-0.000058,1,0,0,0,0,0,0,-0.008562,-0.025177,0.000220,1,0,0,0,0,0,0,0.062257,-0.038595,-0.001201,1,0,0,0,0,0,0
1.460000,-0.006291,0.037320,-0.000056,1,0,0,0,0,0,0,-0.009480,-0.023949,0.000201,1,0,0,0,0,0,0,0.060922,-0.037755,-0.001149,1,0,0,0,0,0,0
1.470000,-0.006533,0.036327,-0.000053,1,0,0,0,0,0,0,-0.010376,-0.022679,0.000183,1,0,0,0,0,0,0,0.059602,-0.036918,-0.001099,1,0,0,0,0,0,0
1.480000,-0.006735,0.035261,-0.000050,1,0,0,0,0,0,0,-0.011223,-0.021374,0.000164,1,0,0,0,0,0,0,0.058302,-0.036087,-0.001050,1,0,0,0,0,0,0
1.490000,-0.006895,0.034128,-0.000046,1,0,0,0,0,0,0,-0.012030,-0.020040,0.000145,1,0,0,0,0,0,0,0.057025,-0.035263,-0.001002,1,0,0,0,0,0,0
1.500000,-0.007012,0.032956,-0.000042,1,0,0,0,0,0,0,-0.012816,-0.018686,0.000126,1,0,0,0,0,0,0,0.055778,-0.034448,-0.000956,1,0,0,0,0,0,0
1.510000,-0.007083,0.031767,-0.000038,1,0,0,0,0,0,0,-0.013592,-0.017322,0.000107,1,0,0,0,0,0,0,0.054568,-0.033647,-0.000912,1,0,0,0,0,0,0
1.520000,-0.007106,0.030571,-0.000034,1,0,0,0,0,0,0,-0.014373,-0.015955,0.000088,1,0,0,0,0,0,0,0.053397,-0.032862,-0.000870,1,0,0,0,0,0,0
1.530000,-0.007079,0.029364,-0.000030,1,0,0,0,0,0,0,-0.015167,-0.014594,0.000069,1,0,0,0,0,0,0,0.052263,-0.032092,-0.000830,1,0,0,0,0,0,0
1.540000,-0.007004,0.028140,-0.000026,1,0,0,0,0,0,0,-0.015975,-0.013246,0.000050,1,0,0,0,0,0,0,0.051165,-0.031338,-0.000791,1,0,0,0,0,0,0
1.550000,-0.006882,0.026884,-0.000021,1,0,0,0,0,0,0,-0.016789,-0.011911,0.000031,1,0,0,0,0,0,0,0.050114,-0.030605,-0.000755,1,0,0,0,0,0,0
1.560000,-0.006719,0.025585,-0.000017,1,0,0,0,0,0,0,-0.017598,-0.010591,0.000012,1,0,0,0,0,0,0,0.049115,-0.029898,-0.000720,1,0,0,0,0,0,0
1.570000,-0.006522,0.024239,-0.000012,1,0,0,0,0,0,0,-0.018394,-0.009281,-0.000007,1,0,0,0,0,0,0,0.048172,-0.029218,-0.000688,1,0,0,0,0,0,0
1.580000,-0.006295,0.022858,-0.000007,1,0,0,0,0,0,0,-0.019166,-0.007978,-0.000026,1,0,0,0,0,0,0,0.047290,-0.028566,-0.000658,1,0,0,0,0,0,0
1.590000,-0.006042,0.021459,-0.000003,1,0,0,0,0,0,0,-0.019905,-0.006671,-0.000046,1,0,0,0,0,0,0,0.046471,-0.027942,-0.000629,1,0,0,0,0,0,0
1.600000,-0.005768,0.020056,0.000002,1,0,0,0,0,0,0,-0.020603,-0.005350,-0.000066,1,0,0,0,0,0,0,0.045720,-0.027348,-0.000603,1,0,0,0,0,0,0
1.610000,-0.005476,0.018658,0.000006,1,0,0,0,0,0,0,-0.021246,-0.004000,-0.000087,1,0,0,0,0,0,0,0.045042,-0.026782,-0.000579,1,0,0,0,0,0,0
1.620000,-0.005167,0.017272,0.000010,1,0,0,0,0,0,0,-0.021819,-0.002606,-0.000110,1,0,0,0,0,0,0,0.044440,-0.026244,-0.000556,1,0,0,0,0,0,0
1.630000,-0.004845,0.015900,0.000014,1,0,0,0,0,0,0,-0.022302,-0.001159,-0.000134,1,0,0,0,0,0,0,0.043918,-0.025733,-0.000535,1,0,0,0,0,0,0
1.640000,-0.004509,0.014532,0.000017,1,0,0,0,0,0,0,-0.022684,0.000338,-0.000159,1,0,0,0,0,0,0,0.043479,-0.025249,-0.000515,1,0,0,0,0,0,0
1.650000,-0.004161,0.013158,0.000020,1,0,0,0,0,0,0,-0.022956,0.001875,-0.000185,1,0,0,0,0,0,0,0.043126,-0.024792,-0.000497,1,0,0,0,0,0,0
1.660000,-0.003803,0.011772,0.000022,1,0,0,0,0,0,0,-0.023121,0.003442,-0.000211,1,0,0,0,0,0,0,0.042865,-0.024368,-0.000481,1,0,0,0,0,0,0
1.670000,-0.003435,0.010376,0.000025,1,0,0,0,0,0,0,-0.023183,0.005028,-0.000238,1,0,0,0,0,0,0,0.042701,-0.023981,-0.000467,1,0,0,0,0,0,0
1.680000,-0.003055,0.008980,0.000027,1,0,0,0,0,0,0,-0.023151,0.006627,-0.000265,1,0,0,0,0,0,0,0.042642,-0.023639,-0.000455,1,0,0,0,0,0,0
1.690000,-0.002661,0.007584,0.000028,1,0,0,0,0,0,0,-0.023036,0.008231,-0.000291,1,0,0,0,0,0,0,0.042695,-0.023351,-0.000446,1,0,0,0,0,0,0
1.700000,-0.002252,0.006181,0.000029,1,0,0,0,0,0,0,-0.022852,0.009825,-0.000316,1,0,0,0,0,0,0,0.042861,-0.023123,-0.000439,1,0,0,0,0,0,0
1.710000,-0.001831,0.004774,0.000030,1,0,0,0,0,0,0,-0.022608,0.011383,-0.000339,1,0,0,0,0,0,0,0.043135,-0.022959,-0.000435,1,0,0,0,0,0,0
1.720000,-0.001399,0.003370,0.000030,1,0,0,0,0,0,0,-0.022313,0.012876,-0.000360,1,0,0,0,0,0,0,0.043500,-0.022857,-0.000434,1,0,0,0,0,0,0
1.730000,-0.000957,0.001985,0.000030,1,0,0,0,0,0,0,-0.021971,0.014283,-0.000379,1,0,0,0,0,0,0,0.043938,-0.022811,-0.000436,1,0,0,0,0,0,0
1.740000,-0.000507,0.000632,0.000029,1,0,0,0,0,0,0,-0.021582,0.015584,-0.000394,1,0,0,0,0,0,0,0.044429,-0.022816,-0.000440,1,0,0,0,0,0,0
1.750000,-0.000049,-0.000672,0.000027,1,0,0,0,0,0,0,-0.021143,0.016765,-0.000406,1,0,0,0,0,0,0,0.044959,-0.022869,-0.000446,1,0,0,0,0,0,0
1.760000,0.000417,-0.001908,0.000026,1,0,0,0,0,0,0,-0.020644,0.017813,-0.000414,1,0,0,0,0,0,0,0.045509,-0.022965,-0.000455,1,0,0,0,0,0,0
1.770000,0.000888,-0.003063,0.000023,1,0,0,0,0,0,0,-0.020075,0.018734,-0.000419,1,0,0,0,0,0,0,0.046065,-0.023101,-0.000465,1,0,0,0,0,0,0
1.780000,0.001366,-0.004120,0.000021,1,0,0,0,0,0,0,-0.019436,0.019534,-0.000421,1,0,0,0,0,0,0,0.046612,-0.023273,-0.000477,1,0,0,0,0,0,0
1.790000,0.001853,-0.005055,0.000018,1,0,0,0,0,0,0,-0.018733,0.020218,-0.000421,1,0,0,0,0,0,0,0.047138,-0.023478,-0.000491,1,0,0,0,0,0,0
1.800000,0.002353,-0.005850,0.000015,1,0,0,0,0,0,0,-0.017969,0.020781,-0.000417,1,0,0,0,0,0,0,0.047637,-0.023715,-0.000506,1,0,0,0,0,0,0
1.810000,0.002869,-0.006484,0.000012,1,0,0,0,0,0,0,-0.017145,0.021204,-0.000411,1,0,0,0,0,0,0,0.048112,-0.023989,-0.000522,1,0,0,0,0,0,0
1.820000,0.003406,-0.006936,0.000009,1,0,0,0,0,0,0,-0.016259,0.021470,-0.000401,1,0,0,0,0,0,0,0.048567,-0.024300,-0.000541,1,0,0,0,0,0,0
1.830000,0.003968,-0.007190,0.000007,1,0,0,0,0,0,0,-0.015312,0.021570,-0.000389,1,0,0,0,0,0,0,0.049009,-0.024652,-0.000561,1,0,0,0,0,0,0
1.840000,0.004559,-0.007237,0.000005,1,0,0,0,0,0,0,-0.014303,0.021493,-0.000375,1,0,0,0,0,0,0,0.049444,-0.025043,-0.000583,1,0,0,0,0,0,0
1.850000,0.005175,-0.007080,0.000005,1,0,0,0,0,0,0,-0.013236,0.021232,-0.000358,1,0,0,0,0,0,0,0.049874,-0.025471,-0.000607,1,0,0,0,0,0,0
1.860000,0.005813,-0.006728,0.000005,1,0,0,0,0,0,0,-0.012114,0.020784,-0.000339,1,0,0,0,0,0,0,0.050304,-0.025934,-0.000632,1,0,0,0,0,0,0
1.870000,0.006470,-0.006185,0.000007,1,0,0,0,0,0,0,-0.010948,0.020153,-0.000319,1,0,0,0,0,0,0,0.050743,-0.026431,-0.000659,1,0,0,0,0,0,0
1.880000,0.007144,-0.005453,0.000011,1,0,0,0,0,0,0,-0.009749,0.019359,-0.000298,1,0,0,0,0,0,0,0.051196,-0.026963,-0.000687,1,0,0,0,0,0,0
1.890000,0.007827,-0.004547,0.000016,1,0,0,0,0,0,0,-0.008532,0.018431,-0.000277,1,0,0,0,0,0,0,0.051663,-0.027523,-0.000716,1,0,0,0,0,0,0
1.900000,0.008511,-0.003495,0.000022,1,0,0,0,0,0,0,-0.007305,0.017389,-0.000257,1,0,0,0,0,0,0,0.052141,-0.028104,-0.000746,1,0,0,0,0,0,0
1.910000,0.009184,-0.002329,0.000031,1,0,0,0,0,0,0,-0.006074,0.016240,-0.000237,1,0,0,0,0,0,0,0.052628,-0.028701,-0.000777,1,0,0,0,0,0,0
1.920000,0.009834,-0.001090,0.000040,1,0,0,0,0,0,0,-0.004848,0.014999,-0.000219,1,0,0,0,0,0,0,0.053119,-0.029308,-0.000808,1,0,0,0,0,0,0
1.930000,0.010452,0.000182,0.000050,1,0,0,0,0,0,0,-0.003633,0.013685,-0.000202,1,0,0,0,0,0,0,0.053612,-0.029919,-0.000839,1,0,0,0,0,0,0
1.940000,0.011029,0.001458,0.000061,1,0,0,0,0,0,0,-0.002435,0.012311,-0.000187,1,0,0,0,0,0,0,0.054096,-0.030526,-0.000870,1,0,0,0,0,0,0
1.950000,0.011561,0.002719,0.000072,1,0,0,0,0,0,0,-0.001261,0.010879,-0.000174,1,0,0,0,0,0,0,0.054560,-0.031119,-0.000900,1,0,0,0,0,0,0
1.960000,0.012046,0.003961,0.000084,1,0,0,0,0,0,0,-0.000117,0.009378,-0.000163,1,0,0,0,0,0,0,0.054995,-0.031692,-0.000928,1,0,0,0,0,0,0
1.970000,0.012490,0.005209,0.000095,1,0,0,0,0,0,0,0.000990,0.007802,-0.000153,1,0,0,0,0,0,0,0.055388,-0.032236,-0.000955,1,0,0,0,0,0,0
1.980000,0.012892,0.006472,0.000108,1,0,0,0,0,0,0,0.002049,0.006151,-0.000146,1,0,0,0,0,0,0,0.055727,-0.032743,-0.000980,1,0,0,0,0,0,0
1.990000,0.013245,0.007729,0.000120,1,0,0,0,0,0,0,0.003049,0.004422,-0.000141,1,0,0,0,0,0,0,0.056004,-0.033207,-0.001002,1,0,0,0,0,0,0
2.000000,0.013542,0.008959,0.000133,1,0,0,0,0,0,0,0.003977,0.002615,-0.000139,1,0,0,0,0,0,0,0.056214,-0.033625,-0.001021,1,0,0,0,0,0,0
2.010000,0.013766,0.010152,0.000145,1,0,0,0,0,0,0,0.004810,0.000707,-0.000138,1,0,0,0,0,0,0,0.056324,-0.033976,-0.001037,1,0,0,0,0,0,0
2.020000,0.013880,0.011304,0.000156,1,0,0,0,0,0,0,0.005503,-0.001340,-0.000140,1,0,0,0,0,0,0,0.056235,-0.034200,-0.001045,1,0,0,0,0,0,0
2.030000,0.013872,0.012410,0.000167,1,0,0,0,0,0,0,0.006042,-0.003495,-0.000144,1,0,0,0,0,0,0,0.055940,-0.034288,-0.001045,1,0,0,0,0,0,0
2.040000,0.013744,0.013479,0.000177,1,0,0,0,0,0,0,0.006424,-0.005702,-0.000150,1,0,0,0,0,0,0,0.055475,-0.034256,-0.001038,1,0,0,0,0,0,0
2.050000,0.013504,0.014526,0.000186,1,0,0,0,0,0,0,0.006655,-0.007902,-0.000156,1,0,0,0,0,0,0,0.054882,-0.034127,-0.001026,1,0,0,0,0,0,0
2.060000,0.013163,0.015564,0.000195,1,0,0,0,0,0,0,0.006741,-0.010041,-0.000163,1,0,0,0,0,0,0,0.054199,-0.033922,-0.001009,1,0,0,0,0,0,0
2.070000,0.012735,0.016595,0.000203,1,0,0,0,0,0,0,0.006691,-0.012073,-0.000169,1,0,0,0,0,0,0,0.053460,-0.033658,-0.000990,1,0,0,0,0,0,0
2.080000,0.012234,0.017610,0.000210,1,0,0,0,0,0,0,0.006514,-0.013964,-0.000173,1,0,0,0,0,0,0,0.052697,-0.033355,-0.000968,1,0,0,0,0,0,0
2.090000,0.011672,0.018590,0.000216,1,0,0,0,0,0,0,0.006217,-0.015696,-0.000177,1,0,0,0,0,0,0,0.051940,-0.033030,-0.000946,1,0,0,0,0,0,0
2.100000,0.011056,0.019516,0.000220,1,0,0,0,0,0,0,0.005798,-0.017270,-0.000179,1,0,0,0,0,0,0,0.051224,-0.032701,-0.000923,1,0,0,0,0,0,0
2.110000,0.010393,0.020385,0.000223,1,0,0,0,0,0,0,0.005261,-0.018696,-0.000179,1,0,0,0,0,0,0,0.050591,-0.032389,-0.000902,1,0,0,0,0,0,0
2.120000,0.009687,0.021184,0.000224,1,0,0,0,0,0,0,0.004615,-0.019987,-0.000177,1,0,0,0,0,0,0,0.050084,-0.032113,-0.000883,1,0,0,0,0,0,0
2.130000,0.008941,0.021899,0.000224,1,0,0,0,0,0,0,0.003871,-0.021159,-0.000175,1,0,0,0,0,0,0,0.049745,-0.031892,-0.000868,1,0,0,0,0,0,0
2.140000,0.008158,0.022524,0.000222,1,0,0,0,0,0,0,0.003043,-0.022222,-0.000170,1,0,0,0,0,0,0,0.049615,-0.031741,-0.000855,1,0,0,0,0,0,0
2.150000,0.007328,0.023080,0.000218,1,0,0,0,0,0,0,0.002150,-0.023186,-0.000165,1,0,0,0,0,0,0,0.049735,-0.031683,-0.000848,1,0,0,0,0,0,0
2.160000,0.006445,0.023568,0.000214,1,0,0,0,0,0,0,0.001215,-0.024054,-0.000158,1,0,0,0,0,0,0,0.050149,-0.031742,-0.000847,1,0,0,0,0,0,0
2.170000,0.005506,0.023975,0.000208,1,0,0,0,0,0,0,0.000260,-0.024827,-0.000150,1,0,0,0,0,0,0,0.050901,-0.031952,-0.000855,1,0,0,0,0,0,0
2.180000,0.004514,0.024297,0.000201,1,0,0,0,0,0,0,-0.000699,-0.025505,-0.000141,1,0,0,0,0,0,0,0.052030,-0.032352,-0.000873,1,0,0,0,0,0,0
2.190000,0.003473,0.024546,0.000194,1,0,0,0,0,0,0,-0.001654,-0.026092,-0.000132,1,0,0,0,0,0,0,0.053558,-0.032973,-0.000903,1,0,0,0,0,0,0
2.200000,0.002390,0.024748,0.000185,1,0,0,0,0,0,0,-0.002623,-0.026611,-0.000122,1,0,0,0,0,0,0,0.055487,-0.033844,-0.000949,1,0,0,0,0,0,0
2.210000,0.001271,0.024940,0.000176,1,0,0,0,0,0,0,-0.003607,-0.027076,-0.000111,1,0,0,0,0,0,0,0.057805,-0.034982,-0.001013,1,0,0,0,0,0,0
2.220000,0.000122,0.025162,0.000167,1,0,0,0,0,0,0,-0.004591,-0.027489,-0.000100,1,0,0,0,0,0,0,0.060492,-0.036399,-0.001096,1,0,0,0,0,0,0
2.230000,-0.001059,0.025472,0.000157,1,0,0,0,0,0,0,-0.005563,-0.027845,-0.000088,1,0,0,0,0,0,0,0.063523,-0.038096,-0.001202,1,0,0,0,0,0,0
2.240000,-0.002274,0.025927,0.000146,1,0,0,0,0,0,0,-0.006513,-0.028144,-0.000077,1,0,0,0,0,0,0,0.066874,-0.040066,-0.001331,1,0,0,0,0,0,0
2.250000,-0.003512,0.026554,0.000134,1,0,0,0,0,0,0,-0.007440,-0.028384,-0.000065,1,0,0,0,0,0,0,0.070534,-0.042298,-0.001484,1,0,0,0,0,0,0
2.260000,-0.004758,0.027360,0.000120,1,0,0,0,0,0,0,-0.008352,-0.028573,-0.000053,1,0,0,0,0,0,0,0.074522,-0.044787,-0.001666,1,0,0,0,0,0,0
2.270000,-0.006001,0.028369,0.000104,1,0,0,0,0,0,0,-0.009264,-0.028717,-0.000042,1,0,0,0,0,0,0,0.078879,-0.047540,-0.001877,1,0,0,0,0,0,0
2.280000,-0.007235,0.029641,0.000084,1,0,0,0,0,0,0,-0.010198,-0.028825,-0.000030,1,0,0,0,0,0,0,0.083622,-0.050550,-0.002122,1,0,0,0,0,0,0
2.290000,-0.008460,0.031315,0.000060,1,0,0,0,0,0,0,-0.011179,-0.028899,-0.000019,1,0,0,0,0,0,0,0.088696,-0.053779,-0.002401,1,0,0,0,0,0,0
2.300000,-0.009696,0.033650,0.000027,1,0,0,0,0,0,0,-0.012225,-0.028935,-0.000008,1,0,0,0,0,0,0,0.093970,-0.057155,-0.002709,1,0,0,0,0,0,0
2.310000,-0.010967,0.036962,-0.000019,1,0,0,0,0,0,0,-0.013356,-0.028929,0.000003,1,0,0,0,0,0,0,0.099277,-0.060596,-0.003042,1,0,0,0,0,0,0
2.320000,-0.012277,0.041410,-0.000081,1,0,0,0,0,0,0,-0.014603,-0.028888,0.000014,1,0,0,0,0,0,0,0.104481,-0.064035,-0.003392,1,0,0,0,0,0,0
2.330000,-0.013601,0.046946,-0.000164,1,0,0,0,0,0,0,-0.016007,-0.028827,0.000025,1,0,0,0,0,0,0,0.109517,-0.067435,-0.003755,1,0,0,0,0,0,0
2.340000,-0.014883,0.053393,-0.000265,1,0,0,0,0,0,0,-0.017595,-0.028766,0.000036,1,0,0,0,0,0,0,0.114366,-0.070773,-0.004127,1,0,0,0,0,0,0
2.350000,-0.016068,0.060506,-0.000384,1,0,0,0,0,0,0,-0.019355,-0.028723,0.000048,1,0,0,0,0,0,0,0.119010,-0.074018,-0.004504,1,0,0,0,0,0,0
2.360000,-0.017120,0.068163,-0.000518,1,0,0,0,0,0,0,-0.021280,-0.028722,0.000061,1,0,0,0,0,0,0,0.123423,-0.077143,-0.004880,1,0,0,0,0,0,0
2.370000,-0.018034,0.076305,-0.000666,1,0,0,0,0,0,0,-0.023391,-0.028790,0.000077,1,0,0,0,0,0,0,0.127604,-0.080143,-0.005253,1,0,0,0,0,0,0
2.380000,-0.018833,0.084661,-0.000823,1,0,0,0,0,0,0,-0.025727,-0.028941,0.000096,1,0,0,0,0,0,0,0.131582,-0.083034,-0.005623,1,0,0,0,0,0,0
2.390000,-0.019544,0.092862,-0.000981,1,0,0,0,0,0,0,-0.028304,-0.029144,0.000117,1,0,0,0,0,0,0,0.135391,-0.085822,-0.005990,1,0,0,0,0,0,0
2.400000,-0.020143,0.100762,-0.001135,1,0,0,0,0,0,0,-0.031151,-0.029342,0.000140,1,0,0,0,0,0,0,0.139045,-0.088486,-0.006350,1,0,0,0,0,0,0
2.410000,-0.020554,0.108521,-0.001288,1,0,0,0,0,0,0,-0.034373,-0.029474,0.000163,1,0,0,0,0,0,0,0.142561,-0.091000,-0.006696,1,0,0,0,0,0,0
2.420000,-0.020684,0.116439,-0.001444,1,0,0,0,0,0,0,-0.038070,-0.029480,0.000183,1,0,0,0,0,0,0,0.146006,-0.093363,-0.007029,1,0,0,0,0,0,0
2.430000,-0.020527,0.124553,-0.001600,1,0,0,0,0,0,0,-0.042242,-0.029354,0.000200,1,0,0,0,0,0,0,0.149483,-0.095601,-0.007352,1,0,0,0,0,0,0
2.440000,-0.020199,0.132570,-0.001748,1,0,0,0,0,0,0,-0.046874,-0.029173,0.000216,1,0,0,0,0,0,0,0.153056,-0.097733,-0.007667,1,0,0,0,0,0,0
2.450000,-0.019845,0.140173,-0.001879,1,0,0,0,0,0,0,-0.052014,-0.029076,0.000238,1,0,0,0,0,0,0,0.156705,-0.099745,-0.007972,1,0,0,0,0,0,0
2.460000,-0.019551,0.147082,-0.001990,1,0,0,0,0,0,0,-0.057730,-0.029237,0.000276,1,0,0,0,0,0,0,0.160348,-0.101613,-0.008263,1,0,0,0,0,0,0
2.470000,-0.019260,0.153203,-0.002080,1,0,0,0,0,0,0,-0.064146,-0.029853,0.000347,1,0,0,0,0,0,0,0.163911,-0.103321,-0.008536,1,0,0,0,0,0,0
2.480000,-0.018822,0.158664,-0.002151,1,0,0,0,0,0,0,-0.071401,-0.031123,0.000468,1,0,0,0,0,0,0,0.167349,-0.104859,-0.008791,1,0,0,0,0,0,0
2.490000,-0.018142,0.163672,-0.002207,1,0,0,0,0,0,0,-0.079382,-0.033123,0.000657,1,0,0,0,0,0,0,0.170619,-0.106194,-0.009019,1,0,0,0,0,0,0
2.500000,-0.017251,0.168355,-0.002250,1,0,0,0,0,0,0,-0.087664,-0.035755,0.000916,1,0,0,0,0,0,0,0.173675,-0.107280,-0.009211,1,0,0,0,0,0,0
2.510000,-0.016260,0.172670,-0.002277,1,0,0,0,0,0,0,-0.095848,-0.038949,0.001249,1,0,0,0,0,0,0,0.176494,-0.108086,-0.009361,1,0,0,0,0,0,0
2.520000,-0.015231,0.176486,-0.002288,1,0,0,0,0,0,0,-0.103541,-0.042699,0.001661,1,0,0,0,0,0,0,0.179081,-0.108619,-0.009467,1,0,0,0,0,0,0
2.530000,-0.014177,0.179690,-0.002282,1,0,0,0,0,0,0,-0.110228,-0.046652,0.002120,1,0,0,0,0,0,0,0.181427,-0.108896,-0.009533,1,0,0,0,0,0,0
2.540000,-0.013112,0.182273,-0.002259,1,0,0,0,0,0,0,-0.115866,-0.050367,0.002571,1,0,0,0,0,0,0,0.183440,-0.108915,-0.009557,1,0,0,0,0,0,0
2.550000,-0.012074,0.184390,-0.002224,1,0,0,0,0,0,0,-0.120851,-0.053776,0.003000,1,0,0,0,0,0,0,0.184954,-0.108650,-0.009533,1,0,0,0,0,0,0
2.560000,-0.011102,0.186303,-0.002182,1,0,0,0,0,0,0,-0.125702,-0.056958,0.003412,1,0,0,0,0,0,0,0.185796,-0.108083,-0.009457,1,0,0,0,0,0,0
2.570000,-0.010181,0.188210,-0.002135,1,0,0,0,0,0,0,-0.130672,-0.059878,0.003802,1,0,0,0,0,0,0,0.185850,-0.107224,-0.009330,1,0,0,0,0,0,0
2.580000,-0.009266,0.190130,-0.002084,1,0,0,0,0,0,0,-0.135519,-0.062412,0.004151,1,0,0,0,0,0,0,0.185094,-0.106122,-0.009161,1,0,0,0,0,0,0
2.590000,-0.008354,0.192022,-0.002029,1,0,0,0,0,0,0,-0.139977,-0.064493,0.004446,1,0,0,0,0,0,0,0.183575,-0.104858,-0.008964,1,0,0,0,0,0,0
2.600000,-0.007516,0.193908,-0.001971,1,0,0,0,0,0,0,-0.143837,-0.066194,0.004695,1,0,0,0,0,0,0,0.181380,-0.103528,-0.008759,1,0,0,0,0,0,0
2.610000,-0.006841,0.195926,-0.001911,1,0,0,0,0,0,0,-0.147105,-0.067717,0.004923,1,0,0,0,0,0,0,0.178590,-0.102221,-0.008560,1,0,0,0,0,0,0
2.620000,-0.006363,0.198201,-0.001852,1,0,0,0,0,0,0,-0.149959,-0.069284,0.005162,1,0,0,0,0,0,0,0.175252,-0.100999,-0.008378,1,0,0,0,0,0,0
2.630000,-0.006052,0.200653,-0.001793,1,0,0,0,0,0,0,-0.152514,-0.071004,0.005428,1,0,0,0,0,0,0,0.171389,-0.099882,-0.008214,1,0,0,0,0,0,0
2.640000,-0.005877,0.202968,-0.001735,1,0,0,0,0,0,0,-0.154679,-0.072793,0.005706,1,0,0,0,0,0,0,0.167026,-0.098857,-0.008064,1,0,0,0,0,0,0
2.650000,-0.005842,0.204772,-0.001676,1,0,0,0,0,0,0,-0.156321,-0.074509,0.005974,1,0,0,0,0,0,0,0.162238,-0.097899,-0.007921,1,0,0,0,0,0,0
2.660000,-0.005975,0.205769,-0.001615,1,0,0,0,0,0,0,-0.157420,-0.076057,0.006213,1,0,0,0,0,0,0,0.157139,-0.096974,-0.007779,1,0,0,0,0,0,0
2.670000,-0.006275,0.205745,-0.001552,1,0,0,0,0,0,0,-0.158132,-0.077413,0.006419,1,0,0,0,0,0,0,0.151829,-0.096040,-0.007630,1,0,0,0,0,0,0
2.680000,-0.006707,0.204603,-0.001487,1,0,0,0,0,0,0,-0.158695,-0.078586,0.006592,1,0,0,0,0,0,0,0.146367,-0.095052,-0.007467,1,0,0,0,0,0,0
2.690000,-0.007270,0.202441,-0.001420,1,0,0,0,0,0,0,-0.159286,-0.079575,0.006733,1,0,0,0,0,0,0,0.140774,-0.093978,-0.007287,1,0,0,0,0,0,0
2.700000,-0.007993,0.199514,-0.001353,1,0,0,0,0,0,0,-0.159890,-0.080342,0.006835,1,0,0,0,0,0,0,0.135074,-0.092799,-0.007088,1,0,0,0,0,0,0
2.710000,-0.008924,0.196095,-0.001286,1,0,0,0,0,0,0,-0.160364,-0.080857,0.006896,1,0,0,0,0,0,0,0.129300,-0.091499,-0.006870,1,0,0,0,0,0,0
2.720000,-0.010075,0.192359,-0.001221,1,0,0,0,0,0,0,-0.160717,-0.081165,0.006923,1,0,0,0,0,0,0,0.123475,-0.090035,-0.006631,1,0,0,0,0,0,0
2.730000,-0.011407,0.188280,-0.001157,1,0,0,0,0,0,0,-0.160991,-0.081313,0.006923,1,0,0,0,0,0,0,0.117623,-0.088345,-0.006366,1,0,0,0,0,0,0
2.740000,-0.012889,0.183705,-0.001091,1,0,0,0,0,0,0,-0.161304,-0.081294,0.006898,1,0,0,0,0,0,0,0.111791,-0.086374,-0.006071,1,0,0,0,0,0,0
2.750000,-0.014512,0.178488,-0.001019,1,0,0,0,0,0,0,-0.161756,-0.081015,0.006832,1,0,0,0,0,0,0,0.106078,-0.084105,-0.005750,1,0,0,0,0,0,0
2.760000,-0.016277,0.172611,-0.000938,1,0,0,0,0,0,0,-0.162385,-0.080364,0.006708,1,0,0,0,0,0,0,0.100591,-0.081547,-0.005409,1,0,0,0,0,0,0
2.770000,-0.018166,0.166212,-0.000849,1,0,0,0,0,0,0,-0.163170,-0.079317,0.006523,1,0,0,0,0,0,0,0.095377,-0.078718,-0.005052,1,0,0,0,0,0,0
2.780000,-0.020093,0.159523,-0.000754,1,0,0,0,0,0,0,-0.164049,-0.077996,0.006299,1,0,0,0,0,0,0,0.090415,-0.075626,-0.004686,1,0,0,0,0,0,0
2.790000,-0.021928,0.152791,-0.000657,1,0,0,0,0,0,0,-0.164904,-0.076602,0.006070,1,0,0,0,0,0,0,0.085642,-0.072291,-0.004314,1,0,0,0,0,0,0
2.800000,-0.023572,0.146216,-0.000561,1,0,0,0,0,0,0,-0.165659,-0.075306,0.005864,1,0,0,0,0,0,0,0.081005,-0.068760,-0.003943,1,0,0,0,0,0,0
2.810000,-0.025002,0.139889,-0.000472,1,0,0,0,0,0,0,-0.166262,-0.074186,0.005696,1,0,0,0,0,0,0,0.076465,-0.065097,-0.003582,1,0,0,0,0,0,0
2.820000,-0.026265,0.133793,-0.000387,1,0,0,0,0,0,0,-0.166609,-0.073217,0.005558,1,0,0,0,0,0,0,0.071992,-0.061370,-0.003236,1,0,0,0,0,0,0
2.830000,-0.027424,0.127869,-0.000306,1,0,0,0,0,0,0,-0.166633,-0.072358,0.005444,1,0,0,0,0,0,0,0.067561,-0.057644,-0.002911,1,0,0,0,0,0,0
2.840000,-0.028519,0.122081,-0.000227,1,0,0,0,0,0,0,-0.166256,-0.071579,0.005347,1,0,0,0,0,0,0,0.063177,-0.054000,-0.002612,1,0,0,0,0,0,0
2.850000,-0.029561,0.116496,-0.000153,1,0,0,0,0,0,0,-0.165329,-0.070809,0.005254,1,0,0,0,0,0,0,0.058902,-0.050546,-0.002343,1,0,0,0,0,0,0
2.860000,-0.030515,0.111173,-0.000085,1,0,0,0,0,0,0,-0.163757,-0.070010,0.005158,1,0,0,0,0,0,0,0.054837,-0.047404,-0.002110,1,0,0,0,0,0,0
2.870000,-0.031325,0.106226,-0.000026,1,0,0,0,0,0,0,-0.161482,-0.069122,0.005048,1,0,0,0,0,0,0,0.051083,-0.044677,-0.001915,1,0,0,0,0,0,0
2.880000,-0.031950,0.101818,0.000016,1,0,0,0,0,0,0,-0.158471,-0.067995,0.004899,1,0,0,0,0,0,0,0.047693,-0.042419,-0.001755,1,0,0,0,0,0,0
2.890000,-0.032381,0.098038,0.000040,1,0,0,0,0,0,0,-0.154743,-0.066485,0.004692,1,0,0,0,0,0,0,0.044667,-0.040628,-0.001626,1,0,0,0,0,0,0
2.900000,-0.032646,0.094866,0.000046,1,0,0,0,0,0,0,-0.150389,-0.064523,0.004419,1,0,0,0,0,0,0,0.041984,-0.039275,-0.001523,1,0,0,0,0,0,0
2.910000,-0.032796,0.092188,0.000037,1,0,0,0,0,0,0,-0.145566,-0.062145,0.004091,1,0,0,0,0,0,0,0.039645,-0.038339,-0.001442,1,0,0,0,0,0,0
2.920000,-0.032873,0.089810,0.000022,1,0,0,0,0,0,0,-0.140459,-0.059458,0.003730,1,0,0,0,0,0,0,0.037676,-0.037806,-0.001379,1,0,0,0,0,0,0
2.930000,-0.032899,0.087636,0.000002,1,0,0,0,0,0,0,-0.135286,-0.056615,0.003362,1,0,0,0,0,0,0,0.036100,-0.037647,-0.001333,1,0,0,0,0,0,0
2.940000,-0.032873,0.085638,-0.000021,1,0,0,0,0,0,0,-0.130208,-0.053793,0.003012,1,0,0,0,0,0,0,0.034919,-0.037812,-0.001299,1,0,0,0,0,0,0
2.950000,-0.032778,0.083793,-0.000045,1,0,0,0,0,0,0,-0.125240,-0.051093,0.002693,1,0,0,0,0,0,0,0.034113,-0.038240,-0.001275,1,0,0,0,0,0,0
2.960000,-0.032610,0.082118,-0.000072,1,0,0,0,0,0,0,-0.120318,-0.048549,0.002409,1,0,0,0,0,0,0,0.033651,-0.038875,-0.001259,1,0,0,0,0,0,0
2.970000,-0.032385,0.080608,-0.000101,1,0,0,0,0,0,0,-0.115314,-0.046157,0.002155,1,0,0,0,0,0,0,0.033505,-0.039672,-0.001249,1,0,0,0,0,0,0
2.980000,-0.032139,0.079154,-0.000128,1,0,0,0,0,0,0,-0.110166,-0.043980,0.001939,1,0,0,0,0,0,0,0.033654,-0.040594,-0.001244,1,0,0,0,0,0,0
2.990000,-0.031905,0.077600,-0.000149,1,0,0,0,0,0,0,-0.104813,-0.042061,0.001760,1,0,0,0,0,0,0,0.034071,-0.041595,-0.001243,1,0,0,0,0,0,0
3.000000,-0.031696,0.075793,-0.000158,1,0,0,0,0,0,0,-0.099273,-0.040402,0.001617,1,0,0,0,0,0,0,0.034730,-0.042626,-0.001246,1,0,0,0,0,0,0
3.010000,-0.031493,0.073662,-0.000155,1,0,0,0,0,0,0,-0.093677,-0.039012,0.001507,1,0,0,0,0,0,0,0.035610,-0.043636,-0.001250,1,0,0,0,0,0,0
3.020000,-0.031283,0.071262,-0.000142,1,0,0,0,0,0,0,-0.088181,-0.037832,0.001420,1,0,0,0,0,0,0,0.036702,-0.044582,-0.001255,1,0,0,0,0,0,0
3.030000,-0.031075,0.068750,-0.000123,1,0,0,0,0,0,0,-0.082898,-0.036759,0.001345,1,0,0,0,0,0,0,0.038022,-0.045437,-0.001260,1,0,0,0,0,0,0
3.040000,-0.030918,0.066335,-0.000105,1,0,0,0,0,0,0,-0.077992,-0.035777,0.001279,1,0,0,0,0,0,0,0.039588,-0.046185,-0.001264,1,0,0,0,0,0,0
3.050000,-0.030869,0.064209,-0.000096,1,0,0,0,0,0,0,-0.073539,-0.034853,0.001217,1,0,0,0,0,0,0,0.041407,-0.046818,-0.001267,1,0,0,0,0,0,0
3.060000,-0.030955,0.062456,-0.000096,1,0,0,0,0,0,0,-0.069495,-0.033938,0.001157,1,0,0,0,0,0,0,0.043467,-0.047333,-0.001270,1,0,0,0,0,0,0
3.070000,-0.031145,0.061033,-0.000105,1,0,0,0,0,0,0,-0.065881,-0.033038,0.001099,1,0,0,0,0,0,0,0.045727,-0.047734,-0.001271,1,0,0,0,0,0,0
3.080000,-0.031401,0.059873,-0.000120,1,0,0,0,0,0,0,-0.062781,-0.032183,0.001045,1,0,0,0,0,0,0,0.048134,-0.048033,-0.001273,1,0,0,0,0,0,0
3.090000,-0.031679,0.058886,-0.000139,1,0,0,0,0,0,0,-0.060185,-0.031368,0.000993,1,0,0,0,0,0,0,0.050622,-0.048250,-0.001274,1,0,0,0,0,0,0
3.100000,-0.031951,0.057995,-0.000159,1,0,0,0,0,0,0,-0.058077,-0.030577,0.000944,1,0,0,0,0,0,0,0.053122,-0.048411,-0.001278,1,0,0,0,0,0,0
3.110000,-0.032222,0.057199,-0.000181,1,0,0,0,0,0,0,-0.056516,-0.029819,0.000898,1,0,0,0,0,0,0,0.055567,-0.048545,-0.001283,1,0,0,0,0,0,0
3.120000,-0.032484,0.056517,-0.000204,1,0,0,0,0,0,0,-0.055573,-0.029124,0.000856,1,0,0,0,0,0,0,0.057901,-0.048687,-0.001294,1,0,0,0,0,0,0
3.130000,-0.032712,0.056036,-0.000232,1,0,0,0,0,0,0,-0.055197,-0.028512,0.000819,1,0,0,0,0,0,0,0.060103,-0.048885,-0.001311,1,0,0,0,0,0,0
3.140000,-0.032868,0.055895,-0.000269,1,0,0,0,0,0,0,-0.055311,-0.027992,0.000788,1,0,0,0,0,0,0,0.062196,-0.049206,-0.001338,1,0,0,0,0,0,0
3.150000,-0.032913,0.056310,-0.000323,1,0,0,0,0,0,0,-0.055872,-0.027555,0.000762,1,0,0,0,0,0,0,0.064235,-0.049726,-0.001381,1,0,0,0,0,0,0
3.160000,-0.032828,0.057460,-0.000398,1,0,0,0,0,0,0,-0.056793,-0.027162,0.000740,1,0,0,0,0,0,0,0.066285,-0.050514,-0.001445,1,0,0,0,0,0,0
3.170000,-0.032620,0.059339,-0.000494,1,0,0,0,0,0,0,-0.058049,-0.026782,0.000719,1,0,0,0,0,0,0,0.068382,-0.051610,-0.001532,1,0,0,0,0,0,0
3.180000,-0.032339,0.061837,-0.000606,1,0,0,0,0,0,0,-0.059651,-0.026422,0.000701,1,0,0,0,0,0,0,0.070528,-0.053017,-0.001644,1,0,0,0,0,0,0
3.190000,-0.032048,0.064863,-0.000730,1,0,0,0,0,0,0,-0.061581,-0.026130,0.000688,1,0,0,0,0,0,0,0.072701,-0.054713,-0.001779,1,0,0,0,0,0,0
3.200000,-0.031803,0.068334,-0.000862,1,0,0,0,0,0,0,-0.063930,-0.026036,0.000688,1,0,0,0,0,0,0,0.074877,-0.056660,-0.001936,1,0,0,0,0,0,0
3.210000,-0.031627,0.072171,-0.001000,1,0,0,0,0,0,0,-0.066734,-0.026296,0.000713,1,0,0,0,0,0,0,0.077024,-0.058808,-0.002112,1,0,0,0,0,0,0
3.220000,-0.031518,0.076338,-0.001143,1,0,0,0,0,0,0,-0.069822,-0.026968,0.000768,1,0,0,0,0,0,0,0.079098,-0.061093,-0.002301,1,0,0,0,0,0,0
3.230000,-0.031468,0.080861,-0.001293,1,0,0,0,0,0,0,-0.072961,-0.027994,0.000851,1,0,0,0,0,0,0,0.081042,-0.063447,-0.002498,1,0,0,0,0,0,0
3.240000,-0.031471,0.085757,-0.001449,1,0,0,0,0,0,0,-0.075990,-0.029272,0.000957,1,0,0,0,0,0,0,0.082812,-0.065812,-0.002698,1,0,0,0,0,0,0
3.250000,-0.031532,0.091028,-0.001612,1,0,0,0,0,0,0,-0.078785,-0.030651,0.001073,1,0,0,0,0,0,0,0.084398,-0.068152,-0.002898,1,0,0,0,0,0,0
3.260000,-0.031662,0.096566,-0.001780,1,0,0,0,0,0,0,-0.081264,-0.031945,0.001185,1,0,0,0,0,0,0,0.085817,-0.070438,-0.003093,1,0,0,0,0,0,0
3.270000,-0.031894,0.102220,-0.001948,1,0,0,0,0,0,0,-0.083460,-0.033025,0.001282,1,0,0,0,0,0,0,0.087085,-0.072624,-0.003280,1,0,0,0,0,0,0
3.280000,-0.032295,0.107855,-0.002113,1,0,0,0,0,0,0,-0.085488,-0.033831,0.001356,1,0,0,0,0,0,0,0.088184,-0.074639,-0.003453,1,0,0,0,0,0,0
3.290000,-0.032942,0.113308,-0.002271,1,0,0,0,0,0,0,-0.087446,-0.034350,0.001407,1,0,0,0,0,0,0,0.089086,-0.076401,-0.003601,1,0,0,0,0,0,0
3.300000,-0.033850,0.118392,-0.002419,1,0,0,0,0,0,0,-0.089381,-0.034608,0.001436,1,0,0,0,0,0,0,0.089785,-0.077846,-0.003721,1,0,0,0,0,0,0
3.310000,-0.034962,0.122988,-0.002554,1,0,0,0,0,0,0,-0.091327,-0.034663,0.001447,1,0,0,0,0,0,0,0.090330,-0.078943,-0.003808,1,0,0,0,0,0,0
3.320000,-0.036190,0.127090,-0.002677,1,0,0,0,0,0,0,-0.093355,-0.034615,0.001451,1,0,0,0,0,0,0,0.090801,-0.079688,-0.003862,1,0,0,0,0,0,0
3.330000,-0.037446,0.130732,-0.002789,1,0,0,0,0,0,0,-0.095541,-0.034615,0.001460,1,0,0,0,0,0,0,0.091263,-0.080082,-0.003884,1,0,0,0,0,0,0
3.340000,-0.038669,0.133906,-0.002890,1,0,0,0,0,0,0,-0.097939,-0.034820,0.001491,1,0,0,0,0,0,0,0.091725,-0.080128,-0.003875,1,0,0,0,0,0,0
3.350000,-0.039859,0.136558,-0.002976,1,0,0,0,0,0,0,-0.100585,-0.035347,0.001555,1,0,0,0,0,0,0,0.092155,-0.079838,-0.003836,1,0,0,0,0,0,0
3.360000,-0.041066,0.138669,-0.003045,1,0,0,0,0,0,0,-0.103411,-0.036227,0.001658,1,0,0,0,0,0,0,0.092516,-0.079256,-0.003771,1,0,0,0,0,0,0
3.370000,-0.042318,0.140312,-0.003101,1,0,0,0,0,0,0,-0.106255,-0.037412,0.001796,1,0,0,0,0,0,0,0.092789,-0.078455,-0.003689,1,0,0,0,0,0,0
3.380000,-0.043582,0.141654,-0.003150,1,0,0,0,0,0,0,-0.108982,-0.038848,0.001963,1,0,0,0,0,0,0,0.092971,-0.077522,-0.003598,1,0,0,0,0,0,0
3.390000,-0.044777,0.142899,-0.003200,1,0,0,0,0,0,0,-0.111472,-0.040441,0.002150,1,0,0,0,0,0,0,0.093057,-0.076534,-0.003504,1,0,0,0,0,0,0
3.400000,-0.045815,0.144172,-0.003256,1,0,0,0,0,0,0,-0.113681,-0.042051,0.002340,1,0,0,0,0,0,0,0.093051,-0.075556,-0.003415,1,0,0,0,0,0,0
3.410000,-0.046646,0.145465,-0.003318,1,0,0,0,0,0,0,-0.115742,-0.043602,0.002523,1,0,0,0,0,0,0,0.092982,-0.074651,-0.003335,1,0,0,0,0,0,0
3.420000,-0.047261,0.146690,-0.003380,1,0,0,0,0,0,0,-0.117880,-0.045054,0.002695,1,0,0,0,0,0,0,0.092928,-0.073888,-0.003271,1,0,0,0,0,0,0
3.430000,-0.047639,0.147729,-0.003434,1,0,0,0,0,0,0,-0.120324,-0.046394,0.002855,1,0,0,0,0,0,0,0.092998,-0.073341,-0.003228,1,0,0,0,0,0,0
3.440000,-0.047722,0.148512,-0.003477,1,0,0,0,0,0,0,-0.123068,-0.047593,0.002999,1,0,0,0,0,0,0,0.093283,-0.073064,-0.003213,1,0,0,0,0,0,0
3.450000,-0.047420,0.149000,-0.003505,1,0,0,0,0,0,0,-0.125989,-0.048655,0.003129,1,0,0,0,0,0,0,0.093819,-0.073073,-0.003225,1,0,0,0,0,0,0
3.460000,-0.046687,0.149242,-0.003520,1,0,0,0,0,0,0,-0.128947,-0.049613,0.003248,1,0,0,0,0,0,0,0.094584,-0.073351,-0.003263,1,0,0,0,0,0,0
3.470000,-0.045540,0.149424,-0.003528,1,0,0,0,0,0,0,-0.131820,-0.050503,0.003362,1,0,0,0,0,0,0,0.095524,-0.073856,-0.003324,1,0,0,0,0,0,0
3.480000,-0.044055,0.149819,-0.003541,1,0,0,0,0,0,0,-0.134533,-0.051345,0.003473,1,0,0,0,0,0,0,0.096572,-0.074533,-0.003402,1,0,0,0,0,0,0
3.490000,-0.042346,0.150591,-0.003564,1,0,0,0,0,0,0,-0.137069,-0.052142,0.003580,1,0,0,0,0,0,0,0.097661,-0.075321,-0.003491,1,0,0,0,0,0,0
3.500000,-0.040489,0.151664,-0.003590,1,0,0,0,0,0,0,-0.139430,-0.052890,0.003684,1,0,0,0,0,0,0,0.098719,-0.076155,-0.003585,1,0,0,0,0,0,0
3.510000,-0.038515,0.152851,-0.003611,1,0,0,0,0,0,0,-0.141619,-0.053601,0.003785,1,0,0,0,0,0,0,0.099695,-0.076982,-0.003679,1,0,0,0,0,0,0
3.520000,-0.036459,0.153954,-0.003618,1,0,0,0,0,0,0,-0.143615,-0.054301,0.003886,1,0,0,0,0,0,0,0.100561,-0.077769,-0.003768,1,0,0,0,0,0,0
3.530000,-0.034391,0.154847,-0.003606,1,0,0,0,0,0,0,-0.145381,-0.055019,0.003992,1,0,0,0,0,0,0,0.101311,-0.078494,-0.003851,1,0,0,0,0,0,0
3.540000,-0.032403,0.155523,-0.003577,1,0,0,0,0,0,0,-0.146934,-0.055800,0.004108,1,0,0,0,0,0,0,0.101935,-0.079131,-0.003925,1,0,0,0,0,0,0
3.550000,-0.030561,0.156031,-0.003533,1,0,0,0,0,0,0,-0.148247,-0.056656,0.004236,1,0,0,0,0,0,0,0.102409,-0.079636,-0.003984,1,0,0,0,0,0,0
3.560000,-0.028888,0.156411,-0.003479,1,0,0,0,0,0,0,-0.149266,-0.057584,0.004374,1,0,0,0,0,0,0,0.102705,-0.079958,-0.004024,1,0,0,0,0,0,0
3.570000,-0.027373,0.156633,-0.003415,1,0,0,0,0,0,0,-0.149893,-0.058561,0.004518,1,0,0,0,0,0,0,0.102810,-0.080056,-0.004040,1,0,0,0,0,0,0
3.580000,-0.026012,0.156636,-0.003341,1,0,0,0,0,0,0,-0.150021,-0.059565,0.004664,1,0,0,0,0,0,0,0.102727,-0.079903,-0.004029,1,0,0,0,0,0,0
3.590000,-0.024841,0.156375,-0.003257,1,0,0,0,0,0,0,-0.149598,-0.060594,0.004810,1,0,0,0,0,0,0,0.102466,-0.079491,-0.003992,1,0,0,0,0,0,0
3.600000,-0.023911,0.155776,-0.003164,1,0,0,0,0,0,0,-0.148649,-0.061655,0.004956,1,0,0,0,0,0,0,0.102033,-0.078824,-0.003928,1,0,0,0,0,0,0
3.610000,-0.023285,0.154733,-0.003061,1,0,0,0,0,0,0,-0.147222,-0.062708,0.005094,1,0,0,0,0,0,0,0.101441,-0.077928,-0.003842,1,0,0,0,0,0,0
3.620000,-0.022994,0.153102,-0.002947,1,0,0,0,0,0,0,-0.145365,-0.063665,0.005211,1,0,0,0,0,0,0,0.100710,-0.076849,-0.003739,1,0,0,0,0,0,0
3.630000,-0.023011,0.150779,-0.002820,1,0,0,0,0,0,0,-0.143091,-0.064378,0.005283,1,0,0,0,0,0,0,0.099849,-0.075643,-0.003625,1,0,0,0,0,0,0
3.640000,-0.023269,0.147780,-0.002682,1,0,0,0,0,0,0,-0.140407,-0.064699,0.005292,1,0,0,0,0,0,0,0.098840,-0.074358,-0.003505,1,0,0,0,0,0,0
3.650000,-0.023691,0.144257,-0.002537,1,0,0,0,0,0,0,-0.137358,-0.064541,0.005228,1,0,0,0,0,0,0,0.097653,-0.073029,-0.003384,1,0,0,0,0,0,0
3.660000,-0.024196,0.140418,-0.002391,1,0,0,0,0,0,0,-0.134064,-0.063925,0.005099,1,0,0,0,0,0,0,0.096288,-0.071700,-0.003265,1,0,0,0,0,0,0
3.670000,-0.024725,0.136435,-0.002247,1,0,0,0,0,0,0,-0.130704,-0.062967,0.004923,1,0,0,0,0,0,0,0.094809,-0.070428,-0.003153,1,0,0,0,0,0,0
3.680000,-0.025255,0.132397,-0.002107,1,0,0,0,0,0,0,-0.127498,-0.061822,0.004727,1,0,0,0,0,0,0,0.093336,-0.069275,-0.003056,1,0,0,0,0,0,0
3.690000,-0.025797,0.128347,-0.001973,1,0,0,0,0,0,0,-0.124594,-0.060638,0.004529,1,0,0,0,0,0,0,0.091992,-0.068288,-0.002975,1,0,0,0,0,0,0
3.700000,-0.026378,0.124366,-0.001845,1,0,0,0,0,0,0,-0.121991,-0.059516,0.004344,1,0,0,0,0,0,0,0.090852,-0.067477,-0.002911,1,0,0,0,0,0,0
3.710000,-0.026984,0.120568,-0.001727,1,0,0,0,0,0,0,-0.119613,-0.058505,0.004177,1,0,0,0,0,0,0,0.089945,-0.066837,-0.002862,1,0,0,0,0,0,0
3.720000,-0.027555,0.117079,-0.001622,1,0,0,0,0,0,0,-0.117342,-0.057616,0.004029,1,0,0,0,0,0,0,0.089275,-0.066361,-0.002829,1,0,0,0,0,0,0
3.730000,-0.028000,0.113980,-0.001532,1,0,0,0,0,0,0,-0.115079,-0.056849,0.003900,1,0,0,0,0,0,0,0.088834,-0.066038,-0.002808,1,0,0,0,0,0,0
3.740000,-0.028239,0.111271,-0.001456,1,0,0,0,0,0,0,-0.112766,-0.056175,0.003784,1,0,0,0,0,0,0,0.088592,-0.065838,-0.002798,1,0,0,0,0,0,0
3.750000,-0.028226,0.108896,-0.001394,1,0,0,0,0,0,0,-0.110418,-0.055545,0.003676,1,0,0,0,0,0,0,0.088488,-0.065702,-0.002794,1,0,0,0,0,0,0
3.760000,-0.027952,0.106830,-0.001342,1,0,0,0,0,0,0,-0.108107,-0.054889,0.003567,1,0,0,0,0,0,0,0.088442,-0.065561,-0.002788,1,0,0,0,0,0,0
3.770000,-0.027427,0.105030,-0.001301,1,0,0,0,0,0,0,-0.105878,-0.054100,0.003446,1,0,0,0,0,0,0,0.088406,-0.065366,-0.002778,1,0,0,0,0,0,0
3.780000,-0.026665,0.103468,-0.001266,1,0,0,0,0,0,0,-0.103750,-0.053087,0.003304,1,0,0,0,0,0,0,0.088380,-0.065106,-0.002762,1,0,0,0,0,0,0
3.790000,-0.025685,0.102149,-0.001239,1,0,0,0,0,0,0,-0.101727,-0.051814,0.003139,1,0,0,0,0,0,0,0.088410,-0.064804,-0.002742,1,0,0,0,0,0,0
3.800000,-0.024511,0.101135,-0.001218,1,0,0,0,0,0,0,-0.099826,-0.050306,0.002955,1,0,0,0,0,0,0,0.088545,-0.064487,-0.002721,1,0,0,0,0,0,0
3.810000,-0.023178,0.100521,-0.001206,1,0,0,0,0,0,0,-0.098104,-0.048625,0.002760,1,0,0,0,0,0,0,0.088802,-0.064166,-0.002701,1,0,0,0,0,0,0
3.820000,-0.021725,0.100402,-0.001203,1,0,0,0,0,0,0,-0.096628,-0.046846,0.002561,1,0,0,0,0,0,0,0.089165,-0.063835,-0.002680,1,0,0,0,0,0,0
3.830000,-0.020195,0.100755,-0.001206,1,0,0,0,0,0,0,-0.095411,-0.045027,0.002366,1,0,0,0,0,0,0,0.089616,-0.063476,-0.002657,1,0,0,0,0,0,0
3.840000,-0.018629,0.101457,-0.001210,1,0,0,0,0,0,0,-0.094446,-0.043209,0.002177,1,0,0,0,0,0,0,0.090160,-0.063078,-0.002632,1,0,0,0,0,0,0
3.850000,-0.017079,0.102303,-0.001212,1,0,0,0,0,0,0,-0.093655,-0.041440,0.001999,1,0,0,0,0,0,0,0.090818,-0.062641,-0.002605,1,0,0,0,0,0,0
3.860000,-0.015595,0.103070,-0.001207,1,0,0,0,0,0,0,-0.092911,-0.039781,0.001838,1,0,0,0,0,0,0,0.091602,-0.062167,-0.002575,1,0,0,0,0,0,0
3.870000,-0.014208,0.103610,-0.001193,1,0,0,0,0,0,0,-0.092108,-0.038317,0.001700,1,0,0,0,0,0,0,0.092507,-0.061670,-0.002545,1,0,0,0,0,0,0
3.880000,-0.012912,0.103896,-0.001171,1,0,0,0,0,0,0,-0.091159,-0.037128,0.001593,1,0,0,0,0,0,0,0.093529,-0.061189,-0.002518,1,0,0,0,0,0,0
3.890000,-0.011677,0.104001,-0.001144,1,0,0,0,0,0,0,-0.090000,-0.036230,0.001515,1,0,0,0,0,0,0,0.094674,-0.060776,-0.002498,1,0,0,0,0,0,0
3.900000,-0.010480,0.104051,-0.001114,1,0,0,0,0,0,0,-0.088637,-0.035582,0.001463,1,0,0,0,0,0,0,0.095942,-0.060479,-0.002492,1,0,0,0,0,0,0
3.910000,-0.009338,0.104118,-0.001082,1,0,0,0,0,0,0,-0.087147,-0.035159,0.001432,1,0,0,0,0,0,0,0.097305,-0.060322,-0.002500,1,0,0,0,0,0,0
3.920000,-0.008296,0.104149,-0.001047,1,0,0,0,0,0,0,-0.085629,-0.034966,0.001422,1,0,0,0,0,0,0,0.098722,-0.060310,-0.002525,1,0,0,0,0,0,0
3.930000,-0.007398,0.104005,-0.001010,1,0,0,0,0,0,0,-0.084128,-0.035022,0.001432,1,0,0,0,0,0,0,0.100163,-0.060438,-0.002564,1,0,0,0,0,0,0
3.940000,-0.006645,0.103545,-0.000970,1,0,0,0,0,0,0,-0.082609,-0.035342,0.001462,1,0,0,0,0,0,0,0.101630,-0.060706,-0.002619,1,0,0,0,0,0,0
3.950000,-0.005996,0.102675,-0.000927,1,0,0,0,0,0,0,-0.080995,-0.035943,0.001512,1,0,0,0,0,0,0,0.103163,-0.061119,-0.002689,1,0,0,0,0,0,0
3.960000,-0.005406,0.101395,-0.000882,1,0,0,0,0,0,0,-0.079188,-0.036787,0.001578,1,0,0,0,0,0,0,0.104810,-0.061681,-0.002776,1,0,0,0,0,0,0
3.970000,-0.004861,0.099802,-0.000837,1,0,0,0,0,0,0,-0.077091,-0.037753,0.001648,1,0,0,0,0,0,0,0.106601,-0.062386,-0.002879,1,0,0,0,0,0,0
3.980000,-0.004386,0.098058,-0.000793,1,0,0,0,0,0,0,-0.074662,-0.038704,0.001711,1,0,0,0,0,0,0,0.108528,-0.063217,-0.002996,1,0,0,0,0,0,0
3.990000,-0.003998,0.096340,-0.000750,1,0,0,0,0,0,0,-0.071932,-0.039542,0.001759,1,0,0,0,0,0,0,0.110554,-0.064153,-0.003126,1,0,0,0,0,0,0
4.000000,-0.003680,0.094803,-0.000710,1,0,0,0,0,0,0,-0.068993,-0.040222,0.001790,1,0,0,0,0,0,0,0.112612,-0.065165,-0.003265,1,0,0,0,0,0,0
4.010000,-0.003382,0.093636,-0.000673,1,0,0,0,0,0,0,-0.066028,-0.040766,0.001805,1,0,0,0,0,0,0,0.114711,-0.066269,-0.003417,1,0,0,0,0,0,0
4.020000,-0.003063,0.093105,-0.000640,1,0,0,0,0,0,0,-0.063327,-0.041274,0.001812,1,0,0,0,0,0,0,0.117034,-0.067568,-0.003592,1,0,0,0,0,0,0
4.030000,-0.002722,0.093251,-0.000610,1,0,0,0,0,0,0,-0.061012,-0.041752,0.001813,1,0,0,0,0,0,0,0.119560,-0.069046,-0.003791,1,0,0,0,0,0,0
4.040000,-0.002403,0.094026,-0.000582,1,0,0,0,0,0,0,-0.059112,-0.042153,0.001806,1,0,0,0,0,0,0,0.122225,-0.070651,-0.004008,1,0,0,0,0,0,0
4.050000,-0.002151,0.095355,-0.000557,1,0,0,0,0,0,0,-0.057607,-0.042431,0.001790,1,0,0,0,0,0,0,0.124976,-0.072332,-0.004237,1,0,0,0,0,0,0
4.060000,-0.001971,0.097169,-0.000533,1,0,0,0,0,0,0,-0.056481,-0.042578,0.001765,1,0,0,0,0,0,0,0.127766,-0.074048,-0.004474,1,0,0,0,0,0,0
4.070000,-0.001815,0.099396,-0.000510,1,0,0,0,0,0,0,-0.055735,-0.042627,0.001734,1,0,0,0,0,0,0,0.130549,-0.075770,-0.004715,1,0,0,0,0,0,0
4.080000,-0.001601,0.101959,-0.000489,1,0,0,0,0,0,0,-0.055369,-0.042645,0.001702,1,0,0,0,0,0,0,0.133280,-0.077484,-0.004958,1,0,0,0,0,0,0
4.090000,-0.001267,0.104793,-0.000468,1,0,0,0,0,0,0,-0.055382,-0.042708,0.001674,1,0,0,0,0,0,0,0.135936,-0.079185,-0.005203,1,0,0,0,0,0,0
4.100000,-0.000796,0.107843,-0.000447,1,0,0,0,0,0,0,-0.055823,-0.042893,0.001654,1,0,0,0,0,0,0,0.138497,-0.080871,-0.005448,1,0,0,0,0,0,0
4.110000,-0.000221,0.111066,-0.000424,1,0,0,0,0,0,0,-0.056646,-0.043242,0.001645,1,0,0,0,0,0,0,0.140937,-0.082522,-0.005692,1,0,0,0,0,0,0
4.120000,0.000392,0.114404,-0.000399,1,0,0,0,0,0,0,-0.057775,-0.043757,0.001648,1,0,0,0,0,0,0,0.143210,-0.084102,-0.005927,1,0,0,0,0,0,0
4.130000,0.000969,0.117768,-0.000372,1,0,0,0,0,0,0,-0.059055,-0.044377,0.001660,1,0,0,0,0,0,0,0.145269,-0.085576,-0.006150,1,0,0,0,0,0,0
4.140000,0.001468,0.121049,-0.000342,1,0,0,0,0,0,0,-0.060379,-0.045043,0.001678,1,0,0,0,0,0,0,0.147089,-0.086928,-0.006355,1,0,0,0,0,0,0
4.150000,0.001875,0.124188,-0.000311,1,0,0,0,0,0,0,-0.061731,-0.045733,0.001700,1,0,0,0,0,0,0,0.148660,-0.088156,-0.006543,1,0,0,0,0,0,0
4.160000,0.002194,0.127163,-0.000279,1,0,0,0,0,0,0,-0.063068,-0.046410,0.001724,1,0,0,0,0,0,0,0.149994,-0.089273,-0.006714,1,0,0,0,0,0,0
4.170000,0.002432,0.129938,-0.000247,1,0,0,0,0,0,0,-0.064343,-0.047026,0.001747,1,0,0,0,0,0,0,0.151099,-0.090292,-0.006870,1,0,0,0,0,0,0
4.180000,0.002595,0.132471,-0.000216,1,0,0,0,0,0,0,-0.065505,-0.047529,0.001765,1,0,0,0,0,0,0,0.151958,-0.091201,-0.007008,1,0,0,0,0,0,0
4.190000,0.002682,0.134727,-0.000186,1,0,0,0,0,0,0,-0.066530,-0.047884,0.001775,1,0,0,0,0,0,0,0.152532,-0.091972,-0.007124,1,0,0,0,0,0,0
4.200000,0.002691,0.136661,-0.000158,1,0,0,0,0,0,0,-0.067445,-0.048078,0.001776,1,0,0,0,0,0,0,0.152798,-0.092579,-0.007213,1,0,0,0,0,0,0
4.210000,0.002626,0.138196,-0.000133,1,0,0,0,0,0,0,-0.068272,-0.048095,0.001767,1,0,0,0,0,0,0,0.152758,-0.093006,-0.007273,1,0,0,0,0,0,0
4.220000,0.002479,0.139301,-0.000110,1,0,0,0,0,0,0,-0.069011,-0.047924,0.001747,1,0,0,0,0,0,0,0.152446,-0.093245,-0.007302,1,0,0,0,0,0,0
4.230000,0.002231,0.139956,-0.000091,1,0,0,0,0,0,0,-0.069649,-0.047564,0.001716,1,0,0,0,0,0,0,0.151899,-0.093290,-0.007299,1,0,0,0,0,0,0
4.240000,0.001891,0.140112,-0.000074,1,0,0,0,0,0,0,-0.070151,-0.047027,0.001673,1,0,0,0,0,0,0,0.151149,-0.093130,-0.007264,1,0,0,0,0,0,0
4.250000,0.001482,0.139742,-0.000061,1,0,0,0,0,0,0,-0.070451,-0.046333,0.001622,1,0,0,0,0,0,0,0.150207,-0.092753,-0.007194,1,0,0,0,0,0,0
4.260000,0.001021,0.138860,-0.000051,1,0,0,0,0,0,0,-0.070521,-0.045497,0.001562,1,0,0,0,0,0,0,0.149069,-0.092143,-0.007089,1,0,0,0,0,0,0
4.270000,0.000520,0.137509,-0.000044,1,0,0,0,0,0,0,-0.070458,-0.044532,0.001496,1,0,0,0,0,0,0,0.147725,-0.091295,-0.006950,1,0,0,0,0,0,0
4.280000,-0.000007,0.135745,-0.000038,1,0,0,0,0,0,0,-0.070297,-0.043454,0.001423,1,0,0,0,0,0,0,0.146178,-0.090212,-0.006777,1,0,0,0,0,0,0
4.290000,-0.000547,0.133635,-0.000034,1,0,0,0,0,0,0,-0.070036,-0.042287,0.001346,1,0,0,0,0,0,0,0.144456,-0.088910,-0.006575,1,0,0,0,0,0,0
4.300000,-0.001094,0.131250,-0.000031,1,0,0,0,0,0,0,-0.069659,-0.041051,0.001267,1,0,0,0,0,0,0,0.142577,-0.087399,-0.006347,1,0,0,0,0,0,0
4.310000,-0.001639,0.128634,-0.000028,1,0,0,0,0,0,0,-0.069153,-0.039764,0.001186,1,0,0,0,0,0,0,0.140525,-0.085677,-0.006093,1,0,0,0,0,0,0
4.320000,-0.002176,0.125796,-0.000026,1,0,0,0,0,0,0,-0.068505,-0.038439,0.001105,1,0,0,0,0,0,0,0.138279,-0.083743,-0.005816,1,0,0,0,0,0,0
