time,drone0_roll,drone0_pitch,drone0_yaw,drone0_des_qw,drone0_des_qx,drone0_des_qy,drone0_des_qz,drone0_err_x,drone0_err_y,drone0_err_z,drone1_roll,drone1_pitch,drone1_yaw,drone1_des_qw,drone1_des_qx,drone1_des_qy,drone1_des_qz,drone1_err_x,drone1_err_y,drone1_err_z,drone2_roll,drone2_pitch,drone2_yaw,drone2_des_qw,drone2_des_qx,drone2_des_qy,drone2_des_qz,drone2_err_x,drone2_err_y,drone2_err_z
0.000000,0.000000,0.000000,0.000000,1,0,0,0,0,0,0,0.000000,0.000000,0.000000,1,0,0,0,0,0,0,0.000000,0.000000,0.000000,1,0,0,0,0,0,0
0.010000,0.000001,-0.000001,-0.000000,1,0,0,0,0,0,0,0.000001,-0.000001,-0.000000,1,0,0,0,0,0,0,0.000310,-0.000172,-0.000000,1,0,0,0,0,0,0
0.020000,0.000003,-0.000006,-0.000000,1,0,0,0,0,0,0,0.000003,-0.000006,-0.000000,1,0,0,0,0,0,0,0.001010,-0.000572,-0.000000,1,0,0,0,0,0,0
0.030000,0.000008,-0.000016,-0.000000,1,0,0,0,0,0,0,0.000008,-0.000016,-0.000000,1,0,0,0,0,0,0,0.001991,-0.001140,-0.000001,1,0,0,0,0,0,0
0.040000,0.000015,-0.000030,-0.000000,1,0,0,0,0,0,0,0.000015,-0.000030,-0.000000,1,0,0,0,0,0,0,0.003230,-0.001861,-0.000003,1,0,0,0,0,0,0
0.050000,0.000025,-0.000049,-0.000000,1,0,0,0,0,0,0,0.000025,-0.000049,-0.000000,1,0,0,0,0,0,0,0.004721,-0.002731,-0.000006,1,0,0,0,0,0,0
0.060000,0.000037,0.000123,0.000000,1,0,0,0,0,0,0,-0.000003,-0.000094,-0.000000,1,0,0,0,0,0,0,0.006463,-0.003750,-0.000012,1,0,0,0,0,0,0
0.070000,0.000050,0.000276,0.000000,1,0,0,0,0,0,0,-0.000209,-0.000246,0.000000,1,0,0,0,0,0,0,0.008438,-0.004907,-0.000021,1,0,0,0,0,0,0
0.080000,0.000066,0.000537,0.000000,1,0,0,0,0,0,0,-0.000348,-0.000368,0.000000,1,0,0,0,0,0,0,0.010609,-0.006181,-0.000033,1,0,0,0,0,0,0
0.090000,0.000084,0.000905,0.000000,1,0,0,0,0,0,0,-0.000633,-0.000575,0.000000,1,0,0,0,0,0,0,0.012933,-0.007546,-0.000049,1,0,0,0,0,0,0
0.100000,0.000103,0.001364,0.000000,1,0,0,0,0,0,0,-0.000973,-0.000820,0.000000,1,0,0,0,0,0,0,0.015371,-0.008981,-0.000069,1,0,0,0,0,0,0
0.110000,0.000123,0.001917,0.000000,1,0,0,0,0,0,0,-0.001384,-0.001109,0.000001,1,0,0,0,0,0,0,0.017901,-0.010472,-0.000093,1,0,0,0,0,0,0
0.120000,0.000145,0.002601,0.000000,1,0,0,0,0,0,0,-0.001890,-0.001457,0.000001,1,0,0,0,0,0,0,0.020474,-0.011990,-0.000123,1,0,0,0,0,0,0
0.130000,0.000168,0.003374,0.000000,1,0,0,0,0,0,0,-0.002475,-0.001852,0.000002,1,0,0,0,0,0,0,0.022970,-0.013469,-0.000154,1,0,0,0,0,0,0
0.140000,0.000191,0.004280,0.000001,1,0,0,0,0,0,0,-0.003143,-0.002300,0.000003,1,0,0,0,0,0,0,0.025369,-0.014892,-0.000189,1,0,0,0,0,0,0
0.150000,0.000216,0.005316,0.000001,1,0,0,0,0,0,0,-0.003928,-0.002815,0.000005,1,0,0,0,0,0,0,0.027720,-0.016288,-0.000226,1,0,0,0,0,0,0
0.160000,0.000241,0.006486,0.000001,1,0,0,0,0,0,0,-0.004801,-0.003384,0.000008,1,0,0,0,0,0,0,0.030026,-0.017658,-0.000265,1,0,0,0,0,0,0
0.170000,0.000267,0.007804,0.000001,1,0,0,0,0,0,0,-0.005798,-0.004025,0.000011,1,0,0,0,0,0,0,0.032276,-0.018997,-0.000307,1,0,0,0,0,0,0
0.180000,0.000294,0.009271,0.000002,1,0,0,0,0,0,0,-0.006911,-0.004734,0.000016,1,0,0,0,0,0,0,0.034461,-0.020298,-0.000350,1,0,0,0,0,0,0
0.190000,0.000321,0.010849,0.000002,1,0,0,0,0,0,0,-0.008140,-0.005512,0.000021,1,0,0,0,0,0,0,0.036570,-0.021556,-0.000395,1,0,0,0,0,0,0
0.200000,0.000348,0.012485,0.000003,1,0,0,0,0,0,0,-0.009492,-0.006360,0.000029,1,0,0,0,0,0,0,0.038593,-0.022764,-0.000440,1,0,0,0,0,0,0
0.210000,0.000375,0.014154,0.000003,1,0,0,0,0,0,0,-0.010916,-0.007252,0.000038,1,0,0,0,0,0,0,0.040517,-0.023915,-0.000485,1,0,0,0,0,0,0
0.220000,0.000402,0.015849,0.000004,1,0,0,0,0,0,0,-0.012371,-0.008163,0.000049,1,0,0,0,0,0,0,0.042336,-0.025004,-0.000530,1,0,0,0,0,0,0
0.230000,0.000429,0.017555,0.000005,1,0,0,0,0,0,0,-0.013847,-0.009086,0.000061,1,0,0,0,0,0,0,0.044043,-0.026029,-0.000575,1,0,0,0,0,0,0
0.240000,0.000455,0.019233,0.000005,1,0,0,0,0,0,0,-0.015337,-0.010016,0.000074,1,0,0,0,0,0,0,0.045632,-0.026985,-0.000617,1,0,0,0,0,0,0
0.250000,0.000482,0.020841,0.000006,1,0,0,0,0,0,0,-0.016821,-0.010941,0.000089,1,0,0,0,0,0,0,0.047094,-0.027866,-0.000658,1,0,0,0,0,0,0
0.260000,0.000507,0.022359,0.000007,1,0,0,0,0,0,0,-0.018256,-0.011838,0.000105,1,0,0,0,0,0,0,0.048419,-0.028667,-0.000696,1,0,0,0,0,0,0
0.270000,0.000532,0.023803,0.000007,1,0,0,0,0,0,0,-0.019596,-0.012679,0.000121,1,0,0,0,0,0,0,0.049596,-0.029382,-0.000731,1,0,0,0,0,0,0
0.280000,0.000556,0.025181,0.000008,1,0,0,0,0,0,0,-0.020847,-0.013466,0.000137,1,0,0,0,0,0,0,0.050618,-0.030006,-0.000762,1,0,0,0,0,0,0
0.290000,0.000579,0.026502,0.000009,1,0,0,0,0,0,0,-0.022027,-0.014209,0.000153,1,0,0,0,0,0,0,0.051477,-0.030534,-0.000789,1,0,0,0,0,0,0
0.300000,0.000601,0.027770,0.000009,1,0,0,0,0,0,0,-0.023143,-0.014911,0.000169,1,0,0,0,0,0,0,0.052172,-0.030967,-0.000811,1,0,0,0,0,0,0
0.310000,0.000621,0.028982,0.000010,1,0,0,0,0,0,0,-0.024202,-0.015577,0.000185,1,0,0,0,0,0,0,0.052700,-0.031301,-0.000829,1,0,0,0,0,0,0
0.320000,0.000641,0.030117,0.000011,1,0,0,0,0,0,0,-0.025207,-0.016209,0.000201,1,0,0,0,0,0,0,0.053060,-0.031536,-0.000841,1,0,0,0,0,0,0
0.330000,0.000660,0.031153,0.000011,1,0,0,0,0,0,0,-0.026148,-0.016801,0.000216,1,0,0,0,0,0,0,0.053248,-0.031671,-0.000848,1,0,0,0,0,0,0
0.340000,0.000678,0.032072,0.000012,1,0,0,0,0,0,0,-0.027008,-0.017344,0.000231,1,0,0,0,0,0,0,0.053266,-0.031706,-0.000850,1,0,0,0,0,0,0
0.350000,0.000694,0.032863,0.000012,1,0,0,0,0,0,0,-0.027771,-0.017828,0.000245,1,0,0,0,0,0,0,0.053118,-0.031643,-0.000846,1,0,0,0,0,0,0
0.360000,0.000709,0.033517,0.000013,1,0,0,0,0,0,0,-0.028425,-0.018246,0.000256,1,0,0,0,0,0,0,0.052815,-0.031487,-0.000837,1,0,0,0,0,0,0
0.370000,0.000723,0.034030,0.000013,1,0,0,0,0,0,0,-0.028964,-0.018594,0.000267,1,0,0,0,0,0,0,0.052364,-0.031245,-0.000824,1,0,0,0,0,0,0
0.380000,0.000736,0.034390,0.000013,1,0,0,0,0,0,0,-0.029383,-0.018869,0.000275,1,0,0,0,0,0,0,0.051775,-0.030921,-0.000807,1,0,0,0,0,0,0
0.390000,0.000748,0.034585,0.000013,1,0,0,0,0,0,0,-0.029677,-0.019069,0.000281,1,0,0,0,0,0,0,0.051059,-0.030521,-0.000786,1,0,0,0,0,0,0
0.400000,0.000758,0.034614,0.000013,1,0,0,0,0,0,0,-0.029836,-0.019188,0.000285,1,0,0,0,0,0,0,0.050223,-0.030051,-0.000762,1,0,0,0,0,0,0
0.410000,0.000767,0.034479,0.000013,1,0,0,0,0,0,0,-0.029856,-0.019224,0.000286,1,0,0,0,0,0,0,0.049281,-0.029517,-0.000735,1,0,0,0,0,0,0
0.420000,0.000775,0.034184,0.000013,1,0,0,0,0,0,0,-0.029736,-0.019175,0.000284,1,0,0,0,0,0,0,0.048245,-0.028926,-0.000705,1,0,0,0,0,0,0
0.430000,0.000781,0.033734,0.000013,1,0,0,0,0,0,0,-0.029480,-0.019045,0.000281,1,0,0,0,0,0,0,0.047127,-0.028286,-0.000674,1,0,0,0,0,0,0
0.440000,0.000787,0.033132,0.000012,1,0,0,0,0,0,0,-0.029092,-0.018834,0.000274,1,0,0,0,0,0,0,0.045940,-0.027604,-0.000642,1,0,0,0,0,0,0
0.450000,0.000790,0.032385,0.000012,1,0,0,0,0,0,0,-0.028575,-0.018545,0.000266,1,0,0,0,0,0,0,0.044700,-0.026890,-0.000609,1,0,0,0,0,0,0
0.460000,0.000793,0.031498,0.000011,1,0,0,0,0,0,0,-0.027929,-0.018179,0.000256,1,0,0,0,0,0,0,0.043430,-0.026157,-0.000576,1,0,0,0,0,0,0
0.470000,0.000794,0.030480,0.000010,1,0,0,0,0,0,0,-0.027159,-0.017737,0.000243,1,0,0,0,0,0,0,0.042145,-0.025413,-0.000544,1,0,0,0,0,0,0
0.480000,0.000795,0.029341,0.000009,1,0,0,0,0,0,0,-0.026270,-0.017224,0.000230,1,0,0,0,0,0,0,0.040859,-0.024667,-0.000513,1,0,0,0,0,0,0
0.490000,0.000793,0.028094,0.000009,1,0,0,0,0,0,0,-0.025269,-0.016643,0.000214,1,0,0,0,0,0,0,0.039581,-0.023925,-0.000482,1,0,0,0,0,0,0
0.500000,0.000791,0.026746,0.000008,1,0,0,0,0,0,0,-0.024164,-0.015999,0.000198,1,0,0,0,0,0,0,0.038323,-0.023193,-0.000453,1,0,0,0,0,0,0
0.510000,0.000787,0.025310,0.000007,1,0,0,0,0,0,0,-0.022967,-0.015299,0.000181,1,0,0,0,0,0,0,0.037089,-0.022474,-0.000425,1,0,0,0,0,0,0
0.520000,0.000781,0.023798,0.000006,1,0,0,0,0,0,0,-0.021687,-0.014548,0.000164,1,0,0,0,0,0,0,0.035885,-0.021772,-0.000399,1,0,0,0,0,0,0
0.530000,0.000773,0.022223,0.000005,1,0,0,0,0,0,0,-0.020333,-0.013752,0.000147,1,0,0,0,0,0,0,0.034713,-0.021089,-0.000375,1,0,0,0,0,0,0
0.540000,0.000763,0.020597,0.000004,1,0,0,0,0,0,0,-0.018917,-0.012916,0.000130,1,0,0,0,0,0,0,0.033577,-0.020426,-0.000351,1,0,0,0,0,0,0
0.550000,0.000750,0.018931,0.000003,1,0,0,0,0,0,0,-0.017449,-0.012048,0.000114,1,0,0,0,0,0,0,0.032478,-0.019785,-0.000330,1,0,0,0,0,0,0
0.560000,0.000733,0.017240,0.000002,1,0,0,0,0,0,0,-0.015941,-0.011153,0.000098,1,0,0,0,0,0,0,0.031421,-0.019168,-0.000309,1,0,0,0,0,0,0
0.570000,0.000711,0.015538,0.000001,1,0,0,0,0,0,0,-0.014402,-0.010236,0.000084,1,0,0,0,0,0,0,0.030409,-0.018578,-0.000291,1,0,0,0,0,0,0
0.580000,0.000683,0.013846,-0.000000,1,0,0,0,0,0,0,-0.012844,-0.009304,0.000071,1,0,0,0,0,0,0,0.029448,-0.018019,-0.000273,1,0,0,0,0,0,0
0.590000,0.000647,0.012185,-0.000001,1,0,0,0,0,0,0,-0.011281,-0.008363,0.000059,1,0,0,0,0,0,0,0.028548,-0.017495,-0.000258,1,0,0,0,0,0,0
0.600000,0.000599,0.010582,-0.000002,1,0,0,0,0,0,0,-0.009726,-0.007421,0.000048,1,0,0,0,0,0,0,0.027716,-0.017014,-0.000244,1,0,0,0,0,0,0
0.610000,0.000536,0.009069,-0.000002,1,0,0,0,0,0,0,-0.008197,-0.006486,0.000039,1,0,0,0,0,0,0,0.026960,-0.016578,-0.000231,1,0,0,0,0,0,0
0.620000,0.000455,0.007689,-0.000003,1,0,0,0,0,0,0,-0.006714,-0.005566,0.000031,1,0,0,0,0,0,0,0.026289,-0.016194,-0.000220,1,0,0,0,0,0,0
0.630000,0.000348,0.006490,-0.000003,1,0,0,0,0,0,0,-0.005301,-0.004674,0.000025,1,0,0,0,0,0,0,0.025709,-0.015866,-0.000211,1,0,0,0,0,0,0
0.640000,0.000213,0.005527,-0.000003,1,0,0,0,0,0,0,-0.003991,-0.003825,0.000020,1,0,0,0,0,0,0,0.025223,-0.015597,-0.000204,1,0,0,0,0,0,0
0.650000,0.000043,0.004844,-0.000003,1,0,0,0,0,0,0,-0.002823,-0.003034,0.000017,1,0,0,0,0,0,0,0.024833,-0.015387,-0.000198,1,0,0,0,0,0,0
0.660000,-0.000162,0.004469,-0.000003,1,0,0,0,0,0,0,-0.001840,-0.002323,0.000014,1,0,0,0,0,0,0,0.024538,-0.015235,-0.000194,1,0,0,0,0,0,0
0.670000,-0.000400,0.004396,-0.000002,1,0,0,0,0,0,0,-0.001088,-0.001713,0.000013,1,0,0,0,0,0,0,0.024333,-0.015140,-0.000191,1,0,0,0,0,0,0
0.680000,-0.000669,0.004623,-0.000002,1,0,0,0,0,0,0,-0.000605,-0.001222,0.000012,1,0,0,0,0,0,0,0.024215,-0.015098,-0.000190,1,0,0,0,0,0,0
0.690000,-0.000966,0.005130,-0.000003,1,0,0,0,0,0,0,-0.000410,-0.000860,0.000011,1,0,0,0,0,0,0,0.024178,-0.015106,-0.000190,1,0,0,0,0,0,0
0.700000,-0.001277,0.005824,-0.000004,1,0,0,0,0,0,0,-0.000499,-0.000628,0.000010,1,0,0,0,0,0,0,0.024223,-0.015162,-0.000191,1,0,0,0,0,0,0
0.710000,-0.001583,0.006578,-0.000005,1,0,0,0,0,0,0,-0.000873,-0.000527,0.000009,1,0,0,0,0,0,0,0.024349,-0.015266,-0.000193,1,0,0,0,0,0,0
0.720000,-0.001873,0.007296,-0.000006,1,0,0,0,0,0,0,-0.001514,-0.000551,0.000009,1,0,0,0,0,0,0,0.024561,-0.015419,-0.000196,1,0,0,0,0,0,0
0.730000,-0.002141,0.007940,-0.000007,1,0,0,0,0,0,0,-0.002333,-0.000666,0.000008,1,0,0,0,0,0,0,0.024864,-0.015623,-0.000201,1,0,0,0,0,0,0
0.740000,-0.002387,0.008507,-0.000009,1,0,0,0,0,0,0,-0.003212,-0.000824,0.000008,1,0,0,0,0,0,0,0.025266,-0.015882,-0.000207,1,0,0,0,0,0,0
0.750000,-0.002613,0.009022,-0.000010,1,0,0,0,0,0,0,-0.004066,-0.000988,0.000009,1,0,0,0,0,0,0,0.025777,-0.016202,-0.000215,1,0,0,0,0,0,0
0.760000,-0.002829,0.009558,-0.000011,1,0,0,0,0,0,0,-0.004854,-0.001141,0.000009,1,0,0,0,0,0,0,0.026411,-0.016592,-0.000224,1,0,0,0,0,0,0
0.770000,-0.003039,0.010158,-0.000013,1,0,0,0,0,0,0,-0.005571,-0.001278,0.000009,1,0,0,0,0,0,0,0.027183,-0.017062,-0.000237,1,0,0,0,0,0,0
0.780000,-0.003243,0.010837,-0.000016,1,0,0,0,0,0,0,-0.006239,-0.001411,0.000010,1,0,0,0,0,0,0,0.028108,-0.017619,-0.000252,1,0,0,0,0,0,0
0.790000,-0.003440,0.011587,-0.000018,1,0,0,0,0,0,0,-0.006926,-0.001568,0.000010,1,0,0,0,0,0,0,0.029196,-0.018273,-0.000270,1,0,0,0,0,0,0
0.800000,-0.003628,0.012409,-0.000021,1,0,0,0,0,0,0,-0.007675,-0.001769,0.000011,1,0,0,0,0,0,0,0.030448,-0.019023,-0.000292,1,0,0,0,0,0,0
0.810000,-0.003802,0.013293,-0.000025,1,0,0,0,0,0,0,-0.008499,-0.002021,0.000013,1,0,0,0,0,0,0,0.031860,-0.019868,-0.000318,1,0,0,0,0,0,0
0.820000,-0.003959,0.014222,-0.000028,1,0,0,0,0,0,0,-0.009391,-0.002324,0.000016,1,0,0,0,0,0,0,0.033416,-0.020798,-0.000349,1,0,0,0,0,0,0
0.830000,-0.004093,0.015156,-0.000032,1,0,0,0,0,0,0,-0.010362,-0.002685,0.000019,1,0,0,0,0,0,0,0.035099,-0.021801,-0.000383,1,0,0,0,0,0,0
0.840000,-0.004201,0.016053,-0.000036,1,0,0,0,0,0,0,-0.011421,-0.003111,0.000023,1,0,0,0,0,0,0,0.036886,-0.022863,-0.000421,1,0,0,0,0,0,0
0.850000,-0.004284,0.016891,-0.000039,1,0,0,0,0,0,0,-0.012561,-0.003603,0.000029,1,0,0,0,0,0,0,0.038753,-0.023970,-0.000463,1,0,0,0,0,0,0
0.860000,-0.004343,0.017664,-0.000042,1,0,0,0,0,0,0,-0.013751,-0.004149,0.000036,1,0,0,0,0,0,0,0.040677,-0.025106,-0.000508,1,0,0,0,0,0,0
0.870000,-0.004378,0.018374,-0.000045,1,0,0,0,0,0,0,-0.014944,-0.004727,0.000043,1,0,0,0,0,0,0,0.042633,-0.026258,-0.000556,1,0,0,0,0,0,0
0.880000,-0.004392,0.019017,-0.000048,1,0,0,0,0,0,0,-0.016089,-0.005308,0.000052,1,0,0,0,0,0,0,0.044596,-0.027410,-0.000607,1,0,0,0,0,0,0
0.890000,-0.004386,0.019595,-0.000050,1,0,0,0,0,0,0,-0.017157,-0.005874,0.000061,1,0,0,0,0,0,0,0.046547,-0.028554,-0.000659,1,0,0,0,0,0,0
0.900000,-0.004362,0.020117,-0.000052,1,0,0,0,0,0,0,-0.018150,-0.006425,0.000070,1,0,0,0,0,0,0,0.048471,-0.029681,-0.000713,1,0,0,0,0,0,0
0.910000,-0.004323,0.020599,-0.000054,1,0,0,0,0,0,0,-0.019060,-0.006953,0.000079,1,0,0,0,0,0,0,0.050364,-0.030791,-0.000768,1,0,0,0,0,0,0
0.920000,-0.004270,0.021061,-0.000055,1,0,0,0,0,0,0,-0.019880,-0.007451,0.000088,1,0,0,0,0,0,0,0.052231,-0.031884,-0.000824,1,0,0,0,0,0,0
0.930000,-0.004206,0.021535,-0.000056,1,0,0,0,0,0,0,-0.020611,-0.007919,0.000097,1,0,0,0,0,0,0,0.054082,-0.032966,-0.000882,1,0,0,0,0,0,0
0.940000,-0.004136,0.022053,-0.000058,1,0,0,0,0,0,0,-0.021260,-0.008359,0.000105,1,0,0,0,0,0,0,0.055925,-0.034041,-0.000942,1,0,0,0,0,0,0
0.950000,-0.004061,0.022642,-0.000060,1,0,0,0,0,0,0,-0.021837,-0.008774,0.000113,1,0,0,0,0,0,0,0.057770,-0.035112,-0.001004,1,0,0,0,0,0,0
0.960000,-0.003983,0.023317,-0.000062,1,0,0,0,0,0,0,-0.022360,-0.009174,0.000121,1,0,0,0,0,0,0,0.059620,-0.036182,-0.001067,1,0,0,0,0,0,0
0.970000,-0.003902,0.024078,-0.000064,1,0,0,0,0,0,0,-0.022859,-0.009571,0.000129,1,0,0,0,0,0,0,0.061476,-0.037249,-0.001132,1,0,0,0,0,0,0
0.980000,-0.003819,0.024921,-0.000066,1,0,0,0,0,0,0,-0.023363,-0.009979,0.000137,1,0,0,0,0,0,0,0.063335,-0.038311,-0.001199,1,0,0,0,0,0,0
0.990000,-0.003731,0.025832,-0.000068,1,0,0,0,0,0,0,-0.023896,-0.010410,0.000146,1,0,0,0,0,0,0,0.065194,-0.039366,-0.001268,1,0,0,0,0,0,0
1.000000,-0.003639,0.026787,-0.000071,1,0,0,0,0,0,0,-0.024466,-0.010868,0.000156,1,0,0,0,0,0,0,0.067052,-0.040415,-0.001338,1,0,0,0,0,0,0
1.010000,-0.003539,0.027748,-0.000073,1,0,0,0,0,0,0,-0.025064,-0.011347,0.000166,1,0,0,0,0,0,0,0.068919,-0.041463,-0.001411,1,0,0,0,0,0,0
1.020000,-0.003431,0.028668,-0.000075,1,0,0,0,0,0,0,-0.025674,-0.011839,0.000177,1,0,0,0,0,0,0,0.070825,-0.042528,-0.001486,1,0,0,0,0,0,0
1.030000,-0.003314,0.029509,-0.000076,1,0,0,0,0,0,0,-0.026296,-0.012346,0.000189,1,0,0,0,0,0,0,0.072760,-0.043606,-0.001565,1,0,0,0,0,0,0
1.040000,-0.003188,0.030265,-0.000077,1,0,0,0,0,0,0,-0.026946,-0.012875,0.000202,1,0,0,0,0,0,0,0.074686,-0.044677,-0.001645,1,0,0,0,0,0,0
1.050000,-0.003057,0.030946,-0.000078,1,0,0,0,0,0,0,-0.027629,-0.013430,0.000215,1,0,0,0,0,0,0,0.076565,-0.045721,-0.001726,1,0,0,0,0,0,0
1.060000,-0.002924,0.031566,-0.000078,1,0,0,0,0,0,0,-0.028307,-0.013992,0.000229,1,0,0,0,0,0,0,0.078362,-0.046720,-0.001805,1,0,0,0,0,0,0
1.070000,-0.002796,0.032178,-0.000078,1,0,0,0,0,0,0,-0.028941,-0.014538,0.000243,1,0,0,0,0,0,0,0.080054,-0.047663,-0.001881,1,0,0,0,0,0,0
1.080000,-0.002678,0.032831,-0.000077,1,0,0,0,0,0,0,-0.029519,-0.015058,0.000256,1,0,0,0,0,0,0,0.081628,-0.048545,-0.001955,1,0,0,0,0,0,0
1.090000,-0.002575,0.033545,-0.000077,1,0,0,0,0,0,0,-0.030043,-0.015551,0.000269,1,0,0,0,0,0,0,0.083085,-0.049366,-0.002024,1,0,0,0,0,0,0
1.100000,-0.002490,0.034332,-0.000077,1,0,0,0,0,0,0,-0.030517,-0.016015,0.000281,1,0,0,0,0,0,0,0.084424,-0.050127,-0.002090,1,0,0,0,0,0,0
1.110000,-0.002426,0.035200,-0.000077,1,0,0,0,0,0,0,-0.030945,-0.016452,0.000292,1,0,0,0,0,0,0,0.085644,-0.050825,-0.002151,1,0,0,0,0,0,0
1.120000,-0.002385,0.036148,-0.000078,1,0,0,0,0,0,0,-0.031328,-0.016859,0.000303,1,0,0,0,0,0,0,0.086736,-0.051455,-0.002207,1,0,0,0,0,0,0
1.130000,-0.002365,0.037160,-0.000078,1,0,0,0,0,0,0,-0.031665,-0.017235,0.000312,1,0,0,0,0,0,0,0.087684,-0.052006,-0.002257,1,0,0,0,0,0,0
1.140000,-0.002367,0.038227,-0.000078,1,0,0,0,0,0,0,-0.031966,-0.017583,0.000321,1,0,0,0,0,0,0,0.088476,-0.052472,-0.002299,1,0,0,0,0,0,0
1.150000,-0.002385,0.039310,-0.000079,1,0,0,0,0,0,0,-0.032235,-0.017903,0.000329,1,0,0,0,0,0,0,0.089102,-0.052847,-0.002334,1,0,0,0,0,0,0
1.160000,-0.002403,0.040308,-0.000079,1,0,0,0,0,0,0,-0.032478,-0.018197,0.000336,1,0,0,0,0,0,0,0.089559,-0.053132,-0.002361,1,0,0,0,0,0,0
1.170000,-0.002413,0.041166,-0.000080,1,0,0,0,0,0,0,-0.032716,-0.018470,0.000342,1,0,0,0,0,0,0,0.089856,-0.053332,-0.002381,1,0,0,0,0,0,0
1.180000,-0.002414,0.041883,-0.000079,1,0,0,0,0,0,0,-0.032958,-0.018726,0.000348,1,0,0,0,0,0,0,0.090005,-0.053457,-0.002393,1,0,0,0,0,0,0
1.190000,-0.002409,0.042462,-0.000079,1,0,0,0,0,0,0,-0.033200,-0.018962,0.000354,1,0,0,0,0,0,0,0.090022,-0.053518,-0.002399,1,0,0,0,0,0,0
1.200000,-0.002405,0.042961,-0.000079,1,0,0,0,0,0,0,-0.033434,-0.019175,0.000359,1,0,0,0,0,0,0,0.089926,-0.053525,-0.002401,1,0,0,0,0,0,0
1.210000,-0.002406,0.043414,-0.000078,1,0,0,0,0,0,0,-0.033666,-0.019367,0.000363,1,0,0,0,0,0,0,0.089732,-0.053488,-0.002398,1,0,0,0,0,0,0
1.220000,-0.002413,0.043816,-0.000077,1,0,0,0,0,0,0,-0.033877,-0.019532,0.000366,1,0,0,0,0,0,0,0.089455,-0.053415,-0.002392,1,0,0,0,0,0,0
1.230000,-0.002423,0.044157,-0.000077,1,0,0,0,0,0,0,-0.034029,-0.019656,0.000368,1,0,0,0,0,0,0,0.089105,-0.053307,-0.002382,1,0,0,0,0,0,0
1.240000,-0.002435,0.044429,-0.000076,1,0,0,0,0,0,0,-0.034103,-0.019733,0.000369,1,0,0,0,0,0,0,0.088686,-0.053166,-0.002370,1,0,0,0,0,0,0
1.250000,-0.002449,0.044634,-0.000075,1,0,0,0,0,0,0,-0.034094,-0.019760,0.000368,1,0,0,0,0,0,0,0.088201,-0.052990,-0.002354,1,0,0,0,0,0,0
1.260000,-0.002467,0.044774,-0.000074,1,0,0,0,0,0,0,-0.034020,-0.019745,0.000365,1,0,0,0,0,0,0,0.087651,-0.052776,-0.002334,1,0,0,0,0,0,0
1.270000,-0.002490,0.044858,-0.000073,1,0,0,0,0,0,0,-0.033906,-0.019697,0.000362,1,0,0,0,0,0,0,0.087032,-0.052519,-0.002310,1,0,0,0,0,0,0
1.280000,-0.002519,0.044893,-0.000072,1,0,0,0,0,0,0,-0.033772,-0.019627,0.000358,1,0,0,0,0,0,0,0.086334,-0.052213,-0.002282,1,0,0,0,0,0,0
1.290000,-0.002556,0.044885,-0.000071,1,0,0,0,0,0,0,-0.033634,-0.019540,0.000353,1,0,0,0,0,0,0,0.085541,-0.051847,-0.002249,1,0,0,0,0,0,0
1.300000,-0.002603,0.044836,-0.000070,1,0,0,0,0,0,0,-0.033501,-0.019441,0.000348,1,0,0,0,0,0,0,0.084636,-0.051412,-0.002211,1,0,0,0,0,0,0
1.310000,-0.002661,0.044745,-0.000069,1,0,0,0,0,0,0,-0.033380,-0.019335,0.000343,1,0,0,0,0,0,0,0.083609,-0.050904,-0.002166,1,0,0,0,0,0,0
1.320000,-0.002730,0.044613,-0.000068,1,0,0,0,0,0,0,-0.033282,-0.019225,0.000338,1,0,0,0,0,0,0,0.082458,-0.050320,-0.002115,1,0,0,0,0,0,0
1.330000,-0.002814,0.044442,-0.000067,1,0,0,0,0,0,0,-0.033222,-0.019118,0.000334,1,0,0,0,0,0,0,0.081188,-0.049664,-0.002059,1,0,0,0,0,0,0
1.340000,-0.002914,0.044239,-0.000066,1,0,0,0,0,0,0,-0.033205,-0.019015,0.000329,1,0,0,0,0,0,0,0.079800,-0.048937,-0.001998,1,0,0,0,0,0,0
1.350000,-0.003034,0.044012,-0.000065,1,0,0,0,0,0,0,-0.033225,-0.018913,0.000325,1,0,0,0,0,0,0,0.078302,-0.048140,-0.001932,1,0,0,0,0,0,0
1.360000,-0.003179,0.043769,-0.000065,1,0,0,0,0,0,0,-0.033260,-0.018803,0.000321,1,0,0,0,0,0,0,0.076706,-0.047279,-0.001862,1,0,0,0,0,0,0
1.370000,-0.003349,0.043511,-0.000064,1,0,0,0,0,0,0,-0.033285,-0.018674,0.000316,1,0,0,0,0,0,0,0.075024,-0.046356,-0.001789,1,0,0,0,0,0,0
1.380000,-0.003544,0.043226,-0.000063,1,0,0,0,0,0,0,-0.033296,-0.018524,0.000310,1,0,0,0,0,0,0,0.073274,-0.045380,-0.001714,1,0,0,0,0,0,0
1.390000,-0.003757,0.042887,-0.000063,1,0,0,0,0,0,0,-0.033301,-0.018354,0.000304,1,0,0,0,0,0,0,0.071480,-0.044360,-0.001637,1,0,0,0,0,0,0
1.400000,-0.003977,0.042467,-0.000062,1,0,0,0,0,0,0,-0.033298,-0.018163,0.000298,1,0,0,0,0,0,0,0.069661,-0.043308,-0.001559,1,0,0,0,0,0,0
1.410000,-0.004193,0.041942,-0.000061,1,0,0,0,0,0,0,-0.033269,-0.017946,0.000291,1,0,0,0,0,0,0,0.067837,-0.042232,-0.001482,1,0,0,0,0,0,0
1.420000,-0.004399,0.041304,-0.000060,1,0,0,0,0,0,0,-0.033188,-0.017694,0.000283,1,0,0,0,0,0,0,0.066025,-0.041142,-0.001406,1,0,0,0,0,0,0
1.430000,-0.004588,0.040557,-0.000058,1,0,0,0,0,0,0,-0.033050,-0.017406,0.000274,1,0,0,0,0,0,0,0.064240,-0.040049,-0.001331,1,0,0,0,0,0,0
1.440000,-0.004756,0.039706,-0.000056,1,0,0,0,0,0,0,-0.032876,-0.017086,0.000264,1,0,0,0,0,0,0,0.062491,-0.038958,-0.001259,1,0,0,0,0,0,0
1.450000,-0.004899,0.038761,-0.000054,1,0,0,0,0,0,0,-0.032674,-0.016739,0.000254,1,0,0,0,0,0,0,0.060782,-0.037873,-0.001190,1,0,0,0,0,0,0
1.460000,-0.005015,0.037734,-0.000051,1,0,0,0,0,0,0,-0.032445,-0.016364,0.000243,1,0,0,0,0,0,0,0.059117,-0.036799,-0.001123,1,0,0,0,0,0,0
1.470000,-0.005103,0.036638,-0.000048,1,0,0,0,0,0,0,-0.032183,-0.015962,0.000231,1,0,0,0,0,0,0,0.057495,-0.035736,-0.001058,1,0,0,0,0,0,0
1.480000,-0.005161,0.035489,-0.000045,1,0,0,0,0,0,0,-0.031878,-0.015530,0.000218,1,0,0,0,0,0,0,0.055915,-0.034686,-0.000997,1,0,0,0,0,0,0
1.490000,-0.005189,0.034306,-0.000041,1,0,0,0,0,0,0,-0.031518,-0.015072,0.000206,1,0,0,0,0,0,0,0.054375,-0.033648,-0.000938,1,0,0,0,0,0,0
1.500000,-0.005187,0.033102,-0.000038,1,0,0,0,0,0,0,-0.031095,-0.014590,0.000192,1,0,0,0,0,0,0,0.052872,-0.032623,-0.000881,1,0,0,0,0,0,0
1.510000,-0.005154,0.031879,-0.000035,1,0,0,0,0,0,0,-0.030609,-0.014091,0.000179,1,0,0,0,0,0,0,0.051406,-0.031612,-0.000827,1,0,0,0,0,0,0
1.520000,-0.005093,0.030636,-0.000031,1,0,0,0,0,0,0,-0.030064,-0.013580,0.000165,1,0,0,0,0,0,0,0.049976,-0.030616,-0.000775,1,0,0,0,0,0,0
1.530000,-0.005003,0.029370,-0.000027,1,0,0,0,0,0,0,-0.029467,-0.013067,0.000152,1,0,0,0,0,0,0,0.048582,-0.029637,-0.000726,1,0,0,0,0,0,0
1.540000,-0.004889,0.028079,-0.000024,1,0,0,0,0,0,0,-0.028826,-0.012558,0.000140,1,0,0,0,0,0,0,0.047227,-0.028677,-0.000680,1,0,0,0,0,0,0
1.550000,-0.004754,0.026764,-0.000020,1,0,0,0,0,0,0,-0.028141,-0.012058,0.000128,1,0,0,0,0,0,0,0.045912,-0.027740,-0.000636,1,0,0,0,0,0,0
1.560000,-0.004601,0.025430,-0.000017,1,0,0,0,0,0,0,-0.027408,-0.011567,0.000117,1,0,0,0,0,0,0,0.044637,-0.026825,-0.000594,1,0,0,0,0,0,0
1.570000,-0.004436,0.024091,-0.000013,1,0,0,0,0,0,0,-0.026617,-0.011086,0.000106,1,0,0,0,0,0,0,0.043398,-0.025932,-0.000555,1,0,0,0,0,0,0
1.580000,-0.004261,0.022766,-0.000010,1,0,0,0,0,0,0,-0.025756,-0.010608,0.000096,1,0,0,0,0,0,0,0.042188,-0.025058,-0.000518,1,0,0,0,0,0,0
1.590000,-0.004079,0.021474,-0.000007,1,0,0,0,0,0,0,-0.024811,-0.010128,0.000087,1,0,0,0,0,0,0,0.041009,-0.024205,-0.000483,1,0,0,0,0,0,0
1.600000,-0.003893,0.020229,-0.000004,1,0,0,0,0,0,0,-0.023770,-0.009640,0.000077,1,0,0,0,0,0,0,0.039873,-0.023379,-0.000450,1,0,0,0,0,0,0
1.610000,-0.003703,0.019022,-0.000002,1,0,0,0,0,0,0,-0.022631,-0.009137,0.000068,1,0,0,0,0,0,0,0.038786,-0.022585,-0.000420,1,0,0,0,0,0,0
1.620000,-0.003508,0.017828,0.000001,1,0,0,0,0,0,0,-0.021398,-0.008622,0.000058,1,0,0,0,0,0,0,0.037755,-0.021827,-0.000392,1,0,0,0,0,0,0
1.630000,-0.003304,0.016612,0.000003,1,0,0,0,0,0,0,-0.020087,-0.008098,0.000050,1,0,0,0,0,0,0,0.036788,-0.021112,-0.000366,1,0,0,0,0,0,0
1.640000,-0.003090,0.015356,0.000005,1,0,0,0,0,0,0,-0.018717,-0.007571,0.000041,1,0,0,0,0,0,0,0.035893,-0.020444,-0.000343,1,0,0,0,0,0,0
1.650000,-0.002867,0.014067,0.000007,1,0,0,0,0,0,0,-0.017309,-0.007045,0.000034,1,0,0,0,0,0,0,0.035078,-0.019829,-0.000323,1,0,0,0,0,0,0
1.660000,-0.002639,0.012776,0.000009,1,0,0,0,0,0,0,-0.015879,-0.006525,0.000027,1,0,0,0,0,0,0,0.034350,-0.019272,-0.000305,1,0,0,0,0,0,0
1.670000,-0.002405,0.011487,0.000011,1,0,0,0,0,0,0,-0.014442,-0.006015,0.000021,1,0,0,0,0,0,0,0.033710,-0.018775,-0.000289,1,0,0,0,0,0,0
1.680000,-0.002164,0.010198,0.000012,1,0,0,0,0,0,0,-0.013007,-0.005519,0.000015,1,0,0,0,0,0,0,0.033159,-0.018342,-0.000276,1,0,0,0,0,0,0
1.690000,-0.001915,0.008901,0.000013,1,0,0,0,0,0,0,-0.011582,-0.005037,0.000011,1,0,0,0,0,0,0,0.032698,-0.017972,-0.000266,1,0,0,0,0,0,0
1.700000,-0.001659,0.007598,0.000014,1,0,0,0,0,0,0,-0.010167,-0.004565,0.000007,1,0,0,0,0,0,0,0.032325,-0.017668,-0.000258,1,0,0,0,0,0,0
1.710000,-0.001395,0.006294,0.000015,1,0,0,0,0,0,0,-0.008761,-0.004099,0.000003,1,0,0,0,0,0,0,0.032048,-0.017435,-0.000252,1,0,0,0,0,0,0
1.720000,-0.001122,0.004998,0.000015,1,0,0,0,0,0,0,-0.007363,-0.003637,0.000000,1,0,0,0,0,0,0,0.031869,-0.017278,-0.000248,1,0,0,0,0,0,0
1.730000,-0.000841,0.003721,0.000016,1,0,0,0,0,0,0,-0.005980,-0.003181,-0.000002,1,0,0,0,0,0,0,0.031791,-0.017199,-0.000247,1,0,0,0,0,0,0
1.740000,-0.000550,0.002476,0.000015,1,0,0,0,0,0,0,-0.004623,-0.002738,-0.000003,1,0,0,0,0,0,0,0.031818,-0.017200,-0.000249,1,0,0,0,0,0,0
1.750000,-0.000250,0.001276,0.000015,1,0,0,0,0,0,0,-0.003300,-0.002310,-0.000005,1,0,0,0,0,0,0,0.031953,-0.017284,-0.000253,1,0,0,0,0,0,0
1.760000,0.000060,0.000135,0.000014,1,0,0,0,0,0,0,-0.002016,-0.001900,-0.000005,1,0,0,0,0,0,0,0.032195,-0.017450,-0.000260,1,0,0,0,0,0,0
1.770000,0.000382,-0.000932,0.000013,1,0,0,0,0,0,0,-0.000772,-0.001507,-0.000005,1,0,0,0,0,0,0,0.032535,-0.017689,-0.000269,1,0,0,0,0,0,0
1.780000,0.000716,-0.001911,0.000012,1,0,0,0,0,0,0,0.000431,-0.001131,-0.000005,1,0,0,0,0,0,0,0.032957,-0.017993,-0.000280,1,0,0,0,0,0,0
1.790000,0.001065,-0.002787,0.000010,1,0,0,0,0,0,0,0.001591,-0.000773,-0.000004,1,0,0,0,0,0,0,0.033451,-0.018352,-0.000293,1,0,0,0,0,0,0
1.800000,0.001432,-0.003542,0.000008,1,0,0,0,0,0,0,0.002703,-0.000437,-0.000003,1,0,0,0,0,0,0,0.034002,-0.018758,-0.000308,1,0,0,0,0,0,0
1.810000,0.001820,-0.004161,0.000007,1,0,0,0,0,0,0,0.003758,-0.000130,-0.000002,1,0,0,0,0,0,0,0.034602,-0.019203,-0.000324,1,0,0,0,0,0,0
1.820000,0.002233,-0.004626,0.000005,1,0,0,0,0,0,0,0.004744,0.000142,-0.000001,1,0,0,0,0,0,0,0.035239,-0.019681,-0.000341,1,0,0,0,0,0,0
1.830000,0.002674,-0.004917,0.000004,1,0,0,0,0,0,0,0.005650,0.000369,0.000000,1,0,0,0,0,0,0,0.035901,-0.020185,-0.000359,1,0,0,0,0,0,0
1.840000,0.003146,-0.005018,0.000003,1,0,0,0,0,0,0,0.006466,0.000545,0.000002,1,0,0,0,0,0,0,0.036576,-0.020704,-0.000379,1,0,0,0,0,0,0
1.850000,0.003649,-0.004916,0.000003,1,0,0,0,0,0,0,0.007186,0.000666,0.000002,1,0,0,0,0,0,0,0.037246,-0.021229,-0.000398,1,0,0,0,0,0,0
1.860000,0.004181,-0.004606,0.000003,1,0,0,0,0,0,0,0.007804,0.000728,0.000003,1,0,0,0,0,0,0,0.037900,-0.021751,-0.000418,1,0,0,0,0,0,0
1.870000,0.004736,-0.004100,0.000005,1,0,0,0,0,0,0,0.008316,0.000728,0.000003,1,0,0,0,0,0,0,0.038528,-0.022261,-0.000437,1,0,0,0,0,0,0
1.880000,0.005306,-0.003413,0.000007,1,0,0,0,0,0,0,0.008713,0.000659,0.000002,1,0,0,0,0,0,0,0.039133,-0.022758,-0.000456,1,0,0,0,0,0,0
1.890000,0.005884,-0.002560,0.000011,1,0,0,0,0,0,0,0.008990,0.000516,0.000001,1,0,0,0,0,0,0,0.039715,-0.023239,-0.000474,1,0,0,0,0,0,0
1.900000,0.006460,-0.001571,0.000016,1,0,0,0,0,0,0,0.009140,0.000294,-0.000001,1,0,0,0,0,0,0,0.040280,-0.023704,-0.000492,1,0,0,0,0,0,0
1.910000,0.007020,-0.000485,0.000022,1,0,0,0,0,0,0,0.009160,-0.000010,-0.000004,1,0,0,0,0,0,0,0.040834,-0.024153,-0.000509,1,0,0,0,0,0,0
1.920000,0.007556,0.000659,0.000029,1,0,0,0,0,0,0,0.009049,-0.000396,-0.000007,1,0,0,0,0,0,0,0.041388,-0.024590,-0.000527,1,0,0,0,0,0,0
1.930000,0.008060,0.001835,0.000037,1,0,0,0,0,0,0,0.008805,-0.000867,-0.000011,1,0,0,0,0,0,0,0.041949,-0.025018,-0.000543,1,0,0,0,0,0,0
1.940000,0.008525,0.003022,0.000045,1,0,0,0,0,0,0,0.008423,-0.001425,-0.000015,1,0,0,0,0,0,0,0.042525,-0.025440,-0.000560,1,0,0,0,0,0,0
1.950000,0.008949,0.004209,0.000054,1,0,0,0,0,0,0,0.007901,-0.002073,-0.000020,1,0,0,0,0,0,0,0.043117,-0.025856,-0.000577,1,0,0,0,0,0,0
1.960000,0.009327,0.005386,0.000062,1,0,0,0,0,0,0,0.007246,-0.002806,-0.000025,1,0,0,0,0,0,0,0.043725,-0.026267,-0.000594,1,0,0,0,0,0,0
1.970000,0.009657,0.006556,0.000071,1,0,0,0,0,0,0,0.006469,-0.003616,-0.000030,1,0,0,0,0,0,0,0.044344,-0.026673,-0.000610,1,0,0,0,0,0,0
1.980000,0.009933,0.007716,0.000080,1,0,0,0,0,0,0,0.005592,-0.004485,-0.000034,1,0,0,0,0,0,0,0.044970,-0.027071,-0.000627,1,0,0,0,0,0,0
1.990000,0.010152,0.008857,0.000089,1,0,0,0,0,0,0,0.004645,-0.005389,-0.000038,1,0,0,0,0,0,0,0.045598,-0.027461,-0.000643,1,0,0,0,0,0,0
2.000000,0.010311,0.009973,0.000098,1,0,0,0,0,0,0,0.003661,-0.006301,-0.000040,1,0,0,0,0,0,0,0.046224,-0.027842,-0.000660,1,0,0,0,0,0,0
2.010000,0.010394,0.011064,0.000107,1,0,0,0,0,0,0,0.002656,-0.007200,-0.000041,1,0,0,0,0,0,0,0.046828,-0.028203,-0.000676,1,0,0,0,0,0,0
2.020000,0.010364,0.012132,0.000115,1,0,0,0,0,0,0,0.001570,-0.008113,-0.000041,1,0,0,0,0,0,0,0.047338,-0.028501,-0.000689,1,0,0,0,0,0,0
2.030000,0.010219,0.013173,0.000123,1,0,0,0,0,0,0,0.000367,-0.009070,-0.000040,1,0,0,0,0,0,0,0.047727,-0.028720,-0.000698,1,0,0,0,0,0,0
2.040000,0.009973,0.014184,0.000130,1,0,0,0,0,0,0,-0.000952,-0.010077,-0.000038,1,0,0,0,0,0,0,0.047996,-0.028861,-0.000704,1,0,0,0,0,0,0
2.050000,0.009647,0.015170,0.000136,1,0,0,0,0,0,0,-0.002365,-0.011115,-0.000034,1,0,0,0,0,0,0,0.048152,-0.028930,-0.000707,1,0,0,0,0,0,0
2.060000,0.009263,0.016130,0.000141,1,0,0,0,0,0,0,-0.003837,-0.012156,-0.000028,1,0,0,0,0,0,0,0.048205,-0.028932,-0.000706,1,0,0,0,0,0,0
2.070000,0.008845,0.017055,0.000146,1,0,0,0,0,0,0,-0.005339,-0.013167,-0.000020,1,0,0,0,0,0,0,0.048171,-0.028876,-0.000703,1,0,0,0,0,0,0
2.080000,0.008409,0.017933,0.000149,1,0,0,0,0,0,0,-0.006848,-0.014126,-0.000012,1,0,0,0,0,0,0,0.048077,-0.028777,-0.000698,1,0,0,0,0,0,0
2.090000,0.007965,0.018748,0.000152,1,0,0,0,0,0,0,-0.008352,-0.015014,-0.000001,1,0,0,0,0,0,0,0.047956,-0.028653,-0.000691,1,0,0,0,0,0,0
2.100000,0.007516,0.019495,0.000153,1,0,0,0,0,0,0,-0.009836,-0.015820,0.000010,1,0,0,0,0,0,0,0.047850,-0.028526,-0.000685,1,0,0,0,0,0,0
2.110000,0.007065,0.020174,0.000153,1,0,0,0,0,0,0,-0.011289,-0.016537,0.000021,1,0,0,0,0,0,0,0.047796,-0.028419,-0.000680,1,0,0,0,0,0,0
2.120000,0.006611,0.020778,0.000153,1,0,0,0,0,0,0,-0.012702,-0.017161,0.000033,1,0,0,0,0,0,0,0.047826,-0.028351,-0.000676,1,0,0,0,0,0,0
2.130000,0.006151,0.021304,0.000151,1,0,0,0,0,0,0,-0.014072,-0.017693,0.000044,1,0,0,0,0,0,0,0.047965,-0.028341,-0.000676,1,0,0,0,0,0,0
2.140000,0.005683,0.021749,0.000149,1,0,0,0,0,0,0,-0.015393,-0.018133,0.000055,1,0,0,0,0,0,0,0.048237,-0.028405,-0.000679,1,0,0,0,0,0,0
2.150000,0.005203,0.022111,0.000145,1,0,0,0,0,0,0,-0.016662,-0.018485,0.000066,1,0,0,0,0,0,0,0.048674,-0.028565,-0.000687,1,0,0,0,0,0,0
2.160000,0.004706,0.022390,0.000142,1,0,0,0,0,0,0,-0.017875,-0.018752,0.000076,1,0,0,0,0,0,0,0.049319,-0.028849,-0.000702,1,0,0,0,0,0,0
2.170000,0.004186,0.022596,0.000137,1,0,0,0,0,0,0,-0.019030,-0.018938,0.000084,1,0,0,0,0,0,0,0.050236,-0.029292,-0.000724,1,0,0,0,0,0,0
2.180000,0.003635,0.022750,0.000132,1,0,0,0,0,0,0,-0.020122,-0.019046,0.000092,1,0,0,0,0,0,0,0.051490,-0.029933,-0.000758,1,0,0,0,0,0,0
2.190000,0.003049,0.022883,0.000127,1,0,0,0,0,0,0,-0.021162,-0.019082,0.000099,1,0,0,0,0,0,0,0.053141,-0.030810,-0.000804,1,0,0,0,0,0,0
2.200000,0.002423,0.023036,0.000122,1,0,0,0,0,0,0,-0.022185,-0.019050,0.000104,1,0,0,0,0,0,0,0.055234,-0.031957,-0.000867,1,0,0,0,0,0,0
2.210000,0.001756,0.023248,0.000117,1,0,0,0,0,0,0,-0.023209,-0.018952,0.000108,1,0,0,0,0,0,0,0.057798,-0.033402,-0.000950,1,0,0,0,0,0,0
2.220000,0.001041,0.023559,0.000112,1,0,0,0,0,0,0,-0.024224,-0.018777,0.000111,1,0,0,0,0,0,0,0.060852,-0.035167,-0.001055,1,0,0,0,0,0,0
2.230000,0.000272,0.024013,0.000106,1,0,0,0,0,0,0,-0.025204,-0.018519,0.000111,1,0,0,0,0,0,0,0.064398,-0.037259,-0.001187,1,0,0,0,0,0,0
2.240000,-0.000559,0.024646,0.000100,1,0,0,0,0,0,0,-0.026132,-0.018177,0.000110,1,0,0,0,0,0,0,0.068410,-0.039663,-0.001348,1,0,0,0,0,0,0
2.250000,-0.001451,0.025477,0.000093,1,0,0,0,0,0,0,-0.027011,-0.017765,0.000106,1,0,0,0,0,0,0,0.072828,-0.042341,-0.001538,1,0,0,0,0,0,0
2.260000,-0.002399,0.026536,0.000084,1,0,0,0,0,0,0,-0.027861,-0.017309,0.000101,1,0,0,0,0,0,0,0.077563,-0.045234,-0.001756,1,0,0,0,0,0,0
2.270000,-0.003387,0.027880,0.000074,1,0,0,0,0,0,0,-0.028735,-0.016839,0.000096,1,0,0,0,0,0,0,0.082507,-0.048274,-0.002000,1,0,0,0,0,0,0
2.280000,-0.004401,0.029655,0.000060,1,0,0,0,0,0,0,-0.029728,-0.016405,0.000092,1,0,0,0,0,0,0,0.087555,-0.051398,-0.002265,1,0,0,0,0,0,0
2.290000,-0.005428,0.032125,0.000040,1,0,0,0,0,0,0,-0.030950,-0.016074,0.000091,1,0,0,0,0,0,0,0.092651,-0.054569,-0.002551,1,0,0,0,0,0,0
2.300000,-0.006449,0.035564,0.000012,1,0,0,0,0,0,0,-0.032491,-0.015910,0.000095,1,0,0,0,0,0,0,0.097805,-0.057787,-0.002857,1,0,0,0,0,0,0
2.310000,-0.007440,0.040056,-0.000027,1,0,0,0,0,0,0,-0.034418,-0.015971,0.000107,1,0,0,0,0,0,0,0.103085,-0.061083,-0.003188,1,0,0,0,0,0,0
2.320000,-0.008396,0.045551,-0.000077,1,0,0,0,0,0,0,-0.036824,-0.016317,0.000129,1,0,0,0,0,0,0,0.108542,-0.064472,-0.003546,1,0,0,0,0,0,0
2.330000,-0.009328,0.051957,-0.000141,1,0,0,0,0,0,0,-0.039839,-0.017023,0.000166,1,0,0,0,0,0,0,0.114136,-0.067919,-0.003929,1,0,0,0,0,0,0
2.340000,-0.010259,0.059096,-0.000217,1,0,0,0,0,0,0,-0.043625,-0.018172,0.000225,1,0,0,0,0,0,0,0.119731,-0.071339,-0.004328,1,0,0,0,0,0,0
2.350000,-0.011212,0.066843,-0.000306,1,0,0,0,0,0,0,-0.048294,-0.019827,0.000311,1,0,0,0,0,0,0,0.125148,-0.074631,-0.004731,1,0,0,0,0,0,0
2.360000,-0.012194,0.075142,-0.000408,1,0,0,0,0,0,0,-0.053811,-0.021984,0.000431,1,0,0,0,0,0,0,0.130254,-0.077731,-0.005126,1,0,0,0,0,0,0
2.370000,-0.013147,0.083764,-0.000521,1,0,0,0,0,0,0,-0.060085,-0.024622,0.000591,1,0,0,0,0,0,0,0.135010,-0.080625,-0.005510,1,0,0,0,0,0,0
2.380000,-0.013938,0.092345,-0.000640,1,0,0,0,0,0,0,-0.067030,-0.027731,0.000798,1,0,0,0,0,0,0,0.139448,-0.083327,-0.005880,1,0,0,0,0,0,0
2.390000,-0.014429,0.100663,-0.000759,1,0,0,0,0,0,0,-0.074501,-0.031261,0.001055,1,0,0,0,0,0,0,0.143608,-0.085851,-0.006237,1,0,0,0,0,0,0
2.400000,-0.014534,0.108776,-0.000876,1,0,0,0,0,0,0,-0.082331,-0.035121,0.001365,1,0,0,0,0,0,0,0.147524,-0.088201,-0.006579,1,0,0,0,0,0,0
2.410000,-0.014256,0.116959,-0.000991,1,0,0,0,0,0,0,-0.090256,-0.039137,0.001717,1,0,0,0,0,0,0,0.151245,-0.090394,-0.006907,1,0,0,0,0,0,0
2.420000,-0.013752,0.125401,-0.001103,1,0,0,0,0,0,0,-0.097862,-0.043042,0.002089,1,0,0,0,0,0,0,0.154847,-0.092458,-0.007223,1,0,0,0,0,0,0
2.430000,-0.013278,0.133939,-0.001207,1,0,0,0,0,0,0,-0.104936,-0.046737,0.002466,1,0,0,0,0,0,0,0.158391,-0.094411,-0.007529,1,0,0,0,0,0,0
2.440000,-0.012987,0.142201,-0.001300,1,0,0,0,0,0,0,-0.111638,-0.050406,0.002865,1,0,0,0,0,0,0,0.161898,-0.096252,-0.007825,1,0,0,0,0,0,0
2.450000,-0.012845,0.149785,-0.001379,1,0,0,0,0,0,0,-0.118330,-0.054423,0.003327,1,0,0,0,0,0,0,0.165367,-0.097976,-0.008110,1,0,0,0,0,0,0
2.460000,-0.012631,0.156439,-0.001441,1,0,0,0,0,0,0,-0.125127,-0.058958,0.003877,1,0,0,0,0,0,0,0.168811,-0.099605,-0.008386,1,0,0,0,0,0,0
2.470000,-0.012113,0.162220,-0.001488,1,0,0,0,0,0,0,-0.131703,-0.063725,0.004483,1,0,0,0,0,0,0,0.172240,-0.101170,-0.008659,1,0,0,0,0,0,0
2.480000,-0.011211,0.167373,-0.001520,1,0,0,0,0,0,0,-0.137738,-0.068393,0.005102,1,0,0,0,0,0,0,0.175607,-0.102676,-0.008928,1,0,0,0,0,0,0
2.490000,-0.010036,0.172105,-0.001539,1,0,0,0,0,0,0,-0.142982,-0.072595,0.005676,1,0,0,0,0,0,0,0.178789,-0.104082,-0.009188,1,0,0,0,0,0,0
2.500000,-0.008803,0.176412,-0.001542,1,0,0,0,0,0,0,-0.147403,-0.076130,0.006168,1,0,0,0,0,0,0,0.181629,-0.105324,-0.009423,1,0,0,0,0,0,0
2.510000,-0.007661,0.180151,-0.001530,1,0,0,0,0,0,0,-0.151185,-0.079081,0.006582,1,0,0,0,0,0,0,0.183997,-0.106335,-0.009620,1,0,0,0,0,0,0
2.520000,-0.006682,0.183190,-0.001504,1,0,0,0,0,0,0,-0.154464,-0.081590,0.006936,1,0,0,0,0,0,0,0.185810,-0.107069,-0.009770,1,0,0,0,0,0,0
2.530000,-0.005900,0.185526,-0.001468,1,0,0,0,0,0,0,-0.157214,-0.083671,0.007228,1,0,0,0,0,0,0,0.187016,-0.107500,-0.009864,1,0,0,0,0,0,0
2.540000,-0.005337,0.187309,-0.001424,1,0,0,0,0,0,0,-0.159400,-0.085264,0.007445,1,0,0,0,0,0,0,0.187588,-0.107633,-0.009902,1,0,0,0,0,0,0
2.550000,-0.005003,0.188774,-0.001376,1,0,0,0,0,0,0,-0.161082,-0.086380,0.007588,1,0,0,0,0,0,0,0.187550,-0.107509,-0.009893,1,0,0,0,0,0,0
2.560000,-0.004862,0.190110,-0.001329,1,0,0,0,0,0,0,-0.162369,-0.087131,0.007674,1,0,0,0,0,0,0,0.186977,-0.107199,-0.009847,1,0,0,0,0,0,0
2.570000,-0.004847,0.191377,-0.001282,1,0,0,0,0,0,0,-0.163295,-0.087631,0.007721,1,0,0,0,0,0,0,0.185953,-0.106764,-0.009778,1,0,0,0,0,0,0
2.580000,-0.004914,0.192582,-0.001237,1,0,0,0,0,0,0,-0.163817,-0.087904,0.007732,1,0,0,0,0,0,0,0.184514,-0.106231,-0.009689,1,0,0,0,0,0,0
2.590000,-0.005056,0.193765,-0.001195,1,0,0,0,0,0,0,-0.163937,-0.087930,0.007704,1,0,0,0,0,0,0,0.182605,-0.105577,-0.009577,1,0,0,0,0,0,0
2.600000,-0.005275,0.195040,-0.001158,1,0,0,0,0,0,0,-0.163823,-0.087759,0.007646,1,0,0,0,0,0,0,0.180123,-0.104747,-0.009431,1,0,0,0,0,0,0
2.610000,-0.005551,0.196528,-0.001125,1,0,0,0,0,0,0,-0.163755,-0.087567,0.007586,1,0,0,0,0,0,0,0.177009,-0.103703,-0.009245,1,0,0,0,0,0,0
2.620000,-0.005842,0.198206,-0.001098,1,0,0,0,0,0,0,-0.163964,-0.087582,0.007564,1,0,0,0,0,0,0,0.173314,-0.102444,-0.009021,1,0,0,0,0,0,0
2.630000,-0.006127,0.199854,-0.001074,1,0,0,0,0,0,0,-0.164462,-0.087920,0.007597,1,0,0,0,0,0,0,0.169200,-0.101008,-0.008767,1,0,0,0,0,0,0
2.640000,-0.006418,0.201188,-0.001053,1,0,0,0,0,0,0,-0.165175,-0.088556,0.007681,1,0,0,0,0,0,0,0.164860,-0.099429,-0.008490,1,0,0,0,0,0,0
2.650000,-0.006716,0.201963,-0.001032,1,0,0,0,0,0,0,-0.166070,-0.089405,0.007802,1,0,0,0,0,0,0,0.160453,-0.097718,-0.008194,1,0,0,0,0,0,0
2.660000,-0.006974,0.202015,-0.001009,1,0,0,0,0,0,0,-0.167128,-0.090378,0.007945,1,0,0,0,0,0,0,0.156062,-0.095856,-0.007877,1,0,0,0,0,0,0
2.670000,-0.007089,0.201229,-0.000984,1,0,0,0,0,0,0,-0.168227,-0.091376,0.008092,1,0,0,0,0,0,0,0.151714,-0.093818,-0.007538,1,0,0,0,0,0,0
2.680000,-0.006971,0.199637,-0.000954,1,0,0,0,0,0,0,-0.169198,-0.092321,0.008231,1,0,0,0,0,0,0,0.147407,-0.091592,-0.007178,1,0,0,0,0,0,0
2.690000,-0.006610,0.197388,-0.000922,1,0,0,0,0,0,0,-0.169895,-0.093140,0.008348,1,0,0,0,0,0,0,0.143146,-0.089195,-0.006802,1,0,0,0,0,0,0
2.700000,-0.006080,0.194672,-0.000888,1,0,0,0,0,0,0,-0.170186,-0.093730,0.008426,1,0,0,0,0,0,0,0.138950,-0.086663,-0.006416,1,0,0,0,0,0,0
2.710000,-0.005494,0.191664,-0.000853,1,0,0,0,0,0,0,-0.169976,-0.093987,0.008445,1,0,0,0,0,0,0,0.134828,-0.084033,-0.006029,1,0,0,0,0,0,0
2.720000,-0.004987,0.188438,-0.000817,1,0,0,0,0,0,0,-0.169199,-0.093844,0.008394,1,0,0,0,0,0,0,0.130757,-0.081321,-0.005643,1,0,0,0,0,0,0
2.730000,-0.004680,0.184931,-0.000780,1,0,0,0,0,0,0,-0.167847,-0.093301,0.008276,1,0,0,0,0,0,0,0.126673,-0.078511,-0.005258,1,0,0,0,0,0,0
2.740000,-0.004649,0.181021,-0.000741,1,0,0,0,0,0,0,-0.165930,-0.092389,0.008096,1,0,0,0,0,0,0,0.122498,-0.075571,-0.004870,1,0,0,0,0,0,0
2.750000,-0.004890,0.176579,-0.000700,1,0,0,0,0,0,0,-0.163503,-0.091148,0.007863,1,0,0,0,0,0,0,0.118169,-0.072472,-0.004479,1,0,0,0,0,0,0
2.760000,-0.005324,0.171543,-0.000657,1,0,0,0,0,0,0,-0.160681,-0.089617,0.007588,1,0,0,0,0,0,0,0.113651,-0.069207,-0.004084,1,0,0,0,0,0,0
2.770000,-0.005862,0.165970,-0.000611,1,0,0,0,0,0,0,-0.157633,-0.087840,0.007279,1,0,0,0,0,0,0,0.108924,-0.065785,-0.003690,1,0,0,0,0,0,0
2.780000,-0.006386,0.159991,-0.000565,1,0,0,0,0,0,0,-0.154454,-0.085832,0.006940,1,0,0,0,0,0,0,0.103979,-0.062237,-0.003302,1,0,0,0,0,0,0
2.790000,-0.006824,0.153784,-0.000518,1,0,0,0,0,0,0,-0.151120,-0.083550,0.006568,1,0,0,0,0,0,0,0.098829,-0.058616,-0.002927,1,0,0,0,0,0,0
2.800000,-0.007206,0.147535,-0.000472,1,0,0,0,0,0,0,-0.147524,-0.080893,0.006151,1,0,0,0,0,0,0,0.093537,-0.055002,-0.002574,1,0,0,0,0,0,0
2.810000,-0.007656,0.141381,-0.000428,1,0,0,0,0,0,0,-0.143548,-0.077730,0.005674,1,0,0,0,0,0,0,0.088214,-0.051496,-0.002252,1,0,0,0,0,0,0
2.820000,-0.008325,0.135370,-0.000385,1,0,0,0,0,0,0,-0.139146,-0.073959,0.005128,1,0,0,0,0,0,0,0.082983,-0.048192,-0.001968,1,0,0,0,0,0,0
2.830000,-0.009328,0.129496,-0.000342,1,0,0,0,0,0,0,-0.134354,-0.069617,0.004527,1,0,0,0,0,0,0,0.077941,-0.045159,-0.001724,1,0,0,0,0,0,0
2.840000,-0.010669,0.123675,-0.000297,1,0,0,0,0,0,0,-0.129316,-0.064843,0.003898,1,0,0,0,0,0,0,0.073131,-0.042424,-0.001518,1,0,0,0,0,0,0
2.850000,-0.012269,0.117832,-0.000249,1,0,0,0,0,0,0,-0.124205,-0.059854,0.003274,1,0,0,0,0,0,0,0.068554,-0.039984,-0.001346,1,0,0,0,0,0,0
2.860000,-0.014024,0.112000,-0.000198,1,0,0,0,0,0,0,-0.119158,-0.054870,0.002685,1,0,0,0,0,0,0,0.064207,-0.037831,-0.001204,1,0,0,0,0,0,0
2.870000,-0.015805,0.106284,-0.000144,1,0,0,0,0,0,0,-0.114240,-0.050048,0.002149,1,0,0,0,0,0,0,0.060096,-0.035964,-0.001088,1,0,0,0,0,0,0
2.880000,-0.017521,0.100870,-0.000092,1,0,0,0,0,0,0,-0.109434,-0.045456,0.001670,1,0,0,0,0,0,0,0.056240,-0.034382,-0.000996,1,0,0,0,0,0,0
2.890000,-0.019126,0.095952,-0.000046,1,0,0,0,0,0,0,-0.104680,-0.041085,0.001244,1,0,0,0,0,0,0,0.052674,-0.033087,-0.000924,1,0,0,0,0,0,0
2.900000,-0.020614,0.091626,-0.000010,1,0,0,0,0,0,0,-0.099980,-0.036929,0.000868,1,0,0,0,0,0,0,0.049441,-0.032073,-0.000869,1,0,0,0,0,0,0
2.910000,-0.021993,0.087883,0.000016,1,0,0,0,0,0,0,-0.095428,-0.033043,0.000542,1,0,0,0,0,0,0,0.046590,-0.031323,-0.000829,1,0,0,0,0,0,0
2.920000,-0.023261,0.084604,0.000033,1,0,0,0,0,0,0,-0.091056,-0.029465,0.000267,1,0,0,0,0,0,0,0.044210,-0.030838,-0.000802,1,0,0,0,0,0,0
2.930000,-0.024391,0.081669,0.000044,1,0,0,0,0,0,0,-0.086911,-0.026260,0.000043,1,0,0,0,0,0,0,0.042436,-0.030649,-0.000787,1,0,0,0,0,0,0
2.940000,-0.025341,0.079029,0.000048,1,0,0,0,0,0,0,-0.083095,-0.023530,-0.000126,1,0,0,0,0,0,0,0.041350,-0.030755,-0.000784,1,0,0,0,0,0,0
2.950000,-0.026061,0.076659,0.000046,1,0,0,0,0,0,0,-0.079726,-0.021384,-0.000236,1,0,0,0,0,0,0,0.040947,-0.031114,-0.000790,1,0,0,0,0,0,0
2.960000,-0.026519,0.074593,0.000038,1,0,0,0,0,0,0,-0.076854,-0.019859,-0.000290,1,0,0,0,0,0,0,0.041160,-0.031662,-0.000804,1,0,0,0,0,0,0
2.970000,-0.026702,0.072899,0.000022,1,0,0,0,0,0,0,-0.074442,-0.018914,-0.000298,1,0,0,0,0,0,0,0.041903,-0.032343,-0.000823,1,0,0,0,0,0,0
2.980000,-0.026623,0.071558,-0.000003,1,0,0,0,0,0,0,-0.072456,-0.018495,-0.000268,1,0,0,0,0,0,0,0.043091,-0.033112,-0.000847,1,0,0,0,0,0,0
2.990000,-0.026311,0.070426,-0.000031,1,0,0,0,0,0,0,-0.070855,-0.018534,-0.000207,1,0,0,0,0,0,0,0.044650,-0.033936,-0.000875,1,0,0,0,0,0,0
3.000000,-0.025770,0.069340,-0.000058,1,0,0,0,0,0,0,-0.069604,-0.018964,-0.000123,1,0,0,0,0,0,0,0.046507,-0.034788,-0.000906,1,0,0,0,0,0,0
3.010000,-0.024990,0.068169,-0.000080,1,0,0,0,0,0,0,-0.068658,-0.019710,-0.000022,1,0,0,0,0,0,0,0.048631,-0.035657,-0.000941,1,0,0,0,0,0,0
3.020000,-0.023962,0.066884,-0.000097,1,0,0,0,0,0,0,-0.067970,-0.020701,0.000090,1,0,0,0,0,0,0,0.050988,-0.036532,-0.000980,1,0,0,0,0,0,0
3.030000,-0.022688,0.065584,-0.000111,1,0,0,0,0,0,0,-0.067546,-0.021909,0.000212,1,0,0,0,0,0,0,0.053516,-0.037390,-0.001021,1,0,0,0,0,0,0
3.040000,-0.021206,0.064443,-0.000126,1,0,0,0,0,0,0,-0.067358,-0.023280,0.000339,1,0,0,0,0,0,0,0.056128,-0.038204,-0.001063,1,0,0,0,0,0,0
3.050000,-0.019593,0.063649,-0.000145,1,0,0,0,0,0,0,-0.067297,-0.024696,0.000464,1,0,0,0,0,0,0,0.058733,-0.038950,-0.001106,1,0,0,0,0,0,0
3.060000,-0.017963,0.063297,-0.000170,1,0,0,0,0,0,0,-0.067276,-0.026051,0.000580,1,0,0,0,0,0,0,0.061254,-0.039613,-0.001147,1,0,0,0,0,0,0
3.070000,-0.016435,0.063361,-0.000197,1,0,0,0,0,0,0,-0.067246,-0.027276,0.000683,1,0,0,0,0,0,0,0.063637,-0.040195,-0.001186,1,0,0,0,0,0,0
3.080000,-0.015095,0.063732,-0.000225,1,0,0,0,0,0,0,-0.067191,-0.028347,0.000771,1,0,0,0,0,0,0,0.065853,-0.040714,-0.001225,1,0,0,0,0,0,0
3.090000,-0.013995,0.064311,-0.000251,1,0,0,0,0,0,0,-0.067145,-0.029293,0.000848,1,0,0,0,0,0,0,0.067893,-0.041202,-0.001264,1,0,0,0,0,0,0
3.100000,-0.013162,0.065025,-0.000275,1,0,0,0,0,0,0,-0.067173,-0.030157,0.000916,1,0,0,0,0,0,0,0.069774,-0.041701,-0.001305,1,0,0,0,0,0,0
3.110000,-0.012597,0.065827,-0.000296,1,0,0,0,0,0,0,-0.067337,-0.030959,0.000977,1,0,0,0,0,0,0,0.071530,-0.042260,-0.001354,1,0,0,0,0,0,0
3.120000,-0.012252,0.066670,-0.000315,1,0,0,0,0,0,0,-0.067693,-0.031678,0.001031,1,0,0,0,0,0,0,0.073205,-0.042926,-0.001411,1,0,0,0,0,0,0
3.130000,-0.012048,0.067559,-0.000333,1,0,0,0,0,0,0,-0.068290,-0.032261,0.001074,1,0,0,0,0,0,0,0.074843,-0.043737,-0.001481,1,0,0,0,0,0,0
3.140000,-0.011917,0.068573,-0.000350,1,0,0,0,0,0,0,-0.069157,-0.032665,0.001104,1,0,0,0,0,0,0,0.076470,-0.044715,-0.001564,1,0,0,0,0,0,0
3.150000,-0.011838,0.069853,-0.000369,1,0,0,0,0,0,0,-0.070290,-0.032882,0.001121,1,0,0,0,0,0,0,0.078094,-0.045870,-0.001663,1,0,0,0,0,0,0
3.160000,-0.011860,0.071553,-0.000393,1,0,0,0,0,0,0,-0.071676,-0.032928,0.001127,1,0,0,0,0,0,0,0.079708,-0.047200,-0.001776,1,0,0,0,0,0,0
3.170000,-0.012101,0.073750,-0.000422,1,0,0,0,0,0,0,-0.073279,-0.032807,0.001121,1,0,0,0,0,0,0,0.081294,-0.048695,-0.001904,1,0,0,0,0,0,0
3.180000,-0.012698,0.076409,-0.000456,1,0,0,0,0,0,0,-0.075008,-0.032491,0.001101,1,0,0,0,0,0,0,0.082844,-0.050339,-0.002044,1,0,0,0,0,0,0
3.190000,-0.013751,0.079423,-0.000498,1,0,0,0,0,0,0,-0.076772,-0.031945,0.001066,1,0,0,0,0,0,0,0.084363,-0.052112,-0.002197,1,0,0,0,0,0,0
3.200000,-0.015259,0.082663,-0.000548,1,0,0,0,0,0,0,-0.078538,-0.031168,0.001014,1,0,0,0,0,0,0,0.085891,-0.053994,-0.002359,1,0,0,0,0,0,0
3.210000,-0.017106,0.086041,-0.000606,1,0,0,0,0,0,0,-0.080347,-0.030254,0.000953,1,0,0,0,0,0,0,0.087504,-0.055969,-0.002529,1,0,0,0,0,0,0
3.220000,-0.019119,0.089546,-0.000677,1,0,0,0,0,0,0,-0.082292,-0.029376,0.000895,1,0,0,0,0,0,0,0.089296,-0.058021,-0.002708,1,0,0,0,0,0,0
3.230000,-0.021116,0.093233,-0.000760,1,0,0,0,0,0,0,-0.084550,-0.028757,0.000861,1,0,0,0,0,0,0,0.091333,-0.060119,-0.002892,1,0,0,0,0,0,0
3.240000,-0.022961,0.097186,-0.000860,1,0,0,0,0,0,0,-0.087306,-0.028614,0.000869,1,0,0,0,0,0,0,0.093626,-0.062218,-0.003080,1,0,0,0,0,0,0
3.250000,-0.024588,0.101484,-0.000976,1,0,0,0,0,0,0,-0.090476,-0.028991,0.000924,1,0,0,0,0,0,0,0.096125,-0.064259,-0.003265,1,0,0,0,0,0,0
3.260000,-0.026004,0.106124,-0.001110,1,0,0,0,0,0,0,-0.093945,-0.029817,0.001023,1,0,0,0,0,0,0,0.098742,-0.066184,-0.003443,1,0,0,0,0,0,0
3.270000,-0.027270,0.111041,-0.001257,1,0,0,0,0,0,0,-0.097660,-0.031010,0.001161,1,0,0,0,0,0,0,0.101382,-0.067940,-0.003610,1,0,0,0,0,0,0
3.280000,-0.028446,0.116143,-0.001416,1,0,0,0,0,0,0,-0.101567,-0.032484,0.001330,1,0,0,0,0,0,0,0.103946,-0.069477,-0.003758,1,0,0,0,0,0,0
3.290000,-0.029557,0.121290,-0.001581,1,0,0,0,0,0,0,-0.105644,-0.034203,0.001528,1,0,0,0,0,0,0,0.106341,-0.070745,-0.003884,1,0,0,0,0,0,0
3.300000,-0.030562,0.126293,-0.001746,1,0,0,0,0,0,0,-0.109881,-0.036173,0.001759,1,0,0,0,0,0,0,0.108496,-0.071711,-0.003980,1,0,0,0,0,0,0
3.310000,-0.031360,0.130982,-0.001904,1,0,0,0,0,0,0,-0.114290,-0.038422,0.002028,1,0,0,0,0,0,0,0.110382,-0.072360,-0.004046,1,0,0,0,0,0,0
3.320000,-0.031842,0.135288,-0.002052,1,0,0,0,0,0,0,-0.118877,-0.040957,0.002336,1,0,0,0,0,0,0,0.111999,-0.072703,-0.004080,1,0,0,0,0,0,0
3.330000,-0.031949,0.139246,-0.002187,1,0,0,0,0,0,0,-0.123607,-0.043744,0.002684,1,0,0,0,0,0,0,0.113347,-0.072758,-0.004085,1,0,0,0,0,0,0
3.340000,-0.031700,0.142908,-0.002309,1,0,0,0,0,0,0,-0.128391,-0.046707,0.003063,1,0,0,0,0,0,0,0.114392,-0.072540,-0.004061,1,0,0,0,0,0,0
3.350000,-0.031182,0.146269,-0.002415,1,0,0,0,0,0,0,-0.133097,-0.049739,0.003460,1,0,0,0,0,0,0,0.115078,-0.072059,-0.004010,1,0,0,0,0,0,0
3.360000,-0.030482,0.149273,-0.002504,1,0,0,0,0,0,0,-0.137583,-0.052720,0.003860,1,0,0,0,0,0,0,0.115358,-0.071340,-0.003933,1,0,0,0,0,0,0
3.370000,-0.029651,0.151878,-0.002573,1,0,0,0,0,0,0,-0.141714,-0.055516,0.004242,1,0,0,0,0,0,0,0.115242,-0.070441,-0.003839,1,0,0,0,0,0,0
3.380000,-0.028695,0.154101,-0.002622,1,0,0,0,0,0,0,-0.145329,-0.057981,0.004583,1,0,0,0,0,0,0,0.114812,-0.069457,-0.003737,1,0,0,0,0,0,0
3.390000,-0.027617,0.156029,-0.002656,1,0,0,0,0,0,0,-0.148364,-0.060050,0.004870,1,0,0,0,0,0,0,0.114191,-0.068503,-0.003641,1,0,0,0,0,0,0
3.400000,-0.026462,0.157778,-0.002677,1,0,0,0,0,0,0,-0.150849,-0.061754,0.005104,1,0,0,0,0,0,0,0.113498,-0.067684,-0.003563,1,0,0,0,0,0,0
3.410000,-0.025340,0.159409,-0.002687,1,0,0,0,0,0,0,-0.152833,-0.063171,0.005296,1,0,0,0,0,0,0,0.112800,-0.067060,-0.003508,1,0,0,0,0,0,0
3.420000,-0.024383,0.160874,-0.002687,1,0,0,0,0,0,0,-0.154310,-0.064353,0.005453,1,0,0,0,0,0,0,0.112118,-0.066648,-0.003478,1,0,0,0,0,0,0
3.430000,-0.023668,0.162030,-0.002674,1,0,0,0,0,0,0,-0.155223,-0.065279,0.005569,1,0,0,0,0,0,0,0.111460,-0.066443,-0.003471,1,0,0,0,0,0,0
3.440000,-0.023171,0.162699,-0.002646,1,0,0,0,0,0,0,-0.155548,-0.065886,0.005636,1,0,0,0,0,0,0,0.110844,-0.066436,-0.003485,1,0,0,0,0,0,0
3.450000,-0.022783,0.162778,-0.002603,1,0,0,0,0,0,0,-0.155359,-0.066152,0.005647,1,0,0,0,0,0,0,0.110304,-0.066620,-0.003519,1,0,0,0,0,0,0
3.460000,-0.022358,0.162289,-0.002547,1,0,0,0,0,0,0,-0.154814,-0.066126,0.005614,1,0,0,0,0,0,0,0.109857,-0.066984,-0.003570,1,0,0,0,0,0,0
3.470000,-0.021829,0.161408,-0.002483,1,0,0,0,0,0,0,-0.154086,-0.065907,0.005550,1,0,0,0,0,0,0,0.109507,-0.067504,-0.003636,1,0,0,0,0,0,0
3.480000,-0.021241,0.160388,-0.002417,1,0,0,0,0,0,0,-0.153243,-0.065555,0.005467,1,0,0,0,0,0,0,0.109260,-0.068149,-0.003712,1,0,0,0,0,0,0
3.490000,-0.020716,0.159442,-0.002353,1,0,0,0,0,0,0,-0.152234,-0.065041,0.005361,1,0,0,0,0,0,0,0.109154,-0.068896,-0.003797,1,0,0,0,0,0,0
3.500000,-0.020380,0.158622,-0.002294,1,0,0,0,0,0,0,-0.150959,-0.064286,0.005220,1,0,0,0,0,0,0,0.109256,-0.069730,-0.003888,1,0,0,0,0,0,0
3.510000,-0.020308,0.157828,-0.002236,1,0,0,0,0,0,0,-0.149368,-0.063245,0.005040,1,0,0,0,0,0,0,0.109622,-0.070625,-0.003984,1,0,0,0,0,0,0
3.520000,-0.020512,0.156908,-0.002178,1,0,0,0,0,0,0,-0.147487,-0.061971,0.004829,1,0,0,0,0,0,0,0.110247,-0.071534,-0.004079,1,0,0,0,0,0,0
3.530000,-0.020954,0.155773,-0.002119,1,0,0,0,0,0,0,-0.145389,-0.060592,0.004608,1,0,0,0,0,0,0,0.111056,-0.072391,-0.004168,1,0,0,0,0,0,0
3.540000,-0.021540,0.154414,-0.002058,1,0,0,0,0,0,0,-0.143160,-0.059259,0.004401,1,0,0,0,0,0,0,0.111930,-0.073127,-0.004242,1,0,0,0,0,0,0
3.550000,-0.022144,0.152907,-0.001999,1,0,0,0,0,0,0,-0.140844,-0.058077,0.004221,1,0,0,0,0,0,0,0.112748,-0.073682,-0.004297,1,0,0,0,0,0,0
3.560000,-0.022623,0.151350,-0.001942,1,0,0,0,0,0,0,-0.138513,-0.057113,0.004076,1,0,0,0,0,0,0,0.113408,-0.074011,-0.004326,1,0,0,0,0,0,0
3.570000,-0.022846,0.149811,-0.001891,1,0,0,0,0,0,0,-0.136308,-0.056429,0.003974,1,0,0,0,0,0,0,0.113824,-0.074073,-0.004325,1,0,0,0,0,0,0
3.580000,-0.022751,0.148316,-0.001843,1,0,0,0,0,0,0,-0.134345,-0.056069,0.003917,1,0,0,0,0,0,0,0.113944,-0.073848,-0.004293,1,0,0,0,0,0,0
3.590000,-0.022362,0.146865,-0.001799,1,0,0,0,0,0,0,-0.132671,-0.056057,0.003907,1,0,0,0,0,0,0,0.113768,-0.073334,-0.004228,1,0,0,0,0,0,0
3.600000,-0.021776,0.145464,-0.001758,1,0,0,0,0,0,0,-0.131239,-0.056381,0.003940,1,0,0,0,0,0,0,0.113327,-0.072551,-0.004135,1,0,0,0,0,0,0
3.610000,-0.021107,0.144084,-0.001718,1,0,0,0,0,0,0,-0.129956,-0.056976,0.004005,1,0,0,0,0,0,0,0.112649,-0.071525,-0.004016,1,0,0,0,0,0,0
3.620000,-0.020427,0.142654,-0.001677,1,0,0,0,0,0,0,-0.128723,-0.057722,0.004086,1,0,0,0,0,0,0,0.111742,-0.070278,-0.003875,1,0,0,0,0,0,0
3.630000,-0.019731,0.141033,-0.001631,1,0,0,0,0,0,0,-0.127504,-0.058501,0.004167,1,0,0,0,0,0,0,0.110593,-0.068837,-0.003716,1,0,0,0,0,0,0
3.640000,-0.018944,0.139086,-0.001580,1,0,0,0,0,0,0,-0.126304,-0.059222,0.004235,1,0,0,0,0,0,0,0.109209,-0.067242,-0.003545,1,0,0,0,0,0,0
3.650000,-0.017966,0.136770,-0.001521,1,0,0,0,0,0,0,-0.125139,-0.059852,0.004287,1,0,0,0,0,0,0,0.107626,-0.065559,-0.003368,1,0,0,0,0,0,0
3.660000,-0.016732,0.134172,-0.001459,1,0,0,0,0,0,0,-0.124001,-0.060397,0.004325,1,0,0,0,0,0,0,0.105921,-0.063869,-0.003195,1,0,0,0,0,0,0
3.670000,-0.015243,0.131452,-0.001396,1,0,0,0,0,0,0,-0.122878,-0.060880,0.004352,1,0,0,0,0,0,0,0.104189,-0.062260,-0.003035,1,0,0,0,0,0,0
3.680000,-0.013573,0.128762,-0.001334,1,0,0,0,0,0,0,-0.121816,-0.061326,0.004372,1,0,0,0,0,0,0,0.102531,-0.060821,-0.002897,1,0,0,0,0,0,0
3.690000,-0.011845,0.126175,-0.001275,1,0,0,0,0,0,0,-0.120756,-0.061686,0.004379,1,0,0,0,0,0,0,0.101021,-0.059614,-0.002787,1,0,0,0,0,0,0
3.700000,-0.010194,0.123690,-0.001218,1,0,0,0,0,0,0,-0.119591,-0.061853,0.004361,1,0,0,0,0,0,0,0.099693,-0.058668,-0.002705,1,0,0,0,0,0,0
3.710000,-0.008731,0.121296,-0.001162,1,0,0,0,0,0,0,-0.118223,-0.061712,0.004305,1,0,0,0,0,0,0,0.098531,-0.057964,-0.002648,1,0,0,0,0,0,0
3.720000,-0.007515,0.118971,-0.001106,1,0,0,0,0,0,0,-0.116549,-0.061155,0.004200,1,0,0,0,0,0,0,0.097485,-0.057450,-0.002610,1,0,0,0,0,0,0
3.730000,-0.006553,0.116715,-0.001052,1,0,0,0,0,0,0,-0.114493,-0.060140,0.004044,1,0,0,0,0,0,0,0.096512,-0.057075,-0.002586,1,0,0,0,0,0,0
3.740000,-0.005830,0.114554,-0.000999,1,0,0,0,0,0,0,-0.112083,-0.058707,0.003844,1,0,0,0,0,0,0,0.095625,-0.056818,-0.002572,1,0,0,0,0,0,0
3.750000,-0.005339,0.112498,-0.000948,1,0,0,0,0,0,0,-0.109445,-0.056962,0.003615,1,0,0,0,0,0,0,0.094885,-0.056685,-0.002568,1,0,0,0,0,0,0
3.760000,-0.005099,0.110533,-0.000898,1,0,0,0,0,0,0,-0.106741,-0.055037,0.003374,1,0,0,0,0,0,0,0.094361,-0.056684,-0.002576,1,0,0,0,0,0,0
3.770000,-0.005138,0.108634,-0.000851,1,0,0,0,0,0,0,-0.104068,-0.053044,0.003135,1,0,0,0,0,0,0,0.094096,-0.056807,-0.002595,1,0,0,0,0,0,0
3.780000,-0.005458,0.106758,-0.000805,1,0,0,0,0,0,0,-0.101438,-0.051023,0.002902,1,0,0,0,0,0,0,0.094093,-0.057023,-0.002621,1,0,0,0,0,0,0
3.790000,-0.006007,0.104878,-0.000762,1,0,0,0,0,0,0,-0.098834,-0.048952,0.002673,1,0,0,0,0,0,0,0.094323,-0.057291,-0.002651,1,0,0,0,0,0,0
3.800000,-0.006703,0.103012,-0.000721,1,0,0,0,0,0,0,-0.096267,-0.046796,0.002444,1,0,0,0,0,0,0,0.094751,-0.057581,-0.002682,1,0,0,0,0,0,0
3.810000,-0.007466,0.101228,-0.000684,1,0,0,0,0,0,0,-0.093788,-0.044559,0.002217,1,0,0,0,0,0,0,0.095342,-0.057877,-0.002713,1,0,0,0,0,0,0
3.820000,-0.008256,0.099635,-0.000651,1,0,0,0,0,0,0,-0.091487,-0.042302,0.001998,1,0,0,0,0,0,0,0.096035,-0.058164,-0.002744,1,0,0,0,0,0,0
3.830000,-0.009090,0.098357,-0.000623,1,0,0,0,0,0,0,-0.089411,-0.040110,0.001793,1,0,0,0,0,0,0,0.096742,-0.058419,-0.002772,1,0,0,0,0,0,0
3.840000,-0.010024,0.097468,-0.000602,1,0,0,0,0,0,0,-0.087552,-0.038053,0.001608,1,0,0,0,0,0,0,0.097370,-0.058619,-0.002795,1,0,0,0,0,0,0
3.850000,-0.011108,0.096942,-0.000588,1,0,0,0,0,0,0,-0.085857,-0.036167,0.001445,1,0,0,0,0,0,0,0.097858,-0.058743,-0.002811,1,0,0,0,0,0,0
3.860000,-0.012347,0.096662,-0.000580,1,0,0,0,0,0,0,-0.084309,-0.034493,0.001307,1,0,0,0,0,0,0,0.098208,-0.058793,-0.002819,1,0,0,0,0,0,0
3.870000,-0.013666,0.096457,-0.000576,1,0,0,0,0,0,0,-0.082894,-0.033077,0.001196,1,0,0,0,0,0,0,0.098482,-0.058787,-0.002823,1,0,0,0,0,0,0
3.880000,-0.014916,0.096198,-0.000575,1,0,0,0,0,0,0,-0.081615,-0.031989,0.001115,1,0,0,0,0,0,0,0.098765,-0.058759,-0.002824,1,0,0,0,0,0,0
3.890000,-0.015894,0.095829,-0.000576,1,0,0,0,0,0,0,-0.080494,-0.031319,0.001071,1,0,0,0,0,0,0,0.099114,-0.058732,-0.002826,1,0,0,0,0,0,0
3.900000,-0.016411,0.095411,-0.000579,1,0,0,0,0,0,0,-0.079529,-0.031125,0.001067,1,0,0,0,0,0,0,0.099541,-0.058722,-0.002831,1,0,0,0,0,0,0
3.910000,-0.016358,0.095109,-0.000585,1,0,0,0,0,0,0,-0.078745,-0.031436,0.001102,1,0,0,0,0,0,0,0.100038,-0.058744,-0.002838,1,0,0,0,0,0,0
3.920000,-0.015744,0.095090,-0.000596,1,0,0,0,0,0,0,-0.078196,-0.032259,0.001176,1,0,0,0,0,0,0,0.100607,-0.058820,-0.002852,1,0,0,0,0,0,0
3.930000,-0.014700,0.095386,-0.000610,1,0,0,0,0,0,0,-0.077922,-0.033553,0.001283,1,0,0,0,0,0,0,0.101276,-0.058986,-0.002875,1,0,0,0,0,0,0
3.940000,-0.013386,0.095897,-0.000624,1,0,0,0,0,0,0,-0.077944,-0.035273,0.001421,1,0,0,0,0,0,0,0.102092,-0.059277,-0.002912,1,0,0,0,0,0,0
3.950000,-0.011910,0.096458,-0.000634,1,0,0,0,0,0,0,-0.078215,-0.037337,0.001581,1,0,0,0,0,0,0,0.103088,-0.059717,-0.002964,1,0,0,0,0,0,0
3.960000,-0.010307,0.096913,-0.000638,1,0,0,0,0,0,0,-0.078629,-0.039625,0.001756,1,0,0,0,0,0,0,0.104287,-0.060316,-0.003033,1,0,0,0,0,0,0
3.970000,-0.008564,0.097160,-0.000635,1,0,0,0,0,0,0,-0.079074,-0.041994,0.001934,1,0,0,0,0,0,0,0.105694,-0.061070,-0.003120,1,0,0,0,0,0,0
3.980000,-0.006652,0.097216,-0.000625,1,0,0,0,0,0,0,-0.079470,-0.044299,0.002103,1,0,0,0,0,0,0,0.107294,-0.061962,-0.003222,1,0,0,0,0,0,0
3.990000,-0.004573,0.097163,-0.000609,1,0,0,0,0,0,0,-0.079802,-0.046446,0.002257,1,0,0,0,0,0,0,0.109042,-0.062957,-0.003337,1,0,0,0,0,0,0
4.000000,-0.002363,0.097093,-0.000588,1,0,0,0,0,0,0,-0.080120,-0.048406,0.002392,1,0,0,0,0,0,0,0.110864,-0.064001,-0.003459,1,0,0,0,0,0,0
4.010000,-0.000080,0.097162,-0.000562,1,0,0,0,0,0,0,-0.080543,-0.050231,0.002514,1,0,0,0,0,0,0,0.112763,-0.065088,-0.003587,1,0,0,0,0,0,0
4.020000,0.002207,0.097655,-0.000531,1,0,0,0,0,0,0,-0.081264,-0.052044,0.002633,1,0,0,0,0,0,0,0.114945,-0.066322,-0.003733,1,0,0,0,0,0,0
4.030000,0.004414,0.098659,-0.000492,1,0,0,0,0,0,0,-0.082280,-0.053847,0.002751,1,0,0,0,0,0,0,0.117437,-0.067716,-0.003902,1,0,0,0,0,0,0
4.040000,0.006431,0.100177,-0.000443,1,0,0,0,0,0,0,-0.083522,-0.055579,0.002863,1,0,0,0,0,0,0,0.120219,-0.069257,-0.004091,1,0,0,0,0,0,0
4.050000,0.008131,0.102151,-0.000385,1,0,0,0,0,0,0,-0.084915,-0.057166,0.002966,1,0,0,0,0,0,0,0.123254,-0.070927,-0.004300,1,0,0,0,0,0,0
4.060000,0.009407,0.104482,-0.000318,1,0,0,0,0,0,0,-0.086396,-0.058556,0.003053,1,0,0,0,0,0,0,0.126483,-0.072697,-0.004528,1,0,0,0,0,0,0
4.070000,0.010203,0.107044,-0.000245,1,0,0,0,0,0,0,-0.087897,-0.059726,0.003124,1,0,0,0,0,0,0,0.129819,-0.074523,-0.004768,1,0,0,0,0,0,0
4.080000,0.010549,0.109697,-0.000169,1,0,0,0,0,0,0,-0.089347,-0.060676,0.003178,1,0,0,0,0,0,0,0.133155,-0.076354,-0.005015,1,0,0,0,0,0,0
4.090000,0.010523,0.112331,-0.000096,1,0,0,0,0,0,0,-0.090698,-0.061401,0.003214,1,0,0,0,0,0,0,0.136384,-0.078134,-0.005262,1,0,0,0,0,0,0
4.100000,0.010198,0.114911,-0.000026,1,0,0,0,0,0,0,-0.091939,-0.061886,0.003232,1,0,0,0,0,0,0,0.139404,-0.079817,-0.005501,1,0,0,0,0,0,0
4.110000,0.009632,0.117434,0.000038,1,0,0,0,0,0,0,-0.093091,-0.062128,0.003230,1,0,0,0,0,0,0,0.142137,-0.081370,-0.005726,1,0,0,0,0,0,0
4.120000,0.008859,0.119902,0.000096,1,0,0,0,0,0,0,-0.094204,-0.062153,0.003211,1,0,0,0,0,0,0,0.144528,-0.082776,-0.005934,1,0,0,0,0,0,0
4.130000,0.007878,0.122322,0.000145,1,0,0,0,0,0,0,-0.095343,-0.062017,0.003180,1,0,0,0,0,0,0,0.146543,-0.084030,-0.006122,1,0,0,0,0,0,0
4.140000,0.006687,0.124676,0.000186,1,0,0,0,0,0,0,-0.096560,-0.061795,0.003143,1,0,0,0,0,0,0,0.148171,-0.085123,-0.006288,1,0,0,0,0,0,0
4.150000,0.005338,0.126881,0.000216,1,0,0,0,0,0,0,-0.097859,-0.061549,0.003108,1,0,0,0,0,0,0,0.149412,-0.086044,-0.006429,1,0,0,0,0,0,0
4.160000,0.003902,0.128856,0.000237,1,0,0,0,0,0,0,-0.099163,-0.061301,0.003076,1,0,0,0,0,0,0,0.150283,-0.086786,-0.006543,1,0,0,0,0,0,0
4.170000,0.002426,0.130572,0.000246,1,0,0,0,0,0,0,-0.100394,-0.061037,0.003045,1,0,0,0,0,0,0,0.150816,-0.087350,-0.006629,1,0,0,0,0,0,0
4.180000,0.000947,0.132033,0.000247,1,0,0,0,0,0,0,-0.101503,-0.060732,0.003014,1,0,0,0,0,0,0,0.151048,-0.087744,-0.006688,1,0,0,0,0,0,0
4.190000,-0.000501,0.133229,0.000240,1,0,0,0,0,0,0,-0.102410,-0.060337,0.002976,1,0,0,0,0,0,0,0.151019,-0.087982,-0.006722,1,0,0,0,0,0,0
4.200000,-0.001899,0.134160,0.000225,1,0,0,0,0,0,0,-0.103049,-0.059811,0.002927,1,0,0,0,0,0,0,0.150767,-0.088085,-0.006735,1,0,0,0,0,0,0
4.210000,-0.003241,0.134838,0.000205,1,0,0,0,0,0,0,-0.103445,-0.059159,0.002867,1,0,0,0,0,0,0,0.150313,-0.088065,-0.006728,1,0,0,0,0,0,0
4.220000,-0.004527,0.135269,0.000180,1,0,0,0,0,0,0,-0.103642,-0.058399,0.002799,1,0,0,0,0,0,0,0.149656,-0.087924,-0.006701,1,0,0,0,0,0,0
4.230000,-0.005754,0.135434,0.000152,1,0,0,0,0,0,0,-0.103634,-0.057543,0.002722,1,0,0,0,0,0,0,0.148787,-0.087656,-0.006655,1,0,0,0,0,0,0
4.240000,-0.006915,0.135297,0.000123,1,0,0,0,0,0,0,-0.103433,-0.056619,0.002641,1,0,0,0,0,0,0,0.147703,-0.087257,-0.006588,1,0,0,0,0,0,0
4.250000,-0.007997,0.134853,0.000092,1,0,0,0,0,0,0,-0.103068,-0.055673,0.002559,1,0,0,0,0,0,0,0.146410,-0.086724,-0.006502,1,0,0,0,0,0,0
4.260000,-0.008973,0.134082,0.000062,1,0,0,0,0,0,0,-0.102556,-0.054755,0.002482,1,0,0,0,0,0,0,0.144916,-0.086054,-0.006395,1,0,0,0,0,0,0
4.270000,-0.009808,0.132960,0.000034,1,0,0,0,0,0,0,-0.101901,-0.053903,0.002414,1,0,0,0,0,0,0,0.143240,-0.085247,-0.006269,1,0,0,0,0,0,0
4.280000,-0.010457,0.131486,0.000009,1,0,0,0,0,0,0,-0.101087,-0.053132,0.002355,1,0,0,0,0,0,0,0.141410,-0.084309,-0.006125,1,0,0,0,0,0,0
4.290000,-0.010870,0.129665,-0.000013,1,0,0,0,0,0,0,-0.100083,-0.052425,0.002303,1,0,0,0,0,0,0,0.139471,-0.083255,-0.005967,1,0,0,0,0,0,0
4.300000,-0.011012,0.127518,-0.000031,1,0,0,0,0,0,0,-0.098878,-0.051773,0.002258,1,0,0,0,0,0,0,0.137425,-0.082078,-0.005793,1,0,0,0,0,0,0
4.310000,-0.010851,0.125091,-0.000045,1,0,0,0,0,0,0,-0.097482,-0.051176,0.002217,1,0,0,0,0,0,0,0.135255,-0.080763,-0.005603,1,0,0,0,0,0,0
4.320000,-0.010369,0.122458,-0.000056,1,0,0,0,0,0,0,-0.095906,-0.050632,0.002182,1,0,0,0,0,0,0,0.132945,-0.079297,-0.005397,1,0,0,0,0,0,0
