time,drone0_roll,drone0_pitch,drone0_yaw,drone0_des_qw,drone0_des_qx,drone0_des_qy,drone0_des_qz,drone0_err_x,drone0_err_y,drone0_err_z,drone1_roll,drone1_pitch,drone1_yaw,drone1_des_qw,drone1_des_qx,drone1_des_qy,drone1_des_qz,drone1_err_x,drone1_err_y,drone1_err_z,drone2_roll,drone2_pitch,drone2_yaw,drone2_des_qw,drone2_des_qx,drone2_des_qy,drone2_des_qz,drone2_err_x,drone2_err_y,drone2_err_z
0.000000,0.000000,0.000000,0.000000,1,0,0,0,0,0,0,0.000000,0.000000,0.000000,1,0,0,0,0,0,0,0.000000,0.000000,0.000000,1,0,0,0,0,0,0
0.010000,0.000001,0.000144,0.000000,1,0,0,0,0,0,0,0.000001,-0.000001,-0.000000,1,0,0,0,0,0,0,0.000001,-0.000001,-0.000000,1,0,0,0,0,0,0
0.020000,0.000003,0.000519,0.000000,1,0,0,0,0,0,0,0.000003,-0.000006,-0.000000,1,0,0,0,0,0,0,0.000003,-0.000006,-0.000000,1,0,0,0,0,0,0
0.030000,0.000008,0.001094,0.000000,1,0,0,0,0,0,0,0.000008,-0.000016,-0.000000,1,0,0,0,0,0,0,0.000009,-0.000016,-0.000000,1,0,0,0,0,0,0
0.040000,0.000015,0.001872,0.000000,1,0,0,0,0,0,0,0.000015,-0.000030,-0.000000,1,0,0,0,0,0,0,0.000149,-0.000105,-0.000000,1,0,0,0,0,0,0
0.050000,0.000025,0.002861,0.000000,1,0,0,0,0,0,0,0.000025,-0.000049,-0.000000,1,0,0,0,0,0,0,0.000352,-0.000234,-0.000000,1,0,0,0,0,0,0
0.060000,0.000036,0.004071,0.000000,1,0,0,0,0,0,0,0.000037,-0.000073,-0.000000,1,0,0,0,0,0,0,0.000666,-0.000430,-0.000000,1,0,0,0,0,0,0
0.070000,0.000050,0.005485,0.000000,1,0,0,0,0,0,0,-0.000152,-0.000213,0.000000,1,0,0,0,0,0,0,0.001108,-0.000703,-0.000000,1,0,0,0,0,0,0
0.080000,0.000066,0.007055,0.000000,1,0,0,0,0,0,0,-0.000312,-0.000347,0.000000,1,0,0,0,0,0,0,0.001679,-0.001052,-0.000001,1,0,0,0,0,0,0
0.090000,0.000083,0.008735,0.000000,1,0,0,0,0,0,0,-0.000474,-0.000486,0.000000,1,0,0,0,0,0,0,0.002381,-0.001480,-0.000002,1,0,0,0,0,0,0
0.100000,0.000102,0.010491,0.000001,1,0,0,0,0,0,0,-0.000852,-0.000750,0.000000,1,0,0,0,0,0,0,0.003216,-0.001987,-0.000003,1,0,0,0,0,0,0
0.110000,0.000122,0.012307,0.000001,1,0,0,0,0,0,0,-0.001181,-0.000994,0.000001,1,0,0,0,0,0,0,0.004188,-0.002576,-0.000005,1,0,0,0,0,0,0
0.120000,0.000143,0.014155,0.000001,1,0,0,0,0,0,0,-0.001673,-0.001332,0.000001,1,0,0,0,0,0,0,0.005299,-0.003247,-0.000008,1,0,0,0,0,0,0
0.130000,0.000166,0.015965,0.000001,1,0,0,0,0,0,0,-0.002177,-0.001682,0.000002,1,0,0,0,0,0,0,0.006520,-0.003984,-0.000013,1,0,0,0,0,0,0
0.140000,0.000189,0.017746,0.000002,1,0,0,0,0,0,0,-0.002812,-0.002109,0.000003,1,0,0,0,0,0,0,0.007817,-0.004767,-0.000018,1,0,0,0,0,0,0
0.150000,0.000214,0.019542,0.000002,1,0,0,0,0,0,0,-0.003500,-0.002570,0.000004,1,0,0,0,0,0,0,0.009168,-0.005582,-0.000025,1,0,0,0,0,0,0
0.160000,0.000239,0.021354,0.000002,1,0,0,0,0,0,0,-0.004316,-0.003105,0.000006,1,0,0,0,0,0,0,0.010557,-0.006422,-0.000034,1,0,0,0,0,0,0
0.170000,0.000264,0.023170,0.000003,1,0,0,0,0,0,0,-0.005216,-0.003691,0.000009,1,0,0,0,0,0,0,0.011978,-0.007280,-0.000043,1,0,0,0,0,0,0
0.180000,0.000290,0.024979,0.000003,1,0,0,0,0,0,0,-0.006236,-0.004347,0.000013,1,0,0,0,0,0,0,0.013418,-0.008151,-0.000054,1,0,0,0,0,0,0
0.190000,0.000317,0.026775,0.000004,1,0,0,0,0,0,0,-0.007372,-0.005071,0.000018,1,0,0,0,0,0,0,0.014854,-0.009020,-0.000066,1,0,0,0,0,0,0
0.200000,0.000343,0.028550,0.000004,1,0,0,0,0,0,0,-0.008619,-0.005859,0.000024,1,0,0,0,0,0,0,0.016264,-0.009875,-0.000080,1,0,0,0,0,0,0
0.210000,0.000369,0.030302,0.000005,1,0,0,0,0,0,0,-0.009984,-0.006716,0.000032,1,0,0,0,0,0,0,0.017654,-0.010717,-0.000094,1,0,0,0,0,0,0
0.220000,0.000396,0.032026,0.000006,1,0,0,0,0,0,0,-0.011416,-0.007612,0.000042,1,0,0,0,0,0,0,0.019037,-0.011555,-0.000109,1,0,0,0,0,0,0
0.230000,0.000422,0.033716,0.000007,1,0,0,0,0,0,0,-0.012874,-0.008524,0.000053,1,0,0,0,0,0,0,0.020404,-0.012384,-0.000126,1,0,0,0,0,0,0
0.240000,0.000447,0.035363,0.000007,1,0,0,0,0,0,0,-0.014350,-0.009446,0.000065,1,0,0,0,0,0,0,0.021751,-0.013200,-0.000143,1,0,0,0,0,0,0
0.250000,0.000473,0.036955,0.000008,1,0,0,0,0,0,0,-0.015839,-0.010374,0.000080,1,0,0,0,0,0,0,0.023079,-0.014004,-0.000161,1,0,0,0,0,0,0
0.260000,0.000497,0.038475,0.000009,1,0,0,0,0,0,0,-0.017309,-0.011291,0.000095,1,0,0,0,0,0,0,0.024384,-0.014795,-0.000180,1,0,0,0,0,0,0
0.270000,0.000521,0.039906,0.000010,1,0,0,0,0,0,0,-0.018700,-0.012161,0.000111,1,0,0,0,0,0,0,0.025659,-0.015566,-0.000199,1,0,0,0,0,0,0
0.280000,0.000544,0.041232,0.000010,1,0,0,0,0,0,0,-0.019982,-0.012967,0.000126,1,0,0,0,0,0,0,0.026886,-0.016310,-0.000219,1,0,0,0,0,0,0
0.290000,0.000567,0.042448,0.000011,1,0,0,0,0,0,0,-0.021183,-0.013723,0.000142,1,0,0,0,0,0,0,0.028045,-0.017013,-0.000238,1,0,0,0,0,0,0
0.300000,0.000588,0.043544,0.000012,1,0,0,0,0,0,0,-0.022311,-0.014433,0.000158,1,0,0,0,0,0,0,0.029120,-0.017666,-0.000257,1,0,0,0,0,0,0
0.310000,0.000608,0.044508,0.000012,1,0,0,0,0,0,0,-0.023369,-0.015099,0.000173,1,0,0,0,0,0,0,0.030101,-0.018264,-0.000274,1,0,0,0,0,0,0
0.320000,0.000627,0.045322,0.000013,1,0,0,0,0,0,0,-0.024367,-0.015727,0.000188,1,0,0,0,0,0,0,0.030986,-0.018804,-0.000291,1,0,0,0,0,0,0
0.330000,0.000645,0.045976,0.000013,1,0,0,0,0,0,0,-0.025308,-0.016319,0.000203,1,0,0,0,0,0,0,0.031763,-0.019280,-0.000306,1,0,0,0,0,0,0
0.340000,0.000662,0.046465,0.000014,1,0,0,0,0,0,0,-0.026182,-0.016869,0.000217,1,0,0,0,0,0,0,0.032416,-0.019684,-0.000319,1,0,0,0,0,0,0
0.350000,0.000678,0.046787,0.000014,1,0,0,0,0,0,0,-0.026972,-0.017368,0.000231,1,0,0,0,0,0,0,0.032932,-0.020006,-0.000329,1,0,0,0,0,0,0
0.360000,0.000692,0.046943,0.000014,1,0,0,0,0,0,0,-0.027665,-0.017808,0.000243,1,0,0,0,0,0,0,0.033306,-0.020245,-0.000337,1,0,0,0,0,0,0
0.370000,0.000705,0.046934,0.000014,1,0,0,0,0,0,0,-0.028250,-0.018183,0.000254,1,0,0,0,0,0,0,0.033541,-0.020401,-0.000342,1,0,0,0,0,0,0
0.380000,0.000717,0.046767,0.000014,1,0,0,0,0,0,0,-0.028720,-0.018488,0.000263,1,0,0,0,0,0,0,0.033640,-0.020477,-0.000345,1,0,0,0,0,0,0
0.390000,0.000728,0.046452,0.000014,1,0,0,0,0,0,0,-0.029073,-0.018722,0.000270,1,0,0,0,0,0,0,0.033608,-0.020475,-0.000345,1,0,0,0,0,0,0
0.400000,0.000738,0.046000,0.000014,1,0,0,0,0,0,0,-0.029302,-0.018881,0.000274,1,0,0,0,0,0,0,0.033454,-0.020400,-0.000342,1,0,0,0,0,0,0
0.410000,0.000746,0.045424,0.000014,1,0,0,0,0,0,0,-0.029400,-0.018962,0.000277,1,0,0,0,0,0,0,0.033184,-0.020256,-0.000337,1,0,0,0,0,0,0
0.420000,0.000754,0.044738,0.000014,1,0,0,0,0,0,0,-0.029361,-0.018960,0.000277,1,0,0,0,0,0,0,0.032799,-0.020044,-0.000330,1,0,0,0,0,0,0
0.430000,0.000760,0.043954,0.000013,1,0,0,0,0,0,0,-0.029187,-0.018877,0.000275,1,0,0,0,0,0,0,0.032306,-0.019768,-0.000321,1,0,0,0,0,0,0
0.440000,0.000765,0.043089,0.000013,1,0,0,0,0,0,0,-0.028880,-0.018713,0.000270,1,0,0,0,0,0,0,0.031710,-0.019431,-0.000310,1,0,0,0,0,0,0
0.450000,0.000769,0.042172,0.000012,1,0,0,0,0,0,0,-0.028444,-0.018472,0.000263,1,0,0,0,0,0,0,0.031018,-0.019038,-0.000298,1,0,0,0,0,0,0
0.460000,0.000772,0.041230,0.000012,1,0,0,0,0,0,0,-0.027882,-0.018155,0.000254,1,0,0,0,0,0,0,0.030238,-0.018593,-0.000284,1,0,0,0,0,0,0
0.470000,0.000774,0.040287,0.000011,1,0,0,0,0,0,0,-0.027194,-0.017761,0.000243,1,0,0,0,0,0,0,0.029379,-0.018101,-0.000269,1,0,0,0,0,0,0
0.480000,0.000774,0.039366,0.000011,1,0,0,0,0,0,0,-0.026384,-0.017294,0.000231,1,0,0,0,0,0,0,0.028456,-0.017573,-0.000254,1,0,0,0,0,0,0
0.490000,0.000772,0.038485,0.000010,1,0,0,0,0,0,0,-0.025456,-0.016757,0.000217,1,0,0,0,0,0,0,0.027487,-0.017019,-0.000238,1,0,0,0,0,0,0
0.500000,0.000769,0.037656,0.000010,1,0,0,0,0,0,0,-0.024418,-0.016153,0.000201,1,0,0,0,0,0,0,0.026489,-0.016451,-0.000222,1,0,0,0,0,0,0
0.510000,0.000763,0.036886,0.000010,1,0,0,0,0,0,0,-0.023276,-0.015487,0.000185,1,0,0,0,0,0,0,0.025484,-0.015881,-0.000207,1,0,0,0,0,0,0
0.520000,0.000756,0.036176,0.000009,1,0,0,0,0,0,0,-0.022040,-0.014765,0.000168,1,0,0,0,0,0,0,0.024495,-0.015326,-0.000193,1,0,0,0,0,0,0
0.530000,0.000745,0.035525,0.000009,1,0,0,0,0,0,0,-0.020720,-0.013992,0.000152,1,0,0,0,0,0,0,0.023550,-0.014803,-0.000180,1,0,0,0,0,0,0
0.540000,0.000731,0.034929,0.000009,1,0,0,0,0,0,0,-0.019325,-0.013174,0.000135,1,0,0,0,0,0,0,0.022682,-0.014333,-0.000169,1,0,0,0,0,0,0
0.550000,0.000713,0.034382,0.000009,1,0,0,0,0,0,0,-0.017867,-0.012319,0.000118,1,0,0,0,0,0,0,0.021927,-0.013941,-0.000160,1,0,0,0,0,0,0
0.560000,0.000690,0.033881,0.000009,1,0,0,0,0,0,0,-0.016356,-0.011431,0.000103,1,0,0,0,0,0,0,0.021320,-0.013650,-0.000153,1,0,0,0,0,0,0
0.570000,0.000663,0.033419,0.000009,1,0,0,0,0,0,0,-0.014801,-0.010518,0.000088,1,0,0,0,0,0,0,0.020887,-0.013476,-0.000149,1,0,0,0,0,0,0
0.580000,0.000629,0.032993,0.000008,1,0,0,0,0,0,0,-0.013212,-0.009584,0.000074,1,0,0,0,0,0,0,0.020633,-0.013425,-0.000148,1,0,0,0,0,0,0
0.590000,0.000590,0.032595,0.000008,1,0,0,0,0,0,0,-0.011601,-0.008638,0.000062,1,0,0,0,0,0,0,0.020541,-0.013485,-0.000148,1,0,0,0,0,0,0
0.600000,0.000543,0.032222,0.000008,1,0,0,0,0,0,0,-0.009979,-0.007686,0.000051,1,0,0,0,0,0,0,0.020604,-0.013653,-0.000151,1,0,0,0,0,0,0
0.610000,0.000488,0.031867,0.000008,1,0,0,0,0,0,0,-0.008357,-0.006735,0.000041,1,0,0,0,0,0,0,0.020792,-0.013909,-0.000156,1,0,0,0,0,0,0
0.620000,0.000426,0.031529,0.000008,1,0,0,0,0,0,0,-0.006750,-0.005795,0.000033,1,0,0,0,0,0,0,0.021049,-0.014215,-0.000162,1,0,0,0,0,0,0
0.630000,0.000355,0.031206,0.000008,1,0,0,0,0,0,0,-0.005173,-0.004875,0.000027,1,0,0,0,0,0,0,0.021320,-0.014534,-0.000168,1,0,0,0,0,0,0
0.640000,0.000275,0.030903,0.000008,1,0,0,0,0,0,0,-0.003645,-0.003987,0.000022,1,0,0,0,0,0,0,0.021570,-0.014842,-0.000174,1,0,0,0,0,0,0
0.650000,0.000187,0.030624,0.000007,1,0,0,0,0,0,0,-0.002190,-0.003147,0.000019,1,0,0,0,0,0,0,0.021786,-0.015129,-0.000179,1,0,0,0,0,0,0
0.660000,0.000089,0.030378,0.000007,1,0,0,0,0,0,0,-0.000836,-0.002372,0.000017,1,0,0,0,0,0,0,0.021979,-0.015401,-0.000184,1,0,0,0,0,0,0
0.670000,-0.000017,0.030169,0.000007,1,0,0,0,0,0,0,0.000383,-0.001686,0.000016,1,0,0,0,0,0,0,0.022173,-0.015677,-0.000189,1,0,0,0,0,0,0
0.680000,-0.000131,0.030002,0.000006,1,0,0,0,0,0,0,0.001426,-0.001112,0.000015,1,0,0,0,0,0,0,0.022376,-0.015961,-0.000195,1,0,0,0,0,0,0
0.690000,-0.000252,0.029877,0.000006,1,0,0,0,0,0,0,0.002255,-0.000675,0.000015,1,0,0,0,0,0,0,0.022570,-0.016246,-0.000200,1,0,0,0,0,0,0
0.700000,-0.000377,0.029791,0.000005,1,0,0,0,0,0,0,0.002839,-0.000395,0.000015,1,0,0,0,0,0,0,0.022734,-0.016514,-0.000205,1,0,0,0,0,0,0
0.710000,-0.000504,0.029740,0.000005,1,0,0,0,0,0,0,0.003161,-0.000283,0.000014,1,0,0,0,0,0,0,0.022845,-0.016749,-0.000210,1,0,0,0,0,0,0
0.720000,-0.000630,0.029721,0.000004,1,0,0,0,0,0,0,0.003223,-0.000337,0.000013,1,0,0,0,0,0,0,0.022886,-0.016936,-0.000213,1,0,0,0,0,0,0
0.730000,-0.000755,0.029737,0.000003,1,0,0,0,0,0,0,0.003017,-0.000559,0.000011,1,0,0,0,0,0,0,0.022859,-0.017075,-0.000215,1,0,0,0,0,0,0
0.740000,-0.000875,0.029794,0.000002,1,0,0,0,0,0,0,0.002557,-0.000943,0.000010,1,0,0,0,0,0,0,0.022770,-0.017168,-0.000216,1,0,0,0,0,0,0
0.750000,-0.000991,0.029901,0.000001,1,0,0,0,0,0,0,0.001911,-0.001442,0.000008,1,0,0,0,0,0,0,0.022630,-0.017221,-0.000216,1,0,0,0,0,0,0
0.760000,-0.001102,0.030070,0.000000,1,0,0,0,0,0,0,0.001179,-0.001991,0.000006,1,0,0,0,0,0,0,0.022452,-0.017243,-0.000215,1,0,0,0,0,0,0
0.770000,-0.001206,0.030315,-0.000001,1,0,0,0,0,0,0,0.000436,-0.002542,0.000005,1,0,0,0,0,0,0,0.022258,-0.017246,-0.000214,1,0,0,0,0,0,0
0.780000,-0.001306,0.030656,-0.000002,1,0,0,0,0,0,0,-0.000278,-0.003066,0.000005,1,0,0,0,0,0,0,0.022070,-0.017245,-0.000213,1,0,0,0,0,0,0
0.790000,-0.001401,0.031118,-0.000004,1,0,0,0,0,0,0,-0.000952,-0.003556,0.000005,1,0,0,0,0,0,0,0.021910,-0.017253,-0.000211,1,0,0,0,0,0,0
0.800000,-0.001494,0.031730,-0.000006,1,0,0,0,0,0,0,-0.001595,-0.004017,0.000005,1,0,0,0,0,0,0,0.021795,-0.017281,-0.000211,1,0,0,0,0,0,0
0.810000,-0.001586,0.032524,-0.000008,1,0,0,0,0,0,0,-0.002254,-0.004479,0.000006,1,0,0,0,0,0,0,0.021734,-0.017334,-0.000211,1,0,0,0,0,0,0
0.820000,-0.001680,0.033524,-0.000011,1,0,0,0,0,0,0,-0.002982,-0.004974,0.000007,1,0,0,0,0,0,0,0.021735,-0.017417,-0.000211,1,0,0,0,0,0,0
0.830000,-0.001775,0.034736,-0.000014,1,0,0,0,0,0,0,-0.003794,-0.005512,0.000009,1,0,0,0,0,0,0,0.021805,-0.017533,-0.000212,1,0,0,0,0,0,0
0.840000,-0.001873,0.036148,-0.000018,1,0,0,0,0,0,0,-0.004689,-0.006093,0.000011,1,0,0,0,0,0,0,0.021956,-0.017691,-0.000214,1,0,0,0,0,0,0
0.850000,-0.001973,0.037732,-0.000022,1,0,0,0,0,0,0,-0.005684,-0.006727,0.000015,1,0,0,0,0,0,0,0.022199,-0.017896,-0.000218,1,0,0,0,0,0,0
0.860000,-0.002073,0.039455,-0.000026,1,0,0,0,0,0,0,-0.006801,-0.007425,0.000019,1,0,0,0,0,0,0,0.022536,-0.018151,-0.000222,1,0,0,0,0,0,0
0.870000,-0.002172,0.041284,-0.000031,1,0,0,0,0,0,0,-0.008031,-0.008180,0.000025,1,0,0,0,0,0,0,0.022962,-0.018453,-0.000228,1,0,0,0,0,0,0
0.880000,-0.002269,0.043194,-0.000036,1,0,0,0,0,0,0,-0.009349,-0.008978,0.000033,1,0,0,0,0,0,0,0.023460,-0.018793,-0.000235,1,0,0,0,0,0,0
0.890000,-0.002363,0.045161,-0.000041,1,0,0,0,0,0,0,-0.010713,-0.009792,0.000041,1,0,0,0,0,0,0,0.024021,-0.019163,-0.000243,1,0,0,0,0,0,0
0.900000,-0.002453,0.047164,-0.000047,1,0,0,0,0,0,0,-0.012064,-0.010590,0.000051,1,0,0,0,0,0,0,0.024646,-0.019565,-0.000252,1,0,0,0,0,0,0
0.910000,-0.002539,0.049194,-0.000053,1,0,0,0,0,0,0,-0.013355,-0.011343,0.000061,1,0,0,0,0,0,0,0.025359,-0.020015,-0.000262,1,0,0,0,0,0,0
0.920000,-0.002618,0.051245,-0.000059,1,0,0,0,0,0,0,-0.014576,-0.012047,0.000072,1,0,0,0,0,0,0,0.026201,-0.020541,-0.000275,1,0,0,0,0,0,0
0.930000,-0.002692,0.053321,-0.000065,1,0,0,0,0,0,0,-0.015721,-0.012699,0.000082,1,0,0,0,0,0,0,0.027214,-0.021170,-0.000292,1,0,0,0,0,0,0
0.940000,-0.002756,0.055422,-0.000071,1,0,0,0,0,0,0,-0.016779,-0.013293,0.000093,1,0,0,0,0,0,0,0.028413,-0.021914,-0.000312,1,0,0,0,0,0,0
0.950000,-0.002810,0.057541,-0.000077,1,0,0,0,0,0,0,-0.017745,-0.013826,0.000103,1,0,0,0,0,0,0,0.029777,-0.022761,-0.000336,1,0,0,0,0,0,0
0.960000,-0.002850,0.059664,-0.000083,1,0,0,0,0,0,0,-0.018620,-0.014301,0.000113,1,0,0,0,0,0,0,0.031267,-0.023687,-0.000365,1,0,0,0,0,0,0
0.970000,-0.002874,0.061767,-0.000090,1,0,0,0,0,0,0,-0.019411,-0.014720,0.000122,1,0,0,0,0,0,0,0.032854,-0.024675,-0.000397,1,0,0,0,0,0,0
0.980000,-0.002878,0.063832,-0.000096,1,0,0,0,0,0,0,-0.020125,-0.015089,0.000131,1,0,0,0,0,0,0,0.034513,-0.025709,-0.000432,1,0,0,0,0,0,0
0.990000,-0.002864,0.065849,-0.000101,1,0,0,0,0,0,0,-0.020783,-0.015421,0.000139,1,0,0,0,0,0,0,0.036210,-0.026769,-0.000470,1,0,0,0,0,0,0
1.000000,-0.002833,0.067819,-0.000107,1,0,0,0,0,0,0,-0.021416,-0.015734,0.000147,1,0,0,0,0,0,0,0.037902,-0.027829,-0.000510,1,0,0,0,0,0,0
1.010000,-0.002790,0.069764,-0.000112,1,0,0,0,0,0,0,-0.022050,-0.016046,0.000155,1,0,0,0,0,0,0,0.039538,-0.028857,-0.000551,1,0,0,0,0,0,0
1.020000,-0.002742,0.071744,-0.000116,1,0,0,0,0,0,0,-0.022701,-0.016368,0.000163,1,0,0,0,0,0,0,0.041138,-0.029865,-0.000592,1,0,0,0,0,0,0
1.030000,-0.002696,0.073792,-0.000121,1,0,0,0,0,0,0,-0.023371,-0.016700,0.000172,1,0,0,0,0,0,0,0.042761,-0.030896,-0.000637,1,0,0,0,0,0,0
1.040000,-0.002657,0.075927,-0.000125,1,0,0,0,0,0,0,-0.024046,-0.017035,0.000181,1,0,0,0,0,0,0,0.044436,-0.031973,-0.000685,1,0,0,0,0,0,0
1.050000,-0.002629,0.078158,-0.000130,1,0,0,0,0,0,0,-0.024708,-0.017359,0.000191,1,0,0,0,0,0,0,0.046202,-0.033122,-0.000739,1,0,0,0,0,0,0
1.060000,-0.002616,0.080475,-0.000135,1,0,0,0,0,0,0,-0.025347,-0.017669,0.000200,1,0,0,0,0,0,0,0.048068,-0.034352,-0.000798,1,0,0,0,0,0,0
1.070000,-0.002617,0.082850,-0.000139,1,0,0,0,0,0,0,-0.025974,-0.017969,0.000209,1,0,0,0,0,0,0,0.050006,-0.035642,-0.000863,1,0,0,0,0,0,0
1.080000,-0.002636,0.085243,-0.000144,1,0,0,0,0,0,0,-0.026626,-0.018285,0.000219,1,0,0,0,0,0,0,0.051982,-0.036969,-0.000932,1,0,0,0,0,0,0
1.090000,-0.002672,0.087607,-0.000148,1,0,0,0,0,0,0,-0.027314,-0.018623,0.000229,1,0,0,0,0,0,0,0.053974,-0.038316,-0.001006,1,0,0,0,0,0,0
1.100000,-0.002727,0.089884,-0.000152,1,0,0,0,0,0,0,-0.028002,-0.018962,0.000240,1,0,0,0,0,0,0,0.055940,-0.039656,-0.001081,1,0,0,0,0,0,0
1.110000,-0.002803,0.092021,-0.000157,1,0,0,0,0,0,0,-0.028649,-0.019280,0.000251,1,0,0,0,0,0,0,0.057842,-0.040962,-0.001157,1,0,0,0,0,0,0
1.120000,-0.002903,0.093968,-0.000160,1,0,0,0,0,0,0,-0.029235,-0.019564,0.000260,1,0,0,0,0,0,0,0.059659,-0.042220,-0.001233,1,0,0,0,0,0,0
1.130000,-0.003026,0.095687,-0.000164,1,0,0,0,0,0,0,-0.029755,-0.019811,0.000269,1,0,0,0,0,0,0,0.061388,-0.043430,-0.001308,1,0,0,0,0,0,0
1.140000,-0.003171,0.097155,-0.000167,1,0,0,0,0,0,0,-0.030211,-0.020024,0.000277,1,0,0,0,0,0,0,0.063027,-0.044591,-0.001382,1,0,0,0,0,0,0
1.150000,-0.003336,0.098363,-0.000170,1,0,0,0,0,0,0,-0.030608,-0.020205,0.000284,1,0,0,0,0,0,0,0.064582,-0.045708,-0.001454,1,0,0,0,0,0,0
1.160000,-0.003519,0.099319,-0.000173,1,0,0,0,0,0,0,-0.030943,-0.020354,0.000290,1,0,0,0,0,0,0,0.066066,-0.046790,-0.001527,1,0,0,0,0,0,0
1.170000,-0.003718,0.100034,-0.000175,1,0,0,0,0,0,0,-0.031200,-0.020462,0.000295,1,0,0,0,0,0,0,0.067501,-0.047851,-0.001599,1,0,0,0,0,0,0
1.180000,-0.003930,0.100523,-0.000178,1,0,0,0,0,0,0,-0.031375,-0.020525,0.000299,1,0,0,0,0,0,0,0.068890,-0.048894,-0.001671,1,0,0,0,0,0,0
1.190000,-0.004154,0.100799,-0.000180,1,0,0,0,0,0,0,-0.031475,-0.020548,0.000301,1,0,0,0,0,0,0,0.070233,-0.049913,-0.001743,1,0,0,0,0,0,0
1.200000,-0.004386,0.100877,-0.000182,1,0,0,0,0,0,0,-0.031501,-0.020531,0.000302,1,0,0,0,0,0,0,0.071519,-0.050901,-0.001814,1,0,0,0,0,0,0
1.210000,-0.004623,0.100770,-0.000183,1,0,0,0,0,0,0,-0.031462,-0.020481,0.000301,1,0,0,0,0,0,0,0.072730,-0.051843,-0.001883,1,0,0,0,0,0,0
1.220000,-0.004863,0.100490,-0.000185,1,0,0,0,0,0,0,-0.031378,-0.020411,0.000300,1,0,0,0,0,0,0,0.073846,-0.052722,-0.001948,1,0,0,0,0,0,0
1.230000,-0.005101,0.100047,-0.000186,1,0,0,0,0,0,0,-0.031262,-0.020331,0.000299,1,0,0,0,0,0,0,0.074844,-0.053522,-0.002007,1,0,0,0,0,0,0
1.240000,-0.005333,0.099453,-0.000186,1,0,0,0,0,0,0,-0.031122,-0.020245,0.000298,1,0,0,0,0,0,0,0.075698,-0.054224,-0.002060,1,0,0,0,0,0,0
1.250000,-0.005557,0.098722,-0.000187,1,0,0,0,0,0,0,-0.030959,-0.020155,0.000296,1,0,0,0,0,0,0,0.076375,-0.054805,-0.002104,1,0,0,0,0,0,0
1.260000,-0.005768,0.097863,-0.000187,1,0,0,0,0,0,0,-0.030773,-0.020060,0.000294,1,0,0,0,0,0,0,0.076849,-0.055247,-0.002138,1,0,0,0,0,0,0
1.270000,-0.005964,0.096879,-0.000187,1,0,0,0,0,0,0,-0.030563,-0.019958,0.000292,1,0,0,0,0,0,0,0.077109,-0.055540,-0.002160,1,0,0,0,0,0,0
1.280000,-0.006140,0.095772,-0.000186,1,0,0,0,0,0,0,-0.030334,-0.019852,0.000289,1,0,0,0,0,0,0,0.077147,-0.055681,-0.002170,1,0,0,0,0,0,0
1.290000,-0.006295,0.094560,-0.000185,1,0,0,0,0,0,0,-0.030096,-0.019747,0.000287,1,0,0,0,0,0,0,0.076944,-0.055654,-0.002167,1,0,0,0,0,0,0
1.300000,-0.006426,0.093262,-0.000183,1,0,0,0,0,0,0,-0.029852,-0.019644,0.000285,1,0,0,0,0,0,0,0.076478,-0.055441,-0.002149,1,0,0,0,0,0,0
1.310000,-0.006532,0.091895,-0.000181,1,0,0,0,0,0,0,-0.029586,-0.019533,0.000282,1,0,0,0,0,0,0,0.075735,-0.055029,-0.002116,1,0,0,0,0,0,0
1.320000,-0.006609,0.090469,-0.000179,1,0,0,0,0,0,0,-0.029295,-0.019408,0.000279,1,0,0,0,0,0,0,0.074718,-0.054415,-0.002068,1,0,0,0,0,0,0
1.330000,-0.006656,0.088991,-0.000176,1,0,0,0,0,0,0,-0.028994,-0.019280,0.000275,1,0,0,0,0,0,0,0.073437,-0.053601,-0.002005,1,0,0,0,0,0,0
1.340000,-0.006668,0.087458,-0.000173,1,0,0,0,0,0,0,-0.028699,-0.019156,0.000272,1,0,0,0,0,0,0,0.071913,-0.052599,-0.001930,1,0,0,0,0,0,0
1.350000,-0.006645,0.085864,-0.000169,1,0,0,0,0,0,0,-0.028427,-0.019048,0.000269,1,0,0,0,0,0,0,0.070172,-0.051426,-0.001844,1,0,0,0,0,0,0
1.360000,-0.006586,0.084202,-0.000165,1,0,0,0,0,0,0,-0.028190,-0.018963,0.000267,1,0,0,0,0,0,0,0.068244,-0.050100,-0.001750,1,0,0,0,0,0,0
1.370000,-0.006489,0.082457,-0.000161,1,0,0,0,0,0,0,-0.027997,-0.018903,0.000265,1,0,0,0,0,0,0,0.066162,-0.048643,-0.001649,1,0,0,0,0,0,0
1.380000,-0.006357,0.080609,-0.000155,1,0,0,0,0,0,0,-0.027841,-0.018864,0.000264,1,0,0,0,0,0,0,0.063962,-0.047077,-0.001545,1,0,0,0,0,0,0
1.390000,-0.006190,0.078635,-0.000149,1,0,0,0,0,0,0,-0.027701,-0.018832,0.000263,1,0,0,0,0,0,0,0.061688,-0.045429,-0.001438,1,0,0,0,0,0,0
1.400000,-0.005993,0.076523,-0.000142,1,0,0,0,0,0,0,-0.027554,-0.018792,0.000262,1,0,0,0,0,0,0,0.059371,-0.043721,-0.001333,1,0,0,0,0,0,0
1.410000,-0.005765,0.074290,-0.000134,1,0,0,0,0,0,0,-0.027395,-0.018740,0.000260,1,0,0,0,0,0,0,0.057034,-0.041972,-0.001228,1,0,0,0,0,0,0
1.420000,-0.005508,0.071957,-0.000126,1,0,0,0,0,0,0,-0.027229,-0.018678,0.000258,1,0,0,0,0,0,0,0.054687,-0.040190,-0.001126,1,0,0,0,0,0,0
1.430000,-0.005223,0.069539,-0.000118,1,0,0,0,0,0,0,-0.027049,-0.018602,0.000256,1,0,0,0,0,0,0,0.052339,-0.038385,-0.001028,1,0,0,0,0,0,0
1.440000,-0.004910,0.067051,-0.000109,1,0,0,0,0,0,0,-0.026836,-0.018502,0.000253,1,0,0,0,0,0,0,0.049995,-0.036561,-0.000933,1,0,0,0,0,0,0
1.450000,-0.004572,0.064510,-0.000101,1,0,0,0,0,0,0,-0.026569,-0.018365,0.000249,1,0,0,0,0,0,0,0.047652,-0.034720,-0.000841,1,0,0,0,0,0,0
1.460000,-0.004210,0.061935,-0.000092,1,0,0,0,0,0,0,-0.026250,-0.018192,0.000244,1,0,0,0,0,0,0,0.045291,-0.032854,-0.000753,1,0,0,0,0,0,0
1.470000,-0.003826,0.059345,-0.000084,1,0,0,0,0,0,0,-0.025906,-0.017998,0.000239,1,0,0,0,0,0,0,0.042921,-0.030969,-0.000669,1,0,0,0,0,0,0
1.480000,-0.003422,0.056754,-0.000077,1,0,0,0,0,0,0,-0.025550,-0.017792,0.000233,1,0,0,0,0,0,0,0.040563,-0.029079,-0.000590,1,0,0,0,0,0,0
1.490000,-0.002999,0.054179,-0.000070,1,0,0,0,0,0,0,-0.025190,-0.017578,0.000228,1,0,0,0,0,0,0,0.038237,-0.027196,-0.000515,1,0,0,0,0,0,0
1.500000,-0.002562,0.051633,-0.000064,1,0,0,0,0,0,0,-0.024832,-0.017359,0.000222,1,0,0,0,0,0,0,0.035955,-0.025328,-0.000446,1,0,0,0,0,0,0
1.510000,-0.002113,0.049129,-0.000058,1,0,0,0,0,0,0,-0.024475,-0.017137,0.000216,1,0,0,0,0,0,0,0.033728,-0.023482,-0.000382,1,0,0,0,0,0,0
1.520000,-0.001657,0.046683,-0.000054,1,0,0,0,0,0,0,-0.024119,-0.016910,0.000210,1,0,0,0,0,0,0,0.031559,-0.021664,-0.000323,1,0,0,0,0,0,0
1.530000,-0.001196,0.044311,-0.000050,1,0,0,0,0,0,0,-0.023756,-0.016674,0.000204,1,0,0,0,0,0,0,0.029447,-0.019876,-0.000269,1,0,0,0,0,0,0
1.540000,-0.000735,0.042030,-0.000046,1,0,0,0,0,0,0,-0.023375,-0.016425,0.000198,1,0,0,0,0,0,0,0.027397,-0.018122,-0.000220,1,0,0,0,0,0,0
1.550000,-0.000280,0.039854,-0.000044,1,0,0,0,0,0,0,-0.022966,-0.016155,0.000191,1,0,0,0,0,0,0,0.025415,-0.016409,-0.000176,1,0,0,0,0,0,0
1.560000,0.000166,0.037798,-0.000041,1,0,0,0,0,0,0,-0.022523,-0.015863,0.000184,1,0,0,0,0,0,0,0.023512,-0.014744,-0.000137,1,0,0,0,0,0,0
1.570000,0.000596,0.035873,-0.000040,1,0,0,0,0,0,0,-0.022047,-0.015550,0.000177,1,0,0,0,0,0,0,0.021693,-0.013135,-0.000103,1,0,0,0,0,0,0
1.580000,0.001007,0.034084,-0.000038,1,0,0,0,0,0,0,-0.021535,-0.015215,0.000169,1,0,0,0,0,0,0,0.019961,-0.011585,-0.000073,1,0,0,0,0,0,0
1.590000,0.001393,0.032431,-0.000037,1,0,0,0,0,0,0,-0.020985,-0.014858,0.000161,1,0,0,0,0,0,0,0.018307,-0.010094,-0.000047,1,0,0,0,0,0,0
1.600000,0.001752,0.030916,-0.000036,1,0,0,0,0,0,0,-0.020394,-0.014477,0.000153,1,0,0,0,0,0,0,0.016735,-0.008666,-0.000024,1,0,0,0,0,0,0
1.610000,0.002080,0.029540,-0.000035,1,0,0,0,0,0,0,-0.019753,-0.014067,0.000144,1,0,0,0,0,0,0,0.015246,-0.007304,-0.000005,1,0,0,0,0,0,0
1.620000,0.002374,0.028306,-0.000034,1,0,0,0,0,0,0,-0.019052,-0.013623,0.000136,1,0,0,0,0,0,0,0.013844,-0.006014,0.000011,1,0,0,0,0,0,0
1.630000,0.002632,0.027211,-0.000033,1,0,0,0,0,0,0,-0.018282,-0.013139,0.000126,1,0,0,0,0,0,0,0.012532,-0.004799,0.000024,1,0,0,0,0,0,0
1.640000,0.002853,0.026246,-0.000031,1,0,0,0,0,0,0,-0.017438,-0.012611,0.000116,1,0,0,0,0,0,0,0.011305,-0.003658,0.000034,1,0,0,0,0,0,0
1.650000,0.003037,0.025394,-0.000030,1,0,0,0,0,0,0,-0.016517,-0.012038,0.000106,1,0,0,0,0,0,0,0.010160,-0.002592,0.000043,1,0,0,0,0,0,0
1.660000,0.003184,0.024645,-0.000028,1,0,0,0,0,0,0,-0.015524,-0.011421,0.000096,1,0,0,0,0,0,0,0.009091,-0.001597,0.000049,1,0,0,0,0,0,0
1.670000,0.003295,0.023983,-0.000026,1,0,0,0,0,0,0,-0.014470,-0.010767,0.000086,1,0,0,0,0,0,0,0.008088,-0.000670,0.000054,1,0,0,0,0,0,0
1.680000,0.003370,0.023392,-0.000024,1,0,0,0,0,0,0,-0.013369,-0.010082,0.000076,1,0,0,0,0,0,0,0.007136,0.000197,0.000057,1,0,0,0,0,0,0
1.690000,0.003410,0.022858,-0.000022,1,0,0,0,0,0,0,-0.012240,-0.009378,0.000066,1,0,0,0,0,0,0,0.006227,0.001008,0.000059,1,0,0,0,0,0,0
1.700000,0.003416,0.022370,-0.000020,1,0,0,0,0,0,0,-0.011097,-0.008664,0.000057,1,0,0,0,0,0,0,0.005359,0.001766,0.000060,1,0,0,0,0,0,0
1.710000,0.003390,0.021921,-0.000018,1,0,0,0,0,0,0,-0.009952,-0.007947,0.000049,1,0,0,0,0,0,0,0.004532,0.002470,0.000060,1,0,0,0,0,0,0
1.720000,0.003332,0.021506,-0.000016,1,0,0,0,0,0,0,-0.008816,-0.007233,0.000042,1,0,0,0,0,0,0,0.003750,0.003117,0.000060,1,0,0,0,0,0,0
1.730000,0.003243,0.021127,-0.000014,1,0,0,0,0,0,0,-0.007702,-0.006530,0.000035,1,0,0,0,0,0,0,0.003022,0.003702,0.000058,1,0,0,0,0,0,0
1.740000,0.003124,0.020785,-0.000012,1,0,0,0,0,0,0,-0.006620,-0.005843,0.000030,1,0,0,0,0,0,0,0.002357,0.004218,0.000057,1,0,0,0,0,0,0
1.750000,0.002978,0.020486,-0.000010,1,0,0,0,0,0,0,-0.005573,-0.005176,0.000025,1,0,0,0,0,0,0,0.001765,0.004659,0.000054,1,0,0,0,0,0,0
1.760000,0.002805,0.020242,-0.000008,1,0,0,0,0,0,0,-0.004562,-0.004528,0.000021,1,0,0,0,0,0,0,0.001256,0.005021,0.000052,1,0,0,0,0,0,0
1.770000,0.002609,0.020063,-0.000006,1,0,0,0,0,0,0,-0.003587,-0.003901,0.000018,1,0,0,0,0,0,0,0.000836,0.005298,0.000049,1,0,0,0,0,0,0
1.780000,0.002393,0.019958,-0.000005,1,0,0,0,0,0,0,-0.002647,-0.003293,0.000015,1,0,0,0,0,0,0,0.000506,0.005491,0.000046,1,0,0,0,0,0,0
1.790000,0.002159,0.019936,-0.000003,1,0,0,0,0,0,0,-0.001737,-0.002701,0.000013,1,0,0,0,0,0,0,0.000263,0.005603,0.000044,1,0,0,0,0,0,0
1.800000,0.001912,0.020002,-0.000001,1,0,0,0,0,0,0,-0.000854,-0.002125,0.000012,1,0,0,0,0,0,0,0.000103,0.005637,0.000041,1,0,0,0,0,0,0
1.810000,0.001655,0.020159,0.000001,1,0,0,0,0,0,0,-0.000001,-0.001564,0.000011,1,0,0,0,0,0,0,0.000025,0.005596,0.000039,1,0,0,0,0,0,0
1.820000,0.001392,0.020407,0.000002,1,0,0,0,0,0,0,0.000820,-0.001020,0.000011,1,0,0,0,0,0,0,0.000027,0.005481,0.000036,1,0,0,0,0,0,0
1.830000,0.001125,0.020753,0.000003,1,0,0,0,0,0,0,0.001611,-0.000491,0.000011,1,0,0,0,0,0,0,0.000114,0.005293,0.000034,1,0,0,0,0,0,0
1.840000,0.000857,0.021200,0.000004,1,0,0,0,0,0,0,0.002369,0.000022,0.000011,1,0,0,0,0,0,0,0.000287,0.005029,0.000032,1,0,0,0,0,0,0
1.850000,0.000592,0.021747,0.000005,1,0,0,0,0,0,0,0.003090,0.000517,0.000012,1,0,0,0,0,0,0,0.000547,0.004691,0.000030,1,0,0,0,0,0,0
1.860000,0.000332,0.022389,0.000006,1,0,0,0,0,0,0,0.003763,0.000989,0.000013,1,0,0,0,0,0,0,0.000891,0.004283,0.000028,1,0,0,0,0,0,0
1.870000,0.000081,0.023122,0.000006,1,0,0,0,0,0,0,0.004377,0.001433,0.000014,1,0,0,0,0,0,0,0.001311,0.003810,0.000026,1,0,0,0,0,0,0
1.880000,-0.000159,0.023943,0.000006,1,0,0,0,0,0,0,0.004918,0.001841,0.000015,1,0,0,0,0,0,0,0.001805,0.003277,0.000023,1,0,0,0,0,0,0
1.890000,-0.000386,0.024843,0.000005,1,0,0,0,0,0,0,0.005381,0.002208,0.000016,1,0,0,0,0,0,0,0.002374,0.002684,0.000021,1,0,0,0,0,0,0
1.900000,-0.000596,0.025811,0.000004,1,0,0,0,0,0,0,0.005763,0.002532,0.000017,1,0,0,0,0,0,0,0.003015,0.002032,0.000018,1,0,0,0,0,0,0
1.910000,-0.000787,0.026832,0.000003,1,0,0,0,0,0,0,0.006060,0.002812,0.000018,1,0,0,0,0,0,0,0.003722,0.001329,0.000014,1,0,0,0,0,0,0
1.920000,-0.000957,0.027892,0.000001,1,0,0,0,0,0,0,0.006268,0.003044,0.000019,1,0,0,0,0,0,0,0.004474,0.000587,0.000011,1,0,0,0,0,0,0
1.930000,-0.001105,0.028984,-0.000001,1,0,0,0,0,0,0,0.006388,0.003230,0.000020,1,0,0,0,0,0,0,0.005247,-0.000176,0.000006,1,0,0,0,0,0,0
1.940000,-0.001228,0.030100,-0.000003,1,0,0,0,0,0,0,0.006424,0.003371,0.000020,1,0,0,0,0,0,0,0.006028,-0.000952,0.000001,1,0,0,0,0,0,0
1.950000,-0.001324,0.031231,-0.000005,1,0,0,0,0,0,0,0.006381,0.003468,0.000020,1,0,0,0,0,0,0,0.006825,-0.001742,-0.000004,1,0,0,0,0,0,0
1.960000,-0.001392,0.032364,-0.000008,1,0,0,0,0,0,0,0.006264,0.003524,0.000020,1,0,0,0,0,0,0,0.007642,-0.002550,-0.000010,1,0,0,0,0,0,0
1.970000,-0.001431,0.033486,-0.000010,1,0,0,0,0,0,0,0.006061,0.003534,0.000020,1,0,0,0,0,0,0,0.008477,-0.003372,-0.000017,1,0,0,0,0,0,0
1.980000,-0.001439,0.034589,-0.000013,1,0,0,0,0,0,0,0.005759,0.003492,0.000019,1,0,0,0,0,0,0,0.009323,-0.004204,-0.000024,1,0,0,0,0,0,0
1.990000,-0.001416,0.035662,-0.000015,1,0,0,0,0,0,0,0.005355,0.003395,0.000018,1,0,0,0,0,0,0,0.010175,-0.005040,-0.000032,1,0,0,0,0,0,0
2.000000,-0.001362,0.036694,-0.000017,1,0,0,0,0,0,0,0.004844,0.003242,0.000016,1,0,0,0,0,0,0,0.011028,-0.005875,-0.000040,1,0,0,0,0,0,0
2.010000,-0.001271,0.037666,-0.000019,1,0,0,0,0,0,0,0.004191,0.003015,0.000015,1,0,0,0,0,0,0,0.011885,-0.006712,-0.000049,1,0,0,0,0,0,0
2.020000,-0.001135,0.038516,-0.000020,1,0,0,0,0,0,0,0.003331,0.002684,0.000013,1,0,0,0,0,0,0,0.012744,-0.007549,-0.000059,1,0,0,0,0,0,0
2.030000,-0.000955,0.039211,-0.000021,1,0,0,0,0,0,0,0.002267,0.002248,0.000011,1,0,0,0,0,0,0,0.013606,-0.008386,-0.000070,1,0,0,0,0,0,0
2.040000,-0.000733,0.039741,-0.000022,1,0,0,0,0,0,0,0.001020,0.001714,0.000010,1,0,0,0,0,0,0,0.014486,-0.009228,-0.000081,1,0,0,0,0,0,0
2.050000,-0.000476,0.040113,-0.000022,1,0,0,0,0,0,0,-0.000382,0.001096,0.000009,1,0,0,0,0,0,0,0.015402,-0.010086,-0.000093,1,0,0,0,0,0,0
2.060000,-0.000189,0.040341,-0.000021,1,0,0,0,0,0,0,-0.001911,0.000406,0.000009,1,0,0,0,0,0,0,0.016369,-0.010966,-0.000106,1,0,0,0,0,0,0
2.070000,0.000125,0.040455,-0.000020,1,0,0,0,0,0,0,-0.003538,-0.000343,0.000011,1,0,0,0,0,0,0,0.017401,-0.011877,-0.000120,1,0,0,0,0,0,0
2.080000,0.000460,0.040498,-0.000019,1,0,0,0,0,0,0,-0.005223,-0.001136,0.000014,1,0,0,0,0,0,0,0.018501,-0.012819,-0.000136,1,0,0,0,0,0,0
2.090000,0.000813,0.040519,-0.000018,1,0,0,0,0,0,0,-0.006926,-0.001954,0.000018,1,0,0,0,0,0,0,0.019661,-0.013784,-0.000153,1,0,0,0,0,0,0
2.100000,0.001179,0.040574,-0.000016,1,0,0,0,0,0,0,-0.008614,-0.002786,0.000024,1,0,0,0,0,0,0,0.020867,-0.014763,-0.000172,1,0,0,0,0,0,0
2.110000,0.001553,0.040720,-0.000013,1,0,0,0,0,0,0,-0.010275,-0.003629,0.000031,1,0,0,0,0,0,0,0.022105,-0.015743,-0.000192,1,0,0,0,0,0,0
2.120000,0.001932,0.041010,-0.000010,1,0,0,0,0,0,0,-0.011898,-0.004480,0.000040,1,0,0,0,0,0,0,0.023368,-0.016714,-0.000213,1,0,0,0,0,0,0
2.130000,0.002307,0.041490,-0.000006,1,0,0,0,0,0,0,-0.013477,-0.005338,0.000050,1,0,0,0,0,0,0,0.024654,-0.017672,-0.000235,1,0,0,0,0,0,0
2.140000,0.002673,0.042197,-0.000001,1,0,0,0,0,0,0,-0.015005,-0.006200,0.000061,1,0,0,0,0,0,0,0.025961,-0.018608,-0.000258,1,0,0,0,0,0,0
2.150000,0.003018,0.043162,0.000005,1,0,0,0,0,0,0,-0.016477,-0.007063,0.000074,1,0,0,0,0,0,0,0.027289,-0.019521,-0.000281,1,0,0,0,0,0,0
2.160000,0.003334,0.044418,0.000012,1,0,0,0,0,0,0,-0.017885,-0.007921,0.000088,1,0,0,0,0,0,0,0.028651,-0.020416,-0.000305,1,0,0,0,0,0,0
2.170000,0.003609,0.045994,0.000021,1,0,0,0,0,0,0,-0.019218,-0.008765,0.000102,1,0,0,0,0,0,0,0.030071,-0.021306,-0.000330,1,0,0,0,0,0,0
2.180000,0.003829,0.047914,0.000032,1,0,0,0,0,0,0,-0.020465,-0.009586,0.000117,1,0,0,0,0,0,0,0.031580,-0.022210,-0.000357,1,0,0,0,0,0,0
2.190000,0.003979,0.050202,0.000045,1,0,0,0,0,0,0,-0.021620,-0.010378,0.000133,1,0,0,0,0,0,0,0.033208,-0.023149,-0.000387,1,0,0,0,0,0,0
2.200000,0.004045,0.052892,0.000059,1,0,0,0,0,0,0,-0.022707,-0.011157,0.000149,1,0,0,0,0,0,0,0.034987,-0.024142,-0.000421,1,0,0,0,0,0,0
2.210000,0.004017,0.056033,0.000075,1,0,0,0,0,0,0,-0.023740,-0.011934,0.000166,1,0,0,0,0,0,0,0.036948,-0.025214,-0.000459,1,0,0,0,0,0,0
2.220000,0.003891,0.059673,0.000092,1,0,0,0,0,0,0,-0.024726,-0.012716,0.000183,1,0,0,0,0,0,0,0.039124,-0.026394,-0.000504,1,0,0,0,0,0,0
2.230000,0.003668,0.063829,0.000109,1,0,0,0,0,0,0,-0.025673,-0.013509,0.000202,1,0,0,0,0,0,0,0.041569,-0.027726,-0.000559,1,0,0,0,0,0,0
2.240000,0.003358,0.068483,0.000127,1,0,0,0,0,0,0,-0.026592,-0.014324,0.000221,1,0,0,0,0,0,0,0.044374,-0.029279,-0.000626,1,0,0,0,0,0,0
2.250000,0.002971,0.073595,0.000143,1,0,0,0,0,0,0,-0.027487,-0.015168,0.000242,1,0,0,0,0,0,0,0.047650,-0.031131,-0.000713,1,0,0,0,0,0,0
2.260000,0.002517,0.079123,0.000157,1,0,0,0,0,0,0,-0.028348,-0.016035,0.000265,1,0,0,0,0,0,0,0.051491,-0.033345,-0.000824,1,0,0,0,0,0,0
2.270000,0.002011,0.085057,0.000167,1,0,0,0,0,0,0,-0.029154,-0.016909,0.000288,1,0,0,0,0,0,0,0.055978,-0.035970,-0.000967,1,0,0,0,0,0,0
2.280000,0.001469,0.091431,0.000175,1,0,0,0,0,0,0,-0.029894,-0.017776,0.000311,1,0,0,0,0,0,0,0.061152,-0.039043,-0.001149,1,0,0,0,0,0,0
2.290000,0.000912,0.098287,0.000177,1,0,0,0,0,0,0,-0.030583,-0.018635,0.000334,1,0,0,0,0,0,0,0.066967,-0.042562,-0.001377,1,0,0,0,0,0,0
2.300000,0.000366,0.105585,0.000175,1,0,0,0,0,0,0,-0.031260,-0.019502,0.000358,1,0,0,0,0,0,0,0.073293,-0.046484,-0.001654,1,0,0,0,0,0,0
2.310000,-0.000149,0.113168,0.000167,1,0,0,0,0,0,0,-0.032003,-0.020414,0.000384,1,0,0,0,0,0,0,0.079968,-0.050750,-0.001984,1,0,0,0,0,0,0
2.320000,-0.000622,0.120822,0.000154,1,0,0,0,0,0,0,-0.032922,-0.021425,0.000413,1,0,0,0,0,0,0,0.086789,-0.055247,-0.002363,1,0,0,0,0,0,0
2.330000,-0.001043,0.128326,0.000137,1,0,0,0,0,0,0,-0.034134,-0.022586,0.000449,1,0,0,0,0,0,0,0.093508,-0.059792,-0.002775,1,0,0,0,0,0,0
2.340000,-0.001406,0.135533,0.000117,1,0,0,0,0,0,0,-0.035739,-0.023942,0.000492,1,0,0,0,0,0,0,0.100003,-0.064243,-0.003209,1,0,0,0,0,0,0
2.350000,-0.001705,0.142396,0.000094,1,0,0,0,0,0,0,-0.037853,-0.025548,0.000548,1,0,0,0,0,0,0,0.106387,-0.068632,-0.003664,1,0,0,0,0,0,0
2.360000,-0.001939,0.148901,0.000069,1,0,0,0,0,0,0,-0.040633,-0.027496,0.000620,1,0,0,0,0,0,0,0.112844,-0.073074,-0.004153,1,0,0,0,0,0,0
2.370000,-0.002115,0.154989,0.000044,1,0,0,0,0,0,0,-0.044211,-0.029885,0.000718,1,0,0,0,0,0,0,0.119362,-0.077575,-0.004677,1,0,0,0,0,0,0
2.380000,-0.002247,0.160579,0.000019,1,0,0,0,0,0,0,-0.048670,-0.032804,0.000849,1,0,0,0,0,0,0,0.125754,-0.082004,-0.005221,1,0,0,0,0,0,0
2.390000,-0.002349,0.165657,-0.000005,1,0,0,0,0,0,0,-0.053997,-0.036288,0.001025,1,0,0,0,0,0,0,0.131826,-0.086180,-0.005760,1,0,0,0,0,0,0
2.400000,-0.002433,0.170327,-0.000028,1,0,0,0,0,0,0,-0.060056,-0.040276,0.001249,1,0,0,0,0,0,0,0.137489,-0.089964,-0.006270,1,0,0,0,0,0,0
2.410000,-0.002500,0.174775,-0.000051,1,0,0,0,0,0,0,-0.066686,-0.044661,0.001524,1,0,0,0,0,0,0,0.142798,-0.093340,-0.006743,1,0,0,0,0,0,0
2.420000,-0.002540,0.179164,-0.000072,1,0,0,0,0,0,0,-0.073734,-0.049310,0.001848,1,0,0,0,0,0,0,0.147836,-0.096361,-0.007183,1,0,0,0,0,0,0
2.430000,-0.002545,0.183533,-0.000094,1,0,0,0,0,0,0,-0.081024,-0.054046,0.002212,1,0,0,0,0,0,0,0.152574,-0.099030,-0.007585,1,0,0,0,0,0,0
2.440000,-0.002509,0.187817,-0.000113,1,0,0,0,0,0,0,-0.088262,-0.058604,0.002597,1,0,0,0,0,0,0,0.156922,-0.101288,-0.007937,1,0,0,0,0,0,0
2.450000,-0.002444,0.191921,-0.000132,1,0,0,0,0,0,0,-0.095116,-0.062732,0.002975,1,0,0,0,0,0,0,0.160827,-0.103080,-0.008226,1,0,0,0,0,0,0
2.460000,-0.002362,0.195798,-0.000148,1,0,0,0,0,0,0,-0.101575,-0.066419,0.003338,1,0,0,0,0,0,0,0.164309,-0.104409,-0.008449,1,0,0,0,0,0,0
2.470000,-0.002272,0.199450,-0.000162,1,0,0,0,0,0,0,-0.107924,-0.069827,0.003698,1,0,0,0,0,0,0,0.167418,-0.105321,-0.008610,1,0,0,0,0,0,0
2.480000,-0.002175,0.202887,-0.000175,1,0,0,0,0,0,0,-0.114459,-0.073164,0.004074,1,0,0,0,0,0,0,0.170165,-0.105865,-0.008715,1,0,0,0,0,0,0
2.490000,-0.002077,0.206088,-0.000185,1,0,0,0,0,0,0,-0.121075,-0.076476,0.004472,1,0,0,0,0,0,0,0.172576,-0.106098,-0.008772,1,0,0,0,0,0,0
2.500000,-0.001995,0.209003,-0.000194,1,0,0,0,0,0,0,-0.127450,-0.079656,0.004879,1,0,0,0,0,0,0,0.174754,-0.106128,-0.008800,1,0,0,0,0,0,0
2.510000,-0.001954,0.211580,-0.000200,1,0,0,0,0,0,0,-0.133253,-0.082571,0.005272,1,0,0,0,0,0,0,0.176848,-0.106118,-0.008826,1,0,0,0,0,0,0
2.520000,-0.001977,0.213777,-0.000206,1,0,0,0,0,0,0,-0.138258,-0.085129,0.005636,1,0,0,0,0,0,0,0.178945,-0.106210,-0.008875,1,0,0,0,0,0,0
2.530000,-0.002086,0.215571,-0.000210,1,0,0,0,0,0,0,-0.142524,-0.087387,0.005970,1,0,0,0,0,0,0,0.180994,-0.106452,-0.008957,1,0,0,0,0,0,0
2.540000,-0.002305,0.216952,-0.000214,1,0,0,0,0,0,0,-0.146244,-0.089461,0.006288,1,0,0,0,0,0,0,0.182908,-0.106836,-0.009070,1,0,0,0,0,0,0
2.550000,-0.002657,0.217908,-0.000218,1,0,0,0,0,0,0,-0.149475,-0.091353,0.006587,1,0,0,0,0,0,0,0.184653,-0.107373,-0.009213,1,0,0,0,0,0,0
2.560000,-0.003156,0.218398,-0.000223,1,0,0,0,0,0,0,-0.152143,-0.092981,0.006851,1,0,0,0,0,0,0,0.186223,-0.108099,-0.009394,1,0,0,0,0,0,0
2.570000,-0.003804,0.218314,-0.000229,1,0,0,0,0,0,0,-0.154219,-0.094284,0.007068,1,0,0,0,0,0,0,0.187498,-0.108983,-0.009606,1,0,0,0,0,0,0
2.580000,-0.004591,0.217491,-0.000235,1,0,0,0,0,0,0,-0.155826,-0.095295,0.007240,1,0,0,0,0,0,0,0.188214,-0.109886,-0.009819,1,0,0,0,0,0,0
2.590000,-0.005500,0.215770,-0.000240,1,0,0,0,0,0,0,-0.157148,-0.096102,0.007381,1,0,0,0,0,0,0,0.188081,-0.110620,-0.009996,1,0,0,0,0,0,0
2.600000,-0.006511,0.213080,-0.000243,1,0,0,0,0,0,0,-0.158241,-0.096737,0.007495,1,0,0,0,0,0,0,0.186933,-0.111030,-0.010104,1,0,0,0,0,0,0
2.610000,-0.007600,0.209471,-0.000241,1,0,0,0,0,0,0,-0.159004,-0.097141,0.007571,1,0,0,0,0,0,0,0.184808,-0.111060,-0.010133,1,0,0,0,0,0,0
2.620000,-0.008732,0.205096,-0.000236,1,0,0,0,0,0,0,-0.159347,-0.097258,0.007601,1,0,0,0,0,0,0,0.181889,-0.110737,-0.010087,1,0,0,0,0,0,0
2.630000,-0.009870,0.200148,-0.000226,1,0,0,0,0,0,0,-0.159355,-0.097125,0.007590,1,0,0,0,0,0,0,0.178383,-0.110099,-0.009976,1,0,0,0,0,0,0
2.640000,-0.010975,0.194788,-0.000212,1,0,0,0,0,0,0,-0.159263,-0.096867,0.007559,1,0,0,0,0,0,0,0.174444,-0.109176,-0.009808,1,0,0,0,0,0,0
2.650000,-0.012009,0.189119,-0.000195,1,0,0,0,0,0,0,-0.159367,-0.096650,0.007534,1,0,0,0,0,0,0,0.170163,-0.107984,-0.009589,1,0,0,0,0,0,0
2.660000,-0.012932,0.183216,-0.000174,1,0,0,0,0,0,0,-0.159712,-0.096519,0.007524,1,0,0,0,0,0,0,0.165561,-0.106507,-0.009318,1,0,0,0,0,0,0
2.670000,-0.013701,0.177185,-0.000151,1,0,0,0,0,0,0,-0.160238,-0.096463,0.007527,1,0,0,0,0,0,0,0.160590,-0.104681,-0.008991,1,0,0,0,0,0,0
2.680000,-0.014272,0.171184,-0.000128,1,0,0,0,0,0,0,-0.160888,-0.096481,0.007543,1,0,0,0,0,0,0,0.155215,-0.102430,-0.008600,1,0,0,0,0,0,0
2.690000,-0.014610,0.165354,-0.000108,1,0,0,0,0,0,0,-0.161630,-0.096604,0.007577,1,0,0,0,0,0,0,0.149499,-0.099735,-0.008148,1,0,0,0,0,0,0
2.700000,-0.014708,0.159723,-0.000090,1,0,0,0,0,0,0,-0.162385,-0.096836,0.007630,1,0,0,0,0,0,0,0.143613,-0.096679,-0.007656,1,0,0,0,0,0,0
2.710000,-0.014581,0.154200,-0.000073,1,0,0,0,0,0,0,-0.163005,-0.097119,0.007692,1,0,0,0,0,0,0,0.137770,-0.093428,-0.007152,1,0,0,0,0,0,0
2.720000,-0.014270,0.148667,-0.000057,1,0,0,0,0,0,0,-0.163344,-0.097373,0.007749,1,0,0,0,0,0,0,0.132103,-0.090138,-0.006661,1,0,0,0,0,0,0
2.730000,-0.013824,0.143069,-0.000039,1,0,0,0,0,0,0,-0.163239,-0.097485,0.007782,1,0,0,0,0,0,0,0.126610,-0.086880,-0.006193,1,0,0,0,0,0,0
2.740000,-0.013292,0.137439,-0.000020,1,0,0,0,0,0,0,-0.162583,-0.097358,0.007773,1,0,0,0,0,0,0,0.121196,-0.083641,-0.005746,1,0,0,0,0,0,0
2.750000,-0.012713,0.131856,-0.000003,1,0,0,0,0,0,0,-0.161343,-0.096932,0.007714,1,0,0,0,0,0,0,0.115781,-0.080390,-0.005316,1,0,0,0,0,0,0
2.760000,-0.012120,0.126386,0.000014,1,0,0,0,0,0,0,-0.159536,-0.096169,0.007599,1,0,0,0,0,0,0,0.110402,-0.077165,-0.004908,1,0,0,0,0,0,0
2.770000,-0.011546,0.121047,0.000029,1,0,0,0,0,0,0,-0.157191,-0.095056,0.007427,1,0,0,0,0,0,0,0.105207,-0.074097,-0.004536,1,0,0,0,0,0,0
2.780000,-0.011027,0.115821,0.000043,1,0,0,0,0,0,0,-0.154344,-0.093602,0.007203,1,0,0,0,0,0,0,0.100348,-0.071337,-0.004211,1,0,0,0,0,0,0
2.790000,-0.010597,0.110697,0.000056,1,0,0,0,0,0,0,-0.151037,-0.091844,0.006934,1,0,0,0,0,0,0,0.095906,-0.069001,-0.003942,1,0,0,0,0,0,0
2.800000,-0.010288,0.105695,0.000068,1,0,0,0,0,0,0,-0.147356,-0.089858,0.006636,1,0,0,0,0,0,0,0.091857,-0.067111,-0.003725,1,0,0,0,0,0,0
2.810000,-0.010128,0.100852,0.000080,1,0,0,0,0,0,0,-0.143445,-0.087765,0.006329,1,0,0,0,0,0,0,0.088139,-0.065642,-0.003553,1,0,0,0,0,0,0
2.820000,-0.010140,0.096197,0.000091,1,0,0,0,0,0,0,-0.139430,-0.085676,0.006030,1,0,0,0,0,0,0,0.084672,-0.064530,-0.003417,1,0,0,0,0,0,0
2.830000,-0.010338,0.091742,0.000101,1,0,0,0,0,0,0,-0.135342,-0.083637,0.005744,1,0,0,0,0,0,0,0.081385,-0.063709,-0.003308,1,0,0,0,0,0,0
2.840000,-0.010737,0.087487,0.000111,1,0,0,0,0,0,0,-0.131124,-0.081615,0.005469,1,0,0,0,0,0,0,0.078245,-0.063149,-0.003221,1,0,0,0,0,0,0
2.850000,-0.011335,0.083394,0.000121,1,0,0,0,0,0,0,-0.126659,-0.079521,0.005190,1,0,0,0,0,0,0,0.075219,-0.062840,-0.003153,1,0,0,0,0,0,0
2.860000,-0.012107,0.079403,0.000133,1,0,0,0,0,0,0,-0.121880,-0.077288,0.004903,1,0,0,0,0,0,0,0.072231,-0.062726,-0.003098,1,0,0,0,0,0,0
2.870000,-0.013022,0.075471,0.000146,1,0,0,0,0,0,0,-0.116771,-0.074860,0.004600,1,0,0,0,0,0,0,0.069185,-0.062714,-0.003049,1,0,0,0,0,0,0
2.880000,-0.014045,0.071605,0.000160,1,0,0,0,0,0,0,-0.111412,-0.072229,0.004285,1,0,0,0,0,0,0,0.066010,-0.062718,-0.002998,1,0,0,0,0,0,0
2.890000,-0.015135,0.067847,0.000176,1,0,0,0,0,0,0,-0.105967,-0.069456,0.003967,1,0,0,0,0,0,0,0.062679,-0.062669,-0.002940,1,0,0,0,0,0,0
2.900000,-0.016241,0.064256,0.000192,1,0,0,0,0,0,0,-0.100612,-0.066616,0.003656,1,0,0,0,0,0,0,0.059203,-0.062494,-0.002873,1,0,0,0,0,0,0
2.910000,-0.017311,0.060896,0.000206,1,0,0,0,0,0,0,-0.095471,-0.063770,0.003357,1,0,0,0,0,0,0,0.055638,-0.062161,-0.002794,1,0,0,0,0,0,0
2.920000,-0.018307,0.057843,0.000217,1,0,0,0,0,0,0,-0.090593,-0.060942,0.003074,1,0,0,0,0,0,0,0.052066,-0.061669,-0.002705,1,0,0,0,0,0,0
2.930000,-0.019202,0.055196,0.000222,1,0,0,0,0,0,0,-0.085984,-0.058132,0.002806,1,0,0,0,0,0,0,0.048574,-0.061028,-0.002607,1,0,0,0,0,0,0
2.940000,-0.019968,0.053041,0.000220,1,0,0,0,0,0,0,-0.081628,-0.055333,0.002552,1,0,0,0,0,0,0,0.045251,-0.060251,-0.002504,1,0,0,0,0,0,0
2.950000,-0.020577,0.051432,0.000207,1,0,0,0,0,0,0,-0.077516,-0.052541,0.002311,1,0,0,0,0,0,0,0.042220,-0.059373,-0.002398,1,0,0,0,0,0,0
2.960000,-0.021003,0.050378,0.000185,1,0,0,0,0,0,0,-0.073706,-0.049781,0.002084,1,0,0,0,0,0,0,0.039594,-0.058440,-0.002291,1,0,0,0,0,0,0
2.970000,-0.021224,0.049855,0.000153,1,0,0,0,0,0,0,-0.070163,-0.047061,0.001872,1,0,0,0,0,0,0,0.037437,-0.057492,-0.002187,1,0,0,0,0,0,0
2.980000,-0.021222,0.049825,0.000111,1,0,0,0,0,0,0,-0.066908,-0.044422,0.001676,1,0,0,0,0,0,0,0.035750,-0.056544,-0.002085,1,0,0,0,0,0,0
2.990000,-0.020990,0.050255,0.000063,1,0,0,0,0,0,0,-0.064033,-0.041944,0.001501,1,0,0,0,0,0,0,0.034475,-0.055571,-0.001985,1,0,0,0,0,0,0
3.000000,-0.020525,0.051130,0.000008,1,0,0,0,0,0,0,-0.061621,-0.039706,0.001349,1,0,0,0,0,0,0,0.033534,-0.054530,-0.001887,1,0,0,0,0,0,0
3.010000,-0.019835,0.052432,-0.000052,1,0,0,0,0,0,0,-0.059742,-0.037779,0.001224,1,0,0,0,0,0,0,0.032890,-0.053396,-0.001789,1,0,0,0,0,0,0
3.020000,-0.018940,0.054116,-0.000115,1,0,0,0,0,0,0,-0.058420,-0.036205,0.001124,1,0,0,0,0,0,0,0.032557,-0.052192,-0.001693,1,0,0,0,0,0,0
3.030000,-0.017872,0.056102,-0.000177,1,0,0,0,0,0,0,-0.057609,-0.034985,0.001048,1,0,0,0,0,0,0,0.032628,-0.051009,-0.001602,1,0,0,0,0,0,0
3.040000,-0.016677,0.058303,-0.000237,1,0,0,0,0,0,0,-0.057259,-0.034116,0.000994,1,0,0,0,0,0,0,0.033208,-0.049967,-0.001519,1,0,0,0,0,0,0
3.050000,-0.015409,0.060646,-0.000292,1,0,0,0,0,0,0,-0.057297,-0.033583,0.000962,1,0,0,0,0,0,0,0.034397,-0.049190,-0.001449,1,0,0,0,0,0,0
3.060000,-0.014128,0.063098,-0.000342,1,0,0,0,0,0,0,-0.057660,-0.033377,0.000950,1,0,0,0,0,0,0,0.036149,-0.048731,-0.001394,1,0,0,0,0,0,0
3.070000,-0.012888,0.065673,-0.000385,1,0,0,0,0,0,0,-0.058338,-0.033518,0.000958,1,0,0,0,0,0,0,0.038366,-0.048592,-0.001356,1,0,0,0,0,0,0
3.080000,-0.011735,0.068414,-0.000424,1,0,0,0,0,0,0,-0.059352,-0.034045,0.000990,1,0,0,0,0,0,0,0.040955,-0.048763,-0.001334,1,0,0,0,0,0,0
3.090000,-0.010714,0.071358,-0.000457,1,0,0,0,0,0,0,-0.060605,-0.034902,0.001042,1,0,0,0,0,0,0,0.043854,-0.049244,-0.001332,1,0,0,0,0,0,0
3.100000,-0.009866,0.074503,-0.000487,1,0,0,0,0,0,0,-0.061962,-0.035987,0.001110,1,0,0,0,0,0,0,0.047042,-0.050058,-0.001351,1,0,0,0,0,0,0
3.110000,-0.009239,0.077798,-0.000513,1,0,0,0,0,0,0,-0.063336,-0.037221,0.001188,1,0,0,0,0,0,0,0.050496,-0.051228,-0.001395,1,0,0,0,0,0,0
3.120000,-0.008881,0.081172,-0.000536,1,0,0,0,0,0,0,-0.064640,-0.038496,0.001269,1,0,0,0,0,0,0,0.054189,-0.052774,-0.001468,1,0,0,0,0,0,0
3.130000,-0.008832,0.084553,-0.000557,1,0,0,0,0,0,0,-0.065848,-0.039734,0.001349,1,0,0,0,0,0,0,0.058096,-0.054724,-0.001573,1,0,0,0,0,0,0
3.140000,-0.009110,0.087896,-0.000576,1,0,0,0,0,0,0,-0.067024,-0.040934,0.001427,1,0,0,0,0,0,0,0.062151,-0.057074,-0.001713,1,0,0,0,0,0,0
3.150000,-0.009709,0.091198,-0.000597,1,0,0,0,0,0,0,-0.068237,-0.042114,0.001504,1,0,0,0,0,0,0,0.066256,-0.059772,-0.001889,1,0,0,0,0,0,0
3.160000,-0.010600,0.094464,-0.000620,1,0,0,0,0,0,0,-0.069516,-0.043285,0.001582,1,0,0,0,0,0,0,0.070306,-0.062755,-0.002097,1,0,0,0,0,0,0
3.170000,-0.011732,0.097666,-0.000648,1,0,0,0,0,0,0,-0.070897,-0.044479,0.001661,1,0,0,0,0,0,0,0.074188,-0.065937,-0.002333,1,0,0,0,0,0,0
3.180000,-0.013041,0.100735,-0.000681,1,0,0,0,0,0,0,-0.072410,-0.045742,0.001747,1,0,0,0,0,0,0,0.077779,-0.069186,-0.002587,1,0,0,0,0,0,0
3.190000,-0.014462,0.103600,-0.000717,1,0,0,0,0,0,0,-0.074069,-0.047125,0.001844,1,0,0,0,0,0,0,0.080995,-0.072374,-0.002848,1,0,0,0,0,0,0
3.200000,-0.015927,0.106235,-0.000758,1,0,0,0,0,0,0,-0.075890,-0.048680,0.001955,1,0,0,0,0,0,0,0.083825,-0.075431,-0.003106,1,0,0,0,0,0,0
3.210000,-0.017369,0.108687,-0.000802,1,0,0,0,0,0,0,-0.077851,-0.050416,0.002082,1,0,0,0,0,0,0,0.086308,-0.078331,-0.003358,1,0,0,0,0,0,0
3.220000,-0.018734,0.111066,-0.000852,1,0,0,0,0,0,0,-0.079891,-0.052289,0.002224,1,0,0,0,0,0,0,0.088468,-0.081045,-0.003598,1,0,0,0,0,0,0
3.230000,-0.019970,0.113486,-0.000909,1,0,0,0,0,0,0,-0.081932,-0.054219,0.002373,1,0,0,0,0,0,0,0.090300,-0.083507,-0.003820,1,0,0,0,0,0,0
3.240000,-0.021036,0.116012,-0.000973,1,0,0,0,0,0,0,-0.083884,-0.056090,0.002520,1,0,0,0,0,0,0,0.091809,-0.085648,-0.004015,1,0,0,0,0,0,0
3.250000,-0.021900,0.118640,-0.001044,1,0,0,0,0,0,0,-0.085700,-0.057807,0.002656,1,0,0,0,0,0,0,0.093061,-0.087439,-0.004177,1,0,0,0,0,0,0
3.260000,-0.022540,0.121320,-0.001119,1,0,0,0,0,0,0,-0.087418,-0.059344,0.002780,1,0,0,0,0,0,0,0.094206,-0.088932,-0.004313,1,0,0,0,0,0,0
3.270000,-0.022945,0.123993,-0.001195,1,0,0,0,0,0,0,-0.089155,-0.060756,0.002894,1,0,0,0,0,0,0,0.095430,-0.090249,-0.004432,1,0,0,0,0,0,0
3.280000,-0.023112,0.126601,-0.001269,1,0,0,0,0,0,0,-0.091047,-0.062139,0.003008,1,0,0,0,0,0,0,0.096859,-0.091505,-0.004547,1,0,0,0,0,0,0
3.290000,-0.023047,0.129093,-0.001340,1,0,0,0,0,0,0,-0.093275,-0.063625,0.003135,1,0,0,0,0,0,0,0.098482,-0.092729,-0.004661,1,0,0,0,0,0,0
3.300000,-0.022768,0.131413,-0.001404,1,0,0,0,0,0,0,-0.095876,-0.065277,0.003282,1,0,0,0,0,0,0,0.100212,-0.093873,-0.004769,1,0,0,0,0,0,0
3.310000,-0.022303,0.133506,-0.001459,1,0,0,0,0,0,0,-0.098757,-0.067079,0.003448,1,0,0,0,0,0,0,0.101968,-0.094869,-0.004867,1,0,0,0,0,0,0
3.320000,-0.021696,0.135334,-0.001503,1,0,0,0,0,0,0,-0.101835,-0.068998,0.003633,1,0,0,0,0,0,0,0.103708,-0.095680,-0.004948,1,0,0,0,0,0,0
3.330000,-0.021000,0.136880,-0.001536,1,0,0,0,0,0,0,-0.105018,-0.070992,0.003833,1,0,0,0,0,0,0,0.105443,-0.096328,-0.005017,1,0,0,0,0,0,0
3.340000,-0.020275,0.138146,-0.001559,1,0,0,0,0,0,0,-0.108266,-0.073041,0.004046,1,0,0,0,0,0,0,0.107217,-0.096881,-0.005079,1,0,0,0,0,0,0
3.350000,-0.019575,0.139142,-0.001572,1,0,0,0,0,0,0,-0.111569,-0.075153,0.004274,1,0,0,0,0,0,0,0.109063,-0.097402,-0.005141,1,0,0,0,0,0,0
3.360000,-0.018950,0.139888,-0.001576,1,0,0,0,0,0,0,-0.114947,-0.077351,0.004519,1,0,0,0,0,0,0,0.111013,-0.097936,-0.005210,1,0,0,0,0,0,0
3.370000,-0.018444,0.140430,-0.001572,1,0,0,0,0,0,0,-0.118453,-0.079677,0.004788,1,0,0,0,0,0,0,0.113092,-0.098518,-0.005288,1,0,0,0,0,0,0
3.380000,-0.018097,0.140843,-0.001565,1,0,0,0,0,0,0,-0.122106,-0.082153,0.005084,1,0,0,0,0,0,0,0.115281,-0.099159,-0.005378,1,0,0,0,0,0,0
3.390000,-0.017945,0.141217,-0.001555,1,0,0,0,0,0,0,-0.125840,-0.084735,0.005403,1,0,0,0,0,0,0,0.117520,-0.099862,-0.005479,1,0,0,0,0,0,0
3.400000,-0.018007,0.141613,-0.001545,1,0,0,0,0,0,0,-0.129548,-0.087344,0.005735,1,0,0,0,0,0,0,0.119711,-0.100608,-0.005591,1,0,0,0,0,0,0
3.410000,-0.018291,0.142020,-0.001536,1,0,0,0,0,0,0,-0.133092,-0.089879,0.006067,1,0,0,0,0,0,0,0.121724,-0.101340,-0.005706,1,0,0,0,0,0,0
3.420000,-0.018794,0.142374,-0.001528,1,0,0,0,0,0,0,-0.136336,-0.092236,0.006383,1,0,0,0,0,0,0,0.123459,-0.101996,-0.005814,1,0,0,0,0,0,0
3.430000,-0.019502,0.142598,-0.001520,1,0,0,0,0,0,0,-0.139161,-0.094319,0.006668,1,0,0,0,0,0,0,0.124895,-0.102547,-0.005912,1,0,0,0,0,0,0
3.440000,-0.020394,0.142648,-0.001512,1,0,0,0,0,0,0,-0.141458,-0.096028,0.006905,1,0,0,0,0,0,0,0.126068,-0.103016,-0.006002,1,0,0,0,0,0,0
3.450000,-0.021427,0.142532,-0.001504,1,0,0,0,0,0,0,-0.143202,-0.097312,0.007084,1,0,0,0,0,0,0,0.127017,-0.103444,-0.006087,1,0,0,0,0,0,0
3.460000,-0.022540,0.142288,-0.001498,1,0,0,0,0,0,0,-0.144438,-0.098159,0.007202,1,0,0,0,0,0,0,0.127707,-0.103833,-0.006167,1,0,0,0,0,0,0
3.470000,-0.023648,0.141951,-0.001494,1,0,0,0,0,0,0,-0.145220,-0.098567,0.007256,1,0,0,0,0,0,0,0.128003,-0.104087,-0.006229,1,0,0,0,0,0,0
3.480000,-0.024659,0.141527,-0.001492,1,0,0,0,0,0,0,-0.145570,-0.098519,0.007244,1,0,0,0,0,0,0,0.127753,-0.104064,-0.006254,1,0,0,0,0,0,0
3.490000,-0.025482,0.140998,-0.001492,1,0,0,0,0,0,0,-0.145464,-0.097998,0.007163,1,0,0,0,0,0,0,0.126889,-0.103636,-0.006224,1,0,0,0,0,0,0
3.500000,-0.026050,0.140350,-0.001492,1,0,0,0,0,0,0,-0.144891,-0.097015,0.007017,1,0,0,0,0,0,0,0.125465,-0.102753,-0.006135,1,0,0,0,0,0,0
3.510000,-0.026320,0.139604,-0.001491,1,0,0,0,0,0,0,-0.143911,-0.095651,0.006818,1,0,0,0,0,0,0,0.123622,-0.101454,-0.005992,1,0,0,0,0,0,0
3.520000,-0.026277,0.138823,-0.001490,1,0,0,0,0,0,0,-0.142650,-0.094055,0.006590,1,0,0,0,0,0,0,0.121512,-0.099819,-0.005809,1,0,0,0,0,0,0
3.530000,-0.025918,0.138088,-0.001491,1,0,0,0,0,0,0,-0.141241,-0.092395,0.006358,1,0,0,0,0,0,0,0.119235,-0.097920,-0.005595,1,0,0,0,0,0,0
3.540000,-0.025252,0.137440,-0.001493,1,0,0,0,0,0,0,-0.139723,-0.090771,0.006137,1,0,0,0,0,0,0,0.116849,-0.095807,-0.005359,1,0,0,0,0,0,0
3.550000,-0.024301,0.136828,-0.001494,1,0,0,0,0,0,0,-0.138024,-0.089179,0.005925,1,0,0,0,0,0,0,0.114407,-0.093530,-0.005109,1,0,0,0,0,0,0
3.560000,-0.023102,0.136133,-0.001489,1,0,0,0,0,0,0,-0.136035,-0.087550,0.005713,1,0,0,0,0,0,0,0.112000,-0.091156,-0.004853,1,0,0,0,0,0,0
3.570000,-0.021703,0.135222,-0.001476,1,0,0,0,0,0,0,-0.133702,-0.085821,0.005492,1,0,0,0,0,0,0,0.109737,-0.088778,-0.004602,1,0,0,0,0,0,0
3.580000,-0.020167,0.134016,-0.001453,1,0,0,0,0,0,0,-0.131064,-0.083974,0.005260,1,0,0,0,0,0,0,0.107702,-0.086486,-0.004367,1,0,0,0,0,0,0
3.590000,-0.018555,0.132515,-0.001420,1,0,0,0,0,0,0,-0.128227,-0.082035,0.005022,1,0,0,0,0,0,0,0.105921,-0.084348,-0.004155,1,0,0,0,0,0,0
3.600000,-0.016924,0.130781,-0.001381,1,0,0,0,0,0,0,-0.125333,-0.080066,0.004785,1,0,0,0,0,0,0,0.104372,-0.082396,-0.003966,1,0,0,0,0,0,0
3.610000,-0.015326,0.128875,-0.001336,1,0,0,0,0,0,0,-0.122472,-0.078098,0.004553,1,0,0,0,0,0,0,0.102997,-0.080620,-0.003801,1,0,0,0,0,0,0
3.620000,-0.013811,0.126830,-0.001288,1,0,0,0,0,0,0,-0.119686,-0.076146,0.004329,1,0,0,0,0,0,0,0.101732,-0.078985,-0.003653,1,0,0,0,0,0,0
3.630000,-0.012423,0.124670,-0.001237,1,0,0,0,0,0,0,-0.117070,-0.074265,0.004119,1,0,0,0,0,0,0,0.100553,-0.077460,-0.003519,1,0,0,0,0,0,0
3.640000,-0.011203,0.122439,-0.001184,1,0,0,0,0,0,0,-0.114702,-0.072525,0.003930,1,0,0,0,0,0,0,0.099462,-0.076025,-0.003397,1,0,0,0,0,0,0
3.650000,-0.010180,0.120219,-0.001132,1,0,0,0,0,0,0,-0.112645,-0.071005,0.003770,1,0,0,0,0,0,0,0.098478,-0.074679,-0.003286,1,0,0,0,0,0,0
3.660000,-0.009375,0.118117,-0.001081,1,0,0,0,0,0,0,-0.110926,-0.069768,0.003645,1,0,0,0,0,0,0,0.097660,-0.073461,-0.003190,1,0,0,0,0,0,0
3.670000,-0.008801,0.116225,-0.001032,1,0,0,0,0,0,0,-0.109471,-0.068798,0.003551,1,0,0,0,0,0,0,0.097073,-0.072438,-0.003113,1,0,0,0,0,0,0
3.680000,-0.008457,0.114600,-0.000987,1,0,0,0,0,0,0,-0.108171,-0.068031,0.003481,1,0,0,0,0,0,0,0.096758,-0.071671,-0.003063,1,0,0,0,0,0,0
3.690000,-0.008330,0.113255,-0.000945,1,0,0,0,0,0,0,-0.106922,-0.067380,0.003423,1,0,0,0,0,0,0,0.096675,-0.071165,-0.003038,1,0,0,0,0,0,0
3.700000,-0.008393,0.112175,-0.000907,1,0,0,0,0,0,0,-0.105671,-0.066774,0.003369,1,0,0,0,0,0,0,0.096724,-0.070861,-0.003033,1,0,0,0,0,0,0
3.710000,-0.008602,0.111324,-0.000873,1,0,0,0,0,0,0,-0.104415,-0.066177,0.003317,1,0,0,0,0,0,0,0.096776,-0.070657,-0.003037,1,0,0,0,0,0,0
3.720000,-0.008906,0.110655,-0.000842,1,0,0,0,0,0,0,-0.103169,-0.065579,0.003264,1,0,0,0,0,0,0,0.096731,-0.070455,-0.003041,1,0,0,0,0,0,0
3.730000,-0.009250,0.110125,-0.000815,1,0,0,0,0,0,0,-0.101955,-0.064991,0.003211,1,0,0,0,0,0,0,0.096564,-0.070214,-0.003040,1,0,0,0,0,0,0
3.740000,-0.009577,0.109710,-0.000791,1,0,0,0,0,0,0,-0.100804,-0.064435,0.003161,1,0,0,0,0,0,0,0.096320,-0.069965,-0.003038,1,0,0,0,0,0,0
3.750000,-0.009828,0.109403,-0.000771,1,0,0,0,0,0,0,-0.099746,-0.063937,0.003117,1,0,0,0,0,0,0,0.096048,-0.069757,-0.003039,1,0,0,0,0,0,0
3.760000,-0.009944,0.109213,-0.000754,1,0,0,0,0,0,0,-0.098712,-0.063452,0.003074,1,0,0,0,0,0,0,0.095743,-0.069587,-0.003042,1,0,0,0,0,0,0
3.770000,-0.009868,0.109172,-0.000740,1,0,0,0,0,0,0,-0.097587,-0.062895,0.003023,1,0,0,0,0,0,0,0.095340,-0.069397,-0.003042,1,0,0,0,0,0,0
3.780000,-0.009555,0.109289,-0.000728,1,0,0,0,0,0,0,-0.096298,-0.062197,0.002958,1,0,0,0,0,0,0,0.094764,-0.069095,-0.003030,1,0,0,0,0,0,0
3.790000,-0.008982,0.109544,-0.000718,1,0,0,0,0,0,0,-0.094759,-0.061273,0.002872,1,0,0,0,0,0,0,0.093967,-0.068614,-0.003000,1,0,0,0,0,0,0
3.800000,-0.008147,0.109892,-0.000708,1,0,0,0,0,0,0,-0.092881,-0.060044,0.002759,1,0,0,0,0,0,0,0.092962,-0.067941,-0.002951,1,0,0,0,0,0,0
3.810000,-0.007076,0.110277,-0.000696,1,0,0,0,0,0,0,-0.090668,-0.058494,0.002618,1,0,0,0,0,0,0,0.091792,-0.067092,-0.002886,1,0,0,0,0,0,0
3.820000,-0.005816,0.110673,-0.000681,1,0,0,0,0,0,0,-0.088211,-0.056676,0.002457,1,0,0,0,0,0,0,0.090519,-0.066089,-0.002806,1,0,0,0,0,0,0
3.830000,-0.004424,0.111087,-0.000663,1,0,0,0,0,0,0,-0.085648,-0.054684,0.002285,1,0,0,0,0,0,0,0.089228,-0.064968,-0.002716,1,0,0,0,0,0,0
3.840000,-0.002964,0.111529,-0.000641,1,0,0,0,0,0,0,-0.083105,-0.052622,0.002114,1,0,0,0,0,0,0,0.088046,-0.063803,-0.002624,1,0,0,0,0,0,0
3.850000,-0.001497,0.111964,-0.000616,1,0,0,0,0,0,0,-0.080645,-0.050559,0.001948,1,0,0,0,0,0,0,0.087123,-0.062720,-0.002540,1,0,0,0,0,0,0
3.860000,-0.000078,0.112307,-0.000586,1,0,0,0,0,0,0,-0.078264,-0.048529,0.001791,1,0,0,0,0,0,0,0.086553,-0.061841,-0.002475,1,0,0,0,0,0,0
3.870000,0.001238,0.112467,-0.000552,1,0,0,0,0,0,0,-0.075961,-0.046559,0.001644,1,0,0,0,0,0,0,0.086312,-0.061208,-0.002432,1,0,0,0,0,0,0
3.880000,0.002398,0.112413,-0.000517,1,0,0,0,0,0,0,-0.073748,-0.044692,0.001511,1,0,0,0,0,0,0,0.086310,-0.060780,-0.002407,1,0,0,0,0,0,0
3.890000,0.003354,0.112206,-0.000479,1,0,0,0,0,0,0,-0.071668,-0.042990,0.001395,1,0,0,0,0,0,0,0.086472,-0.060484,-0.002395,1,0,0,0,0,0,0
3.900000,0.004067,0.111974,-0.000441,1,0,0,0,0,0,0,-0.069795,-0.041531,0.001299,1,0,0,0,0,0,0,0.086783,-0.060268,-0.002389,1,0,0,0,0,0,0
3.910000,0.004512,0.111853,-0.000401,1,0,0,0,0,0,0,-0.068173,-0.040358,0.001227,1,0,0,0,0,0,0,0.087284,-0.060145,-0.002392,1,0,0,0,0,0,0
3.920000,0.004680,0.111936,-0.000362,1,0,0,0,0,0,0,-0.066780,-0.039448,0.001174,1,0,0,0,0,0,0,0.088013,-0.060155,-0.002407,1,0,0,0,0,0,0
3.930000,0.004579,0.112254,-0.000322,1,0,0,0,0,0,0,-0.065549,-0.038718,0.001134,1,0,0,0,0,0,0,0.088959,-0.060313,-0.002435,1,0,0,0,0,0,0
3.940000,0.004226,0.112811,-0.000284,1,0,0,0,0,0,0,-0.064487,-0.038119,0.001104,1,0,0,0,0,0,0,0.090025,-0.060558,-0.002472,1,0,0,0,0,0,0
3.950000,0.003645,0.113610,-0.000248,1,0,0,0,0,0,0,-0.063621,-0.037609,0.001079,1,0,0,0,0,0,0,0.091136,-0.060809,-0.002510,1,0,0,0,0,0,0
3.960000,0.002877,0.114665,-0.000215,1,0,0,0,0,0,0,-0.063005,-0.037168,0.001058,1,0,0,0,0,0,0,0.092287,-0.061018,-0.002545,1,0,0,0,0,0,0
3.970000,0.001970,0.115999,-0.000186,1,0,0,0,0,0,0,-0.062708,-0.036807,0.001042,1,0,0,0,0,0,0,0.093566,-0.061219,-0.002580,1,0,0,0,0,0,0
3.980000,0.000983,0.117633,-0.000164,1,0,0,0,0,0,0,-0.062731,-0.036533,0.001032,1,0,0,0,0,0,0,0.095073,-0.061491,-0.002623,1,0,0,0,0,0,0
3.990000,-0.000023,0.119545,-0.000147,1,0,0,0,0,0,0,-0.063075,-0.036370,0.001029,1,0,0,0,0,0,0,0.096844,-0.061896,-0.002680,1,0,0,0,0,0,0
4.000000,-0.000987,0.121661,-0.000137,1,0,0,0,0,0,0,-0.063766,-0.036368,0.001036,1,0,0,0,0,0,0,0.098805,-0.062427,-0.002751,1,0,0,0,0,0,0
4.010000,-0.001852,0.123978,-0.000133,1,0,0,0,0,0,0,-0.064839,-0.036597,0.001058,1,0,0,0,0,0,0,0.100912,-0.063072,-0.002835,1,0,0,0,0,0,0
4.020000,-0.002569,0.126679,-0.000136,1,0,0,0,0,0,0,-0.066406,-0.037167,0.001103,1,0,0,0,0,0,0,0.103271,-0.063886,-0.002939,1,0,0,0,0,0,0
4.030000,-0.003089,0.129757,-0.000144,1,0,0,0,0,0,0,-0.068423,-0.038087,0.001173,1,0,0,0,0,0,0,0.105835,-0.064823,-0.003059,1,0,0,0,0,0,0
4.040000,-0.003371,0.133160,-0.000157,1,0,0,0,0,0,0,-0.070775,-0.039305,0.001266,1,0,0,0,0,0,0,0.108539,-0.065827,-0.003190,1,0,0,0,0,0,0
4.050000,-0.003382,0.136832,-0.000173,1,0,0,0,0,0,0,-0.073320,-0.040733,0.001376,1,0,0,0,0,0,0,0.111336,-0.066866,-0.003327,1,0,0,0,0,0,0
4.060000,-0.003109,0.140700,-0.000189,1,0,0,0,0,0,0,-0.075906,-0.042262,0.001498,1,0,0,0,0,0,0,0.114178,-0.067918,-0.003470,1,0,0,0,0,0,0
4.070000,-0.002555,0.144669,-0.000203,1,0,0,0,0,0,0,-0.078435,-0.043813,0.001624,1,0,0,0,0,0,0,0.117024,-0.068977,-0.003618,1,0,0,0,0,0,0
4.080000,-0.001743,0.148637,-0.000212,1,0,0,0,0,0,0,-0.080902,-0.045370,0.001755,1,0,0,0,0,0,0,0.119836,-0.070038,-0.003770,1,0,0,0,0,0,0
4.090000,-0.000711,0.152507,-0.000213,1,0,0,0,0,0,0,-0.083312,-0.046930,0.001888,1,0,0,0,0,0,0,0.122563,-0.071087,-0.003923,1,0,0,0,0,0,0
4.100000,0.000490,0.156193,-0.000207,1,0,0,0,0,0,0,-0.085678,-0.048497,0.002026,1,0,0,0,0,0,0,0.125148,-0.072095,-0.004075,1,0,0,0,0,0,0
4.110000,0.001800,0.159620,-0.000190,1,0,0,0,0,0,0,-0.087999,-0.050072,0.002166,1,0,0,0,0,0,0,0.127524,-0.073019,-0.004219,1,0,0,0,0,0,0
4.120000,0.003147,0.162718,-0.000165,1,0,0,0,0,0,0,-0.090236,-0.051633,0.002309,1,0,0,0,0,0,0,0.129643,-0.073820,-0.004350,1,0,0,0,0,0,0
4.130000,0.004452,0.165421,-0.000133,1,0,0,0,0,0,0,-0.092331,-0.053142,0.002449,1,0,0,0,0,0,0,0.131487,-0.074487,-0.004465,1,0,0,0,0,0,0
4.140000,0.005637,0.167666,-0.000094,1,0,0,0,0,0,0,-0.094210,-0.054554,0.002582,1,0,0,0,0,0,0,0.133068,-0.075035,-0.004564,1,0,0,0,0,0,0
4.150000,0.006644,0.169405,-0.000051,1,0,0,0,0,0,0,-0.095829,-0.055839,0.002704,1,0,0,0,0,0,0,0.134420,-0.075504,-0.004654,1,0,0,0,0,0,0
4.160000,0.007435,0.170616,-0.000007,1,0,0,0,0,0,0,-0.097158,-0.056977,0.002814,1,0,0,0,0,0,0,0.135608,-0.075962,-0.004742,1,0,0,0,0,0,0
4.170000,0.007982,0.171302,0.000036,1,0,0,0,0,0,0,-0.098170,-0.057945,0.002906,1,0,0,0,0,0,0,0.136672,-0.076461,-0.004837,1,0,0,0,0,0,0
4.180000,0.008277,0.171477,0.000075,1,0,0,0,0,0,0,-0.098845,-0.058722,0.002980,1,0,0,0,0,0,0,0.137607,-0.077013,-0.004937,1,0,0,0,0,0,0
4.190000,0.008322,0.171167,0.000111,1,0,0,0,0,0,0,-0.099181,-0.059302,0.003034,1,0,0,0,0,0,0,0.138362,-0.077587,-0.005041,1,0,0,0,0,0,0
4.200000,0.008124,0.170416,0.000142,1,0,0,0,0,0,0,-0.099185,-0.059688,0.003068,1,0,0,0,0,0,0,0.138899,-0.078152,-0.005141,1,0,0,0,0,0,0
4.210000,0.007694,0.169283,0.000167,1,0,0,0,0,0,0,-0.098854,-0.059870,0.003080,1,0,0,0,0,0,0,0.139188,-0.078676,-0.005234,1,0,0,0,0,0,0
4.220000,0.007036,0.167855,0.000188,1,0,0,0,0,0,0,-0.098188,-0.059840,0.003070,1,0,0,0,0,0,0,0.139203,-0.079125,-0.005313,1,0,0,0,0,0,0
4.230000,0.006161,0.166226,0.000203,1,0,0,0,0,0,0,-0.097196,-0.059593,0.003039,1,0,0,0,0,0,0,0.138927,-0.079469,-0.005376,1,0,0,0,0,0,0
4.240000,0.005101,0.164460,0.000214,1,0,0,0,0,0,0,-0.095897,-0.059134,0.002986,1,0,0,0,0,0,0,0.138347,-0.079673,-0.005415,1,0,0,0,0,0,0
4.250000,0.003897,0.162594,0.000221,1,0,0,0,0,0,0,-0.094322,-0.058478,0.002915,1,0,0,0,0,0,0,0.137456,-0.079715,-0.005429,1,0,0,0,0,0,0
4.260000,0.002587,0.160628,0.000224,1,0,0,0,0,0,0,-0.092498,-0.057644,0.002828,1,0,0,0,0,0,0,0.136275,-0.079592,-0.005417,1,0,0,0,0,0,0
4.270000,0.001220,0.158522,0.000222,1,0,0,0,0,0,0,-0.090441,-0.056651,0.002727,1,0,0,0,0,0,0,0.134835,-0.079310,-0.005381,1,0,0,0,0,0,0
4.280000,-0.000169,0.156249,0.000217,1,0,0,0,0,0,0,-0.088195,-0.055523,0.002616,1,0,0,0,0,0,0,0.133160,-0.078875,-0.005322,1,0,0,0,0,0,0
4.290000,-0.001555,0.153822,0.000209,1,0,0,0,0,0,0,-0.085816,-0.054293,0.002499,1,0,0,0,0,0,0,0.131277,-0.078289,-0.005242,1,0,0,0,0,0,0
4.300000,-0.002910,0.151260,0.000198,1,0,0,0,0,0,0,-0.083343,-0.052991,0.002378,1,0,0,0,0,0,0,0.129204,-0.077559,-0.005141,1,0,0,0,0,0,0
4.310000,-0.004207,0.148607,0.000185,1,0,0,0,0,0,0,-0.080794,-0.051636,0.002256,1,0,0,0,0,0,0,0.126962,-0.076693,-0.005023,1,0,0,0,0,0,0
4.320000,-0.005418,0.145919,0.000171,1,0,0,0,0,0,0,-0.078181,-0.050241,0.002135,1,0,0,0,0,0,0,0.124582,-0.075712,-0.004891,1,0,0,0,0,0,0
4.330000,-0.006511,0.143243,0.000155,1,0,0,0,0,0,0,-0.075521,-0.048823,0.002015,1,0,0,0,0,0,0,0.122105,-0.074640,-0.004748,1,0,0,0,0,0,0
4.340000,-0.007455,0.140596,0.000138,1,0,0,0,0,0,0,-0.072840,-0.047401,0.001899,1,0,0,0,0,0,0,0.119569,-0.073497,-0.004598,1,0,0,0,0,0,0
