time,drone0_roll,drone0_pitch,drone0_yaw,drone0_des_qw,drone0_des_qx,drone0_des_qy,drone0_des_qz,drone0_err_x,drone0_err_y,drone0_err_z,drone1_roll,drone1_pitch,drone1_yaw,drone1_des_qw,drone1_des_qx,drone1_des_qy,drone1_des_qz,drone1_err_x,drone1_err_y,drone1_err_z,drone2_roll,drone2_pitch,drone2_yaw,drone2_des_qw,drone2_des_qx,drone2_des_qy,drone2_des_qz,drone2_err_x,drone2_err_y,drone2_err_z
0.000000,0.000000,0.000000,0.000000,1,0,0,0,0,0,0,0.000000,0.000000,0.000000,1,0,0,0,0,0,0,0.000000,0.000000,0.000000,1,0,0,0,0,0,0
0.010000,0.000001,-0.000001,-0.000000,1,0,0,0,0,0,0,0.000001,-0.000001,-0.000000,1,0,0,0,0,0,0,0.000001,-0.000001,-0.000000,1,0,0,0,0,0,0
0.020000,0.000003,-0.000006,-0.000000,1,0,0,0,0,0,0,0.000003,-0.000006,-0.000000,1,0,0,0,0,0,0,0.000003,-0.000006,-0.000000,1,0,0,0,0,0,0
0.030000,0.000008,-0.000016,-0.000000,1,0,0,0,0,0,0,0.000008,-0.000016,-0.000000,1,0,0,0,0,0,0,0.000008,-0.000016,-0.000000,1,0,0,0,0,0,0
0.040000,0.000015,-0.000030,-0.000000,1,0,0,0,0,0,0,0.000015,-0.000030,-0.000000,1,0,0,0,0,0,0,0.000015,-0.000030,-0.000000,1,0,0,0,0,0,0
0.050000,0.000025,0.000016,0.000000,1,0,0,0,0,0,0,0.000025,-0.000049,-0.000000,1,0,0,0,0,0,0,0.000117,-0.000100,-0.000000,1,0,0,0,0,0,0
0.060000,0.000037,0.000193,0.000000,1,0,0,0,0,0,0,0.000037,-0.000073,-0.000000,1,0,0,0,0,0,0,0.000289,-0.000215,-0.000000,1,0,0,0,0,0,0
0.070000,0.000050,0.000361,0.000000,1,0,0,0,0,0,0,-0.000052,-0.000317,-0.000000,1,0,0,0,0,0,0,0.000516,-0.000365,-0.000000,1,0,0,0,0,0,0
0.080000,0.000066,0.000728,0.000000,1,0,0,0,0,0,0,-0.000130,-0.000556,0.000000,1,0,0,0,0,0,0,0.000868,-0.000589,-0.000000,1,0,0,0,0,0,0
0.090000,0.000084,0.001131,0.000000,1,0,0,0,0,0,0,-0.000194,-0.000770,0.000000,1,0,0,0,0,0,0,0.001310,-0.000867,-0.000001,1,0,0,0,0,0,0
0.100000,0.000103,0.001669,0.000000,1,0,0,0,0,0,0,-0.000380,-0.001248,0.000000,1,0,0,0,0,0,0,0.001840,-0.001199,-0.000001,1,0,0,0,0,0,0
0.110000,0.000123,0.002324,0.000000,1,0,0,0,0,0,0,-0.000557,-0.001722,0.000000,1,0,0,0,0,0,0,0.002495,-0.001605,-0.000002,1,0,0,0,0,0,0
0.120000,0.000145,0.003080,0.000000,1,0,0,0,0,0,0,-0.000753,-0.002236,0.000001,1,0,0,0,0,0,0,0.003248,-0.002069,-0.000003,1,0,0,0,0,0,0
0.130000,0.000167,0.003967,0.000000,1,0,0,0,0,0,0,-0.001031,-0.002923,0.000001,1,0,0,0,0,0,0,0.004112,-0.002600,-0.000005,1,0,0,0,0,0,0
0.140000,0.000191,0.004989,0.000001,1,0,0,0,0,0,0,-0.001297,-0.003591,0.000002,1,0,0,0,0,0,0,0.005101,-0.003203,-0.000008,1,0,0,0,0,0,0
0.150000,0.000216,0.006147,0.000001,1,0,0,0,0,0,0,-0.001641,-0.004403,0.000003,1,0,0,0,0,0,0,0.006218,-0.003882,-0.000012,1,0,0,0,0,0,0
0.160000,0.000241,0.007453,0.000001,1,0,0,0,0,0,0,-0.002016,-0.005272,0.000005,1,0,0,0,0,0,0,0.007468,-0.004638,-0.000017,1,0,0,0,0,0,0
0.170000,0.000267,0.008908,0.000001,1,0,0,0,0,0,0,-0.002438,-0.006218,0.000007,1,0,0,0,0,0,0,0.008834,-0.005463,-0.000024,1,0,0,0,0,0,0
0.180000,0.000293,0.010465,0.000002,1,0,0,0,0,0,0,-0.002925,-0.007273,0.000010,1,0,0,0,0,0,0,0.010268,-0.006329,-0.000032,1,0,0,0,0,0,0
0.190000,0.000320,0.012078,0.000002,1,0,0,0,0,0,0,-0.003463,-0.008400,0.000013,1,0,0,0,0,0,0,0.011742,-0.007219,-0.000042,1,0,0,0,0,0,0
0.200000,0.000347,0.013726,0.000003,1,0,0,0,0,0,0,-0.004073,-0.009630,0.000018,1,0,0,0,0,0,0,0.013244,-0.008126,-0.000053,1,0,0,0,0,0,0
0.210000,0.000374,0.015400,0.000003,1,0,0,0,0,0,0,-0.004753,-0.010946,0.000024,1,0,0,0,0,0,0,0.014766,-0.009044,-0.000066,1,0,0,0,0,0,0
0.220000,0.000401,0.017087,0.000004,1,0,0,0,0,0,0,-0.005501,-0.012339,0.000031,1,0,0,0,0,0,0,0.016290,-0.009964,-0.000080,1,0,0,0,0,0,0
0.230000,0.000428,0.018754,0.000005,1,0,0,0,0,0,0,-0.006304,-0.013773,0.000040,1,0,0,0,0,0,0,0.017783,-0.010866,-0.000096,1,0,0,0,0,0,0
0.240000,0.000455,0.020360,0.000005,1,0,0,0,0,0,0,-0.007145,-0.015216,0.000050,1,0,0,0,0,0,0,0.019214,-0.011733,-0.000112,1,0,0,0,0,0,0
0.250000,0.000481,0.021884,0.000006,1,0,0,0,0,0,0,-0.008011,-0.016642,0.000061,1,0,0,0,0,0,0,0.020581,-0.012562,-0.000128,1,0,0,0,0,0,0
0.260000,0.000506,0.023339,0.000007,1,0,0,0,0,0,0,-0.008903,-0.018040,0.000073,1,0,0,0,0,0,0,0.021894,-0.013358,-0.000145,1,0,0,0,0,0,0
0.270000,0.000531,0.024731,0.000007,1,0,0,0,0,0,0,-0.009817,-0.019401,0.000086,1,0,0,0,0,0,0,0.023156,-0.014124,-0.000162,1,0,0,0,0,0,0
0.280000,0.000555,0.026063,0.000008,1,0,0,0,0,0,0,-0.010746,-0.020709,0.000100,1,0,0,0,0,0,0,0.024372,-0.014860,-0.000180,1,0,0,0,0,0,0
0.290000,0.000578,0.027338,0.000009,1,0,0,0,0,0,0,-0.011680,-0.021948,0.000114,1,0,0,0,0,0,0,0.025539,-0.015568,-0.000198,1,0,0,0,0,0,0
0.300000,0.000600,0.028555,0.000009,1,0,0,0,0,0,0,-0.012603,-0.023100,0.000129,1,0,0,0,0,0,0,0.026654,-0.016244,-0.000215,1,0,0,0,0,0,0
0.310000,0.000621,0.029702,0.000010,1,0,0,0,0,0,0,-0.013503,-0.024149,0.000144,1,0,0,0,0,0,0,0.027702,-0.016880,-0.000233,1,0,0,0,0,0,0
0.320000,0.000640,0.030759,0.000011,1,0,0,0,0,0,0,-0.014370,-0.025085,0.000158,1,0,0,0,0,0,0,0.028663,-0.017464,-0.000249,1,0,0,0,0,0,0
0.330000,0.000659,0.031707,0.000011,1,0,0,0,0,0,0,-0.015198,-0.025897,0.000171,1,0,0,0,0,0,0,0.029521,-0.017988,-0.000264,1,0,0,0,0,0,0
0.340000,0.000677,0.032531,0.000012,1,0,0,0,0,0,0,-0.015982,-0.026581,0.000183,1,0,0,0,0,0,0,0.030266,-0.018445,-0.000278,1,0,0,0,0,0,0
0.350000,0.000693,0.033222,0.000012,1,0,0,0,0,0,0,-0.016731,-0.027132,0.000194,1,0,0,0,0,0,0,0.030893,-0.018832,-0.000290,1,0,0,0,0,0,0
0.360000,0.000709,0.033775,0.000013,1,0,0,0,0,0,0,-0.017449,-0.027546,0.000203,1,0,0,0,0,0,0,0.031396,-0.019145,-0.000300,1,0,0,0,0,0,0
0.370000,0.000723,0.034184,0.000013,1,0,0,0,0,0,0,-0.018132,-0.027818,0.000209,1,0,0,0,0,0,0,0.031767,-0.019380,-0.000307,1,0,0,0,0,0,0
0.380000,0.000735,0.034438,0.000013,1,0,0,0,0,0,0,-0.018773,-0.027945,0.000214,1,0,0,0,0,0,0,0.031995,-0.019531,-0.000312,1,0,0,0,0,0,0
0.390000,0.000747,0.034528,0.000013,1,0,0,0,0,0,0,-0.019364,-0.027923,0.000217,1,0,0,0,0,0,0,0.032077,-0.019596,-0.000314,1,0,0,0,0,0,0
0.400000,0.000757,0.034456,0.000013,1,0,0,0,0,0,0,-0.019898,-0.027755,0.000216,1,0,0,0,0,0,0,0.032015,-0.019576,-0.000314,1,0,0,0,0,0,0
0.410000,0.000767,0.034222,0.000013,1,0,0,0,0,0,0,-0.020371,-0.027442,0.000213,1,0,0,0,0,0,0,0.031812,-0.019471,-0.000310,1,0,0,0,0,0,0
0.420000,0.000774,0.033833,0.000012,1,0,0,0,0,0,0,-0.020779,-0.026986,0.000208,1,0,0,0,0,0,0,0.031472,-0.019286,-0.000304,1,0,0,0,0,0,0
0.430000,0.000781,0.033295,0.000012,1,0,0,0,0,0,0,-0.021119,-0.026394,0.000200,1,0,0,0,0,0,0,0.031003,-0.019023,-0.000296,1,0,0,0,0,0,0
0.440000,0.000786,0.032611,0.000012,1,0,0,0,0,0,0,-0.021381,-0.025673,0.000189,1,0,0,0,0,0,0,0.030408,-0.018686,-0.000286,1,0,0,0,0,0,0
0.450000,0.000790,0.031788,0.000011,1,0,0,0,0,0,0,-0.021560,-0.024837,0.000176,1,0,0,0,0,0,0,0.029696,-0.018279,-0.000273,1,0,0,0,0,0,0
0.460000,0.000794,0.030835,0.000010,1,0,0,0,0,0,0,-0.021651,-0.023889,0.000161,1,0,0,0,0,0,0,0.028873,-0.017807,-0.000259,1,0,0,0,0,0,0
0.470000,0.000796,0.029761,0.000010,1,0,0,0,0,0,0,-0.021656,-0.022835,0.000143,1,0,0,0,0,0,0,0.027950,-0.017274,-0.000244,1,0,0,0,0,0,0
0.480000,0.000797,0.028577,0.000009,1,0,0,0,0,0,0,-0.021574,-0.021677,0.000124,1,0,0,0,0,0,0,0.026933,-0.016686,-0.000228,1,0,0,0,0,0,0
0.490000,0.000797,0.027292,0.000008,1,0,0,0,0,0,0,-0.021407,-0.020415,0.000104,1,0,0,0,0,0,0,0.025831,-0.016047,-0.000211,1,0,0,0,0,0,0
0.500000,0.000797,0.025916,0.000007,1,0,0,0,0,0,0,-0.021153,-0.019053,0.000081,1,0,0,0,0,0,0,0.024654,-0.015363,-0.000193,1,0,0,0,0,0,0
0.510000,0.000795,0.024461,0.000006,1,0,0,0,0,0,0,-0.020814,-0.017597,0.000058,1,0,0,0,0,0,0,0.023413,-0.014640,-0.000176,1,0,0,0,0,0,0
0.520000,0.000793,0.022937,0.000005,1,0,0,0,0,0,0,-0.020388,-0.016058,0.000033,1,0,0,0,0,0,0,0.022118,-0.013885,-0.000158,1,0,0,0,0,0,0
0.530000,0.000791,0.021358,0.000004,1,0,0,0,0,0,0,-0.019878,-0.014450,0.000009,1,0,0,0,0,0,0,0.020778,-0.013103,-0.000141,1,0,0,0,0,0,0
0.540000,0.000788,0.019732,0.000003,1,0,0,0,0,0,0,-0.019287,-0.012790,-0.000016,1,0,0,0,0,0,0,0.019404,-0.012300,-0.000125,1,0,0,0,0,0,0
0.550000,0.000784,0.018074,0.000002,1,0,0,0,0,0,0,-0.018618,-0.011085,-0.000040,1,0,0,0,0,0,0,0.018010,-0.011484,-0.000109,1,0,0,0,0,0,0
0.560000,0.000779,0.016398,0.000001,1,0,0,0,0,0,0,-0.017875,-0.009347,-0.000063,1,0,0,0,0,0,0,0.016613,-0.010666,-0.000094,1,0,0,0,0,0,0
0.570000,0.000774,0.014723,-0.000000,1,0,0,0,0,0,0,-0.017066,-0.007589,-0.000086,1,0,0,0,0,0,0,0.015231,-0.009855,-0.000081,1,0,0,0,0,0,0
0.580000,0.000769,0.013070,-0.000001,1,0,0,0,0,0,0,-0.016199,-0.005828,-0.000106,1,0,0,0,0,0,0,0.013887,-0.009066,-0.000069,1,0,0,0,0,0,0
0.590000,0.000763,0.011463,-0.000002,1,0,0,0,0,0,0,-0.015284,-0.004082,-0.000124,1,0,0,0,0,0,0,0.012606,-0.008313,-0.000059,1,0,0,0,0,0,0
0.600000,0.000757,0.009933,-0.000003,1,0,0,0,0,0,0,-0.014330,-0.002369,-0.000141,1,0,0,0,0,0,0,0.011423,-0.007616,-0.000050,1,0,0,0,0,0,0
0.610000,0.000750,0.008517,-0.000003,1,0,0,0,0,0,0,-0.013341,-0.000691,-0.000155,1,0,0,0,0,0,0,0.010377,-0.006999,-0.000043,1,0,0,0,0,0,0
0.620000,0.000742,0.007260,-0.000004,1,0,0,0,0,0,0,-0.012321,0.000956,-0.000166,1,0,0,0,0,0,0,0.009510,-0.006486,-0.000037,1,0,0,0,0,0,0
0.630000,0.000732,0.006205,-0.000004,1,0,0,0,0,0,0,-0.011278,0.002568,-0.000176,1,0,0,0,0,0,0,0.008862,-0.006101,-0.000033,1,0,0,0,0,0,0
0.640000,0.000721,0.005397,-0.000005,1,0,0,0,0,0,0,-0.010221,0.004138,-0.000183,1,0,0,0,0,0,0,0.008457,-0.005860,-0.000031,1,0,0,0,0,0,0
0.650000,0.000707,0.004862,-0.000005,1,0,0,0,0,0,0,-0.009164,0.005659,-0.000188,1,0,0,0,0,0,0,0.008293,-0.005762,-0.000030,1,0,0,0,0,0,0
0.660000,0.000690,0.004600,-0.000004,1,0,0,0,0,0,0,-0.008117,0.007122,-0.000191,1,0,0,0,0,0,0,0.008358,-0.005801,-0.000030,1,0,0,0,0,0,0
0.670000,0.000669,0.004610,-0.000004,1,0,0,0,0,0,0,-0.007095,0.008522,-0.000192,1,0,0,0,0,0,0,0.008646,-0.005975,-0.000031,1,0,0,0,0,0,0
0.680000,0.000644,0.004883,-0.000003,1,0,0,0,0,0,0,-0.006112,0.009850,-0.000191,1,0,0,0,0,0,0,0.009099,-0.006251,-0.000033,1,0,0,0,0,0,0
0.690000,0.000614,0.005357,-0.000003,1,0,0,0,0,0,0,-0.005189,0.011100,-0.000189,1,0,0,0,0,0,0,0.009633,-0.006579,-0.000036,1,0,0,0,0,0,0
0.700000,0.000581,0.005937,-0.000002,1,0,0,0,0,0,0,-0.004350,0.012263,-0.000185,1,0,0,0,0,0,0,0.010167,-0.006911,-0.000039,1,0,0,0,0,0,0
0.710000,0.000546,0.006538,-0.000002,1,0,0,0,0,0,0,-0.003627,0.013329,-0.000179,1,0,0,0,0,0,0,0.010659,-0.007220,-0.000042,1,0,0,0,0,0,0
0.720000,0.000511,0.007114,-0.000001,1,0,0,0,0,0,0,-0.003060,0.014289,-0.000173,1,0,0,0,0,0,0,0.011100,-0.007499,-0.000045,1,0,0,0,0,0,0
0.730000,0.000475,0.007651,-0.000001,1,0,0,0,0,0,0,-0.002701,0.015128,-0.000167,1,0,0,0,0,0,0,0.011496,-0.007752,-0.000047,1,0,0,0,0,0,0
0.740000,0.000439,0.008156,-0.000000,1,0,0,0,0,0,0,-0.002607,0.015833,-0.000160,1,0,0,0,0,0,0,0.011880,-0.008000,-0.000050,1,0,0,0,0,0,0
0.750000,0.000402,0.008660,0.000000,1,0,0,0,0,0,0,-0.002828,0.016394,-0.000153,1,0,0,0,0,0,0,0.012298,-0.008270,-0.000053,1,0,0,0,0,0,0
0.760000,0.000360,0.009214,0.000000,1,0,0,0,0,0,0,-0.003387,0.016804,-0.000146,1,0,0,0,0,0,0,0.012763,-0.008574,-0.000057,1,0,0,0,0,0,0
0.770000,0.000312,0.009839,0.000001,1,0,0,0,0,0,0,-0.004263,0.017068,-0.000139,1,0,0,0,0,0,0,0.013273,-0.008912,-0.000061,1,0,0,0,0,0,0
0.780000,0.000256,0.010536,0.000001,1,0,0,0,0,0,0,-0.005403,0.017192,-0.000133,1,0,0,0,0,0,0,0.013809,-0.009276,-0.000066,1,0,0,0,0,0,0
0.790000,0.000192,0.011293,0.000001,1,0,0,0,0,0,0,-0.006802,0.017172,-0.000128,1,0,0,0,0,0,0,0.014355,-0.009656,-0.000071,1,0,0,0,0,0,0
0.800000,0.000119,0.012094,0.000001,1,0,0,0,0,0,0,-0.008405,0.017013,-0.000122,1,0,0,0,0,0,0,0.014888,-0.010035,-0.000076,1,0,0,0,0,0,0
0.810000,0.000041,0.012906,0.000001,1,0,0,0,0,0,0,-0.010087,0.016737,-0.000116,1,0,0,0,0,0,0,0.015383,-0.010397,-0.000082,1,0,0,0,0,0,0
0.820000,-0.000040,0.013693,0.000001,1,0,0,0,0,0,0,-0.011709,0.016378,-0.000109,1,0,0,0,0,0,0,0.015825,-0.010729,-0.000087,1,0,0,0,0,0,0
0.830000,-0.000120,0.014431,0.000001,1,0,0,0,0,0,0,-0.013183,0.015963,-0.000103,1,0,0,0,0,0,0,0.016210,-0.011027,-0.000092,1,0,0,0,0,0,0
0.840000,-0.000197,0.015113,0.000001,1,0,0,0,0,0,0,-0.014478,0.015510,-0.000096,1,0,0,0,0,0,0,0.016542,-0.011291,-0.000096,1,0,0,0,0,0,0
0.850000,-0.000271,0.015740,0.000001,1,0,0,0,0,0,0,-0.015633,0.015010,-0.000089,1,0,0,0,0,0,0,0.016824,-0.011523,-0.000099,1,0,0,0,0,0,0
0.860000,-0.000339,0.016313,0.000000,1,0,0,0,0,0,0,-0.016734,0.014433,-0.000081,1,0,0,0,0,0,0,0.017064,-0.011726,-0.000103,1,0,0,0,0,0,0
0.870000,-0.000400,0.016836,0.000000,1,0,0,0,0,0,0,-0.017806,0.013770,-0.000071,1,0,0,0,0,0,0,0.017272,-0.011905,-0.000106,1,0,0,0,0,0,0
0.880000,-0.000455,0.017313,-0.000000,1,0,0,0,0,0,0,-0.018841,0.013023,-0.000061,1,0,0,0,0,0,0,0.017464,-0.012069,-0.000108,1,0,0,0,0,0,0
0.890000,-0.000501,0.017758,-0.000001,1,0,0,0,0,0,0,-0.019879,0.012168,-0.000047,1,0,0,0,0,0,0,0.017653,-0.012224,-0.000111,1,0,0,0,0,0,0
0.900000,-0.000540,0.018187,-0.000001,1,0,0,0,0,0,0,-0.020919,0.011200,-0.000032,1,0,0,0,0,0,0,0.017856,-0.012380,-0.000114,1,0,0,0,0,0,0
0.910000,-0.000571,0.018616,-0.000002,1,0,0,0,0,0,0,-0.021958,0.010110,-0.000013,1,0,0,0,0,0,0,0.018089,-0.012546,-0.000116,1,0,0,0,0,0,0
0.920000,-0.000594,0.019068,-0.000002,1,0,0,0,0,0,0,-0.023022,0.008864,0.000009,1,0,0,0,0,0,0,0.018366,-0.012731,-0.000120,1,0,0,0,0,0,0
0.930000,-0.000608,0.019560,-0.000003,1,0,0,0,0,0,0,-0.024075,0.007476,0.000036,1,0,0,0,0,0,0,0.018699,-0.012941,-0.000123,1,0,0,0,0,0,0
0.940000,-0.000614,0.020108,-0.000003,1,0,0,0,0,0,0,-0.025083,0.005963,0.000066,1,0,0,0,0,0,0,0.019096,-0.013180,-0.000128,1,0,0,0,0,0,0
0.950000,-0.000612,0.020721,-0.000004,1,0,0,0,0,0,0,-0.026014,0.004354,0.000099,1,0,0,0,0,0,0,0.019563,-0.013453,-0.000133,1,0,0,0,0,0,0
0.960000,-0.000602,0.021408,-0.000004,1,0,0,0,0,0,0,-0.026830,0.002696,0.000134,1,0,0,0,0,0,0,0.020100,-0.013759,-0.000139,1,0,0,0,0,0,0
0.970000,-0.000585,0.022175,-0.000005,1,0,0,0,0,0,0,-0.027507,0.001042,0.000169,1,0,0,0,0,0,0,0.020693,-0.014089,-0.000145,1,0,0,0,0,0,0
0.980000,-0.000561,0.023015,-0.000006,1,0,0,0,0,0,0,-0.028038,-0.000587,0.000204,1,0,0,0,0,0,0,0.021315,-0.014427,-0.000153,1,0,0,0,0,0,0
0.990000,-0.000528,0.023900,-0.000006,1,0,0,0,0,0,0,-0.028422,-0.002185,0.000237,1,0,0,0,0,0,0,0.021935,-0.014756,-0.000160,1,0,0,0,0,0,0
1.000000,-0.000489,0.024790,-0.000007,1,0,0,0,0,0,0,-0.028664,-0.003742,0.000270,1,0,0,0,0,0,0,0.022525,-0.015061,-0.000167,1,0,0,0,0,0,0
1.010000,-0.000443,0.025645,-0.000007,1,0,0,0,0,0,0,-0.028771,-0.005252,0.000301,1,0,0,0,0,0,0,0.023075,-0.015335,-0.000173,1,0,0,0,0,0,0
1.020000,-0.000392,0.026439,-0.000007,1,0,0,0,0,0,0,-0.028748,-0.006720,0.000330,1,0,0,0,0,0,0,0.023594,-0.015585,-0.000179,1,0,0,0,0,0,0
1.030000,-0.000337,0.027176,-0.000007,1,0,0,0,0,0,0,-0.028602,-0.008152,0.000357,1,0,0,0,0,0,0,0.024090,-0.015818,-0.000185,1,0,0,0,0,0,0
1.040000,-0.000280,0.027867,-0.000007,1,0,0,0,0,0,0,-0.028342,-0.009560,0.000383,1,0,0,0,0,0,0,0.024580,-0.016043,-0.000191,1,0,0,0,0,0,0
1.050000,-0.000223,0.028527,-0.000007,1,0,0,0,0,0,0,-0.027981,-0.010968,0.000408,1,0,0,0,0,0,0,0.025118,-0.016294,-0.000197,1,0,0,0,0,0,0
1.060000,-0.000166,0.029214,-0.000007,1,0,0,0,0,0,0,-0.027536,-0.012399,0.000433,1,0,0,0,0,0,0,0.025741,-0.016596,-0.000205,1,0,0,0,0,0,0
1.070000,-0.000112,0.029985,-0.000007,1,0,0,0,0,0,0,-0.027026,-0.013867,0.000457,1,0,0,0,0,0,0,0.026466,-0.016962,-0.000215,1,0,0,0,0,0,0
1.080000,-0.000061,0.030857,-0.000007,1,0,0,0,0,0,0,-0.026496,-0.015369,0.000482,1,0,0,0,0,0,0,0.027287,-0.017392,-0.000227,1,0,0,0,0,0,0
1.090000,-0.000015,0.031828,-0.000007,1,0,0,0,0,0,0,-0.025957,-0.016902,0.000505,1,0,0,0,0,0,0,0.028201,-0.017882,-0.000242,1,0,0,0,0,0,0
1.100000,0.000027,0.032890,-0.000006,1,0,0,0,0,0,0,-0.025403,-0.018455,0.000528,1,0,0,0,0,0,0,0.029204,-0.018430,-0.000258,1,0,0,0,0,0,0
1.110000,0.000065,0.034039,-0.000006,1,0,0,0,0,0,0,-0.024820,-0.020005,0.000550,1,0,0,0,0,0,0,0.030278,-0.019029,-0.000276,1,0,0,0,0,0,0
1.120000,0.000099,0.035267,-0.000005,1,0,0,0,0,0,0,-0.024199,-0.021532,0.000570,1,0,0,0,0,0,0,0.031384,-0.019654,-0.000296,1,0,0,0,0,0,0
1.130000,0.000130,0.036540,-0.000005,1,0,0,0,0,0,0,-0.023531,-0.023017,0.000587,1,0,0,0,0,0,0,0.032460,-0.020269,-0.000317,1,0,0,0,0,0,0
1.140000,0.000159,0.037786,-0.000004,1,0,0,0,0,0,0,-0.022808,-0.024462,0.000602,1,0,0,0,0,0,0,0.033461,-0.020843,-0.000336,1,0,0,0,0,0,0
1.150000,0.000188,0.038934,-0.000004,1,0,0,0,0,0,0,-0.022013,-0.025890,0.000615,1,0,0,0,0,0,0,0.034399,-0.021385,-0.000355,1,0,0,0,0,0,0
1.160000,0.000218,0.039964,-0.000003,1,0,0,0,0,0,0,-0.021138,-0.027288,0.000625,1,0,0,0,0,0,0,0.035326,-0.021926,-0.000375,1,0,0,0,0,0,0
1.170000,0.000246,0.040915,-0.000002,1,0,0,0,0,0,0,-0.020187,-0.028630,0.000633,1,0,0,0,0,0,0,0.036247,-0.022472,-0.000395,1,0,0,0,0,0,0
1.180000,0.000272,0.041832,-0.000002,1,0,0,0,0,0,0,-0.019171,-0.029893,0.000638,1,0,0,0,0,0,0,0.037156,-0.023020,-0.000416,1,0,0,0,0,0,0
1.190000,0.000295,0.042720,-0.000001,1,0,0,0,0,0,0,-0.018097,-0.031068,0.000639,1,0,0,0,0,0,0,0.038047,-0.023566,-0.000437,1,0,0,0,0,0,0
1.200000,0.000314,0.043569,-0.000000,1,0,0,0,0,0,0,-0.016978,-0.032151,0.000637,1,0,0,0,0,0,0,0.038916,-0.024109,-0.000459,1,0,0,0,0,0,0
1.210000,0.000328,0.044371,0.000000,1,0,0,0,0,0,0,-0.015834,-0.033120,0.000631,1,0,0,0,0,0,0,0.039761,-0.024647,-0.000481,1,0,0,0,0,0,0
1.220000,0.000337,0.045125,0.000001,1,0,0,0,0,0,0,-0.014680,-0.033949,0.000622,1,0,0,0,0,0,0,0.040576,-0.025176,-0.000503,1,0,0,0,0,0,0
1.230000,0.000341,0.045830,0.000002,1,0,0,0,0,0,0,-0.013517,-0.034642,0.000609,1,0,0,0,0,0,0,0.041353,-0.025692,-0.000524,1,0,0,0,0,0,0
1.240000,0.000338,0.046479,0.000002,1,0,0,0,0,0,0,-0.012346,-0.035222,0.000594,1,0,0,0,0,0,0,0.042085,-0.026189,-0.000545,1,0,0,0,0,0,0
1.250000,0.000328,0.047070,0.000003,1,0,0,0,0,0,0,-0.011178,-0.035699,0.000578,1,0,0,0,0,0,0,0.042744,-0.026649,-0.000565,1,0,0,0,0,0,0
1.260000,0.000312,0.047595,0.000003,1,0,0,0,0,0,0,-0.010028,-0.036076,0.000559,1,0,0,0,0,0,0,0.043297,-0.027047,-0.000583,1,0,0,0,0,0,0
1.270000,0.000288,0.048043,0.000004,1,0,0,0,0,0,0,-0.008913,-0.036351,0.000539,1,0,0,0,0,0,0,0.043759,-0.027395,-0.000598,1,0,0,0,0,0,0
1.280000,0.000258,0.048422,0.000004,1,0,0,0,0,0,0,-0.007843,-0.036517,0.000518,1,0,0,0,0,0,0,0.044138,-0.027697,-0.000612,1,0,0,0,0,0,0
1.290000,0.000219,0.048743,0.000004,1,0,0,0,0,0,0,-0.006833,-0.036571,0.000496,1,0,0,0,0,0,0,0.044432,-0.027950,-0.000623,1,0,0,0,0,0,0
1.300000,0.000170,0.049008,0.000004,1,0,0,0,0,0,0,-0.005901,-0.036509,0.000473,1,0,0,0,0,0,0,0.044635,-0.028151,-0.000632,1,0,0,0,0,0,0
1.310000,0.000113,0.049215,0.000005,1,0,0,0,0,0,0,-0.005069,-0.036324,0.000450,1,0,0,0,0,0,0,0.044737,-0.028294,-0.000638,1,0,0,0,0,0,0
1.320000,0.000048,0.049354,0.000004,1,0,0,0,0,0,0,-0.004357,-0.036012,0.000427,1,0,0,0,0,0,0,0.044728,-0.028369,-0.000641,1,0,0,0,0,0,0
1.330000,-0.000025,0.049414,0.000004,1,0,0,0,0,0,0,-0.003765,-0.035569,0.000404,1,0,0,0,0,0,0,0.044602,-0.028373,-0.000641,1,0,0,0,0,0,0
1.340000,-0.000103,0.049379,0.000004,1,0,0,0,0,0,0,-0.003280,-0.035006,0.000381,1,0,0,0,0,0,0,0.044352,-0.028301,-0.000637,1,0,0,0,0,0,0
1.350000,-0.000185,0.049232,0.000004,1,0,0,0,0,0,0,-0.002888,-0.034339,0.000359,1,0,0,0,0,0,0,0.043978,-0.028151,-0.000630,1,0,0,0,0,0,0
1.360000,-0.000269,0.048961,0.000003,1,0,0,0,0,0,0,-0.002597,-0.033585,0.000338,1,0,0,0,0,0,0,0.043483,-0.027923,-0.000620,1,0,0,0,0,0,0
1.370000,-0.000352,0.048562,0.000003,1,0,0,0,0,0,0,-0.002423,-0.032760,0.000318,1,0,0,0,0,0,0,0.042870,-0.027621,-0.000606,1,0,0,0,0,0,0
1.380000,-0.000434,0.048033,0.000003,1,0,0,0,0,0,0,-0.002377,-0.031882,0.000299,1,0,0,0,0,0,0,0.042147,-0.027247,-0.000589,1,0,0,0,0,0,0
1.390000,-0.000513,0.047375,0.000002,1,0,0,0,0,0,0,-0.002478,-0.030967,0.000280,1,0,0,0,0,0,0,0.041325,-0.026809,-0.000570,1,0,0,0,0,0,0
1.400000,-0.000587,0.046589,0.000002,1,0,0,0,0,0,0,-0.002740,-0.030029,0.000263,1,0,0,0,0,0,0,0.040420,-0.026316,-0.000549,1,0,0,0,0,0,0
1.410000,-0.000656,0.045687,0.000001,1,0,0,0,0,0,0,-0.003154,-0.029068,0.000246,1,0,0,0,0,0,0,0.039444,-0.025776,-0.000526,1,0,0,0,0,0,0
1.420000,-0.000721,0.044684,0.000001,1,0,0,0,0,0,0,-0.003704,-0.028084,0.000230,1,0,0,0,0,0,0,0.038411,-0.025197,-0.000503,1,0,0,0,0,0,0
1.430000,-0.000780,0.043594,0.000001,1,0,0,0,0,0,0,-0.004387,-0.027074,0.000215,1,0,0,0,0,0,0,0.037333,-0.024586,-0.000478,1,0,0,0,0,0,0
1.440000,-0.000835,0.042430,0.000001,1,0,0,0,0,0,0,-0.005194,-0.026035,0.000200,1,0,0,0,0,0,0,0.036232,-0.023959,-0.000454,1,0,0,0,0,0,0
1.450000,-0.000884,0.041203,0.000001,1,0,0,0,0,0,0,-0.006111,-0.024966,0.000185,1,0,0,0,0,0,0,0.035122,-0.023323,-0.000430,1,0,0,0,0,0,0
1.460000,-0.000928,0.039928,0.000001,1,0,0,0,0,0,0,-0.007105,-0.023863,0.000171,1,0,0,0,0,0,0,0.034008,-0.022684,-0.000407,1,0,0,0,0,0,0
1.470000,-0.000968,0.038629,0.000001,1,0,0,0,0,0,0,-0.008134,-0.022722,0.000156,1,0,0,0,0,0,0,0.032899,-0.022047,-0.000384,1,0,0,0,0,0,0
1.480000,-0.001006,0.037316,0.000001,1,0,0,0,0,0,0,-0.009154,-0.021545,0.000141,1,0,0,0,0,0,0,0.031803,-0.021420,-0.000363,1,0,0,0,0,0,0
1.490000,-0.001041,0.035993,0.000001,1,0,0,0,0,0,0,-0.010130,-0.020333,0.000126,1,0,0,0,0,0,0,0.030723,-0.020805,-0.000342,1,0,0,0,0,0,0
1.500000,-0.001076,0.034664,0.000001,1,0,0,0,0,0,0,-0.011047,-0.019090,0.000111,1,0,0,0,0,0,0,0.029663,-0.020207,-0.000323,1,0,0,0,0,0,0
1.510000,-0.001111,0.033334,0.000002,1,0,0,0,0,0,0,-0.011906,-0.017821,0.000096,1,0,0,0,0,0,0,0.028632,-0.019632,-0.000305,1,0,0,0,0,0,0
1.520000,-0.001150,0.032007,0.000002,1,0,0,0,0,0,0,-0.012722,-0.016536,0.000080,1,0,0,0,0,0,0,0.027645,-0.019092,-0.000288,1,0,0,0,0,0,0
1.530000,-0.001192,0.030691,0.000002,1,0,0,0,0,0,0,-0.013519,-0.015243,0.000064,1,0,0,0,0,0,0,0.026712,-0.018596,-0.000273,1,0,0,0,0,0,0
1.540000,-0.001243,0.029402,0.000003,1,0,0,0,0,0,0,-0.014334,-0.013955,0.000048,1,0,0,0,0,0,0,0.025825,-0.018138,-0.000259,1,0,0,0,0,0,0
1.550000,-0.001303,0.028157,0.000003,1,0,0,0,0,0,0,-0.015178,-0.012679,0.000032,1,0,0,0,0,0,0,0.024961,-0.017704,-0.000247,1,0,0,0,0,0,0
1.560000,-0.001376,0.026963,0.000003,1,0,0,0,0,0,0,-0.016047,-0.011416,0.000016,1,0,0,0,0,0,0,0.024100,-0.017280,-0.000235,1,0,0,0,0,0,0
1.570000,-0.001458,0.025807,0.000004,1,0,0,0,0,0,0,-0.016932,-0.010167,-0.000001,1,0,0,0,0,0,0,0.023231,-0.016858,-0.000223,1,0,0,0,0,0,0
1.580000,-0.001547,0.024671,0.000004,1,0,0,0,0,0,0,-0.017826,-0.008929,-0.000017,1,0,0,0,0,0,0,0.022338,-0.016428,-0.000212,1,0,0,0,0,0,0
1.590000,-0.001642,0.023540,0.000004,1,0,0,0,0,0,0,-0.018725,-0.007698,-0.000034,1,0,0,0,0,0,0,0.021403,-0.015976,-0.000200,1,0,0,0,0,0,0
1.600000,-0.001741,0.022405,0.000005,1,0,0,0,0,0,0,-0.019628,-0.006466,-0.000052,1,0,0,0,0,0,0,0.020409,-0.015484,-0.000188,1,0,0,0,0,0,0
1.610000,-0.001841,0.021249,0.000006,1,0,0,0,0,0,0,-0.020535,-0.005223,-0.000070,1,0,0,0,0,0,0,0.019358,-0.014950,-0.000176,1,0,0,0,0,0,0
1.620000,-0.001938,0.020051,0.000006,1,0,0,0,0,0,0,-0.021439,-0.003951,-0.000090,1,0,0,0,0,0,0,0.018258,-0.014378,-0.000163,1,0,0,0,0,0,0
1.630000,-0.002026,0.018799,0.000007,1,0,0,0,0,0,0,-0.022328,-0.002635,-0.000111,1,0,0,0,0,0,0,0.017120,-0.013774,-0.000151,1,0,0,0,0,0,0
1.640000,-0.002102,0.017498,0.000008,1,0,0,0,0,0,0,-0.023178,-0.001265,-0.000134,1,0,0,0,0,0,0,0.015951,-0.013146,-0.000138,1,0,0,0,0,0,0
1.650000,-0.002167,0.016157,0.000010,1,0,0,0,0,0,0,-0.023966,0.000157,-0.000159,1,0,0,0,0,0,0,0.014763,-0.012499,-0.000126,1,0,0,0,0,0,0
1.660000,-0.002222,0.014786,0.000011,1,0,0,0,0,0,0,-0.024673,0.001622,-0.000185,1,0,0,0,0,0,0,0.013565,-0.011843,-0.000115,1,0,0,0,0,0,0
1.670000,-0.002268,0.013397,0.000013,1,0,0,0,0,0,0,-0.025289,0.003115,-0.000213,1,0,0,0,0,0,0,0.012369,-0.011182,-0.000104,1,0,0,0,0,0,0
1.680000,-0.002306,0.011998,0.000014,1,0,0,0,0,0,0,-0.025811,0.004623,-0.000241,1,0,0,0,0,0,0,0.011182,-0.010520,-0.000094,1,0,0,0,0,0,0
1.690000,-0.002338,0.010603,0.000016,1,0,0,0,0,0,0,-0.026237,0.006131,-0.000270,1,0,0,0,0,0,0,0.010012,-0.009860,-0.000085,1,0,0,0,0,0,0
1.700000,-0.002363,0.009222,0.000017,1,0,0,0,0,0,0,-0.026565,0.007621,-0.000298,1,0,0,0,0,0,0,0.008860,-0.009203,-0.000077,1,0,0,0,0,0,0
1.710000,-0.002381,0.007866,0.000019,1,0,0,0,0,0,0,-0.026793,0.009073,-0.000325,1,0,0,0,0,0,0,0.007733,-0.008551,-0.000069,1,0,0,0,0,0,0
1.720000,-0.002392,0.006540,0.000020,1,0,0,0,0,0,0,-0.026922,0.010467,-0.000351,1,0,0,0,0,0,0,0.006633,-0.007904,-0.000062,1,0,0,0,0,0,0
1.730000,-0.002394,0.005247,0.000022,1,0,0,0,0,0,0,-0.026949,0.011785,-0.000374,1,0,0,0,0,0,0,0.005558,-0.007261,-0.000056,1,0,0,0,0,0,0
1.740000,-0.002387,0.003988,0.000023,1,0,0,0,0,0,0,-0.026874,0.013011,-0.000394,1,0,0,0,0,0,0,0.004504,-0.006618,-0.000051,1,0,0,0,0,0,0
1.750000,-0.002372,0.002767,0.000024,1,0,0,0,0,0,0,-0.026696,0.014131,-0.000411,1,0,0,0,0,0,0,0.003471,-0.005975,-0.000046,1,0,0,0,0,0,0
1.760000,-0.002346,0.001586,0.000025,1,0,0,0,0,0,0,-0.026416,0.015137,-0.000425,1,0,0,0,0,0,0,0.002465,-0.005334,-0.000042,1,0,0,0,0,0,0
1.770000,-0.002310,0.000441,0.000026,1,0,0,0,0,0,0,-0.026035,0.016026,-0.000435,1,0,0,0,0,0,0,0.001498,-0.004702,-0.000039,1,0,0,0,0,0,0
1.780000,-0.002262,-0.000668,0.000027,1,0,0,0,0,0,0,-0.025556,0.016796,-0.000441,1,0,0,0,0,0,0,0.000584,-0.004085,-0.000036,1,0,0,0,0,0,0
1.790000,-0.002202,-0.001740,0.000028,1,0,0,0,0,0,0,-0.024984,0.017445,-0.000444,1,0,0,0,0,0,0,-0.000262,-0.003488,-0.000034,1,0,0,0,0,0,0
1.800000,-0.002129,-0.002760,0.000029,1,0,0,0,0,0,0,-0.024321,0.017969,-0.000443,1,0,0,0,0,0,0,-0.001022,-0.002920,-0.000032,1,0,0,0,0,0,0
1.810000,-0.002041,-0.003715,0.000029,1,0,0,0,0,0,0,-0.023570,0.018363,-0.000439,1,0,0,0,0,0,0,-0.001674,-0.002390,-0.000031,1,0,0,0,0,0,0
1.820000,-0.001936,-0.004591,0.000029,1,0,0,0,0,0,0,-0.022733,0.018619,-0.000432,1,0,0,0,0,0,0,-0.002192,-0.001908,-0.000030,1,0,0,0,0,0,0
1.830000,-0.001811,-0.005370,0.000029,1,0,0,0,0,0,0,-0.021813,0.018735,-0.000421,1,0,0,0,0,0,0,-0.002553,-0.001488,-0.000029,1,0,0,0,0,0,0
1.840000,-0.001664,-0.006031,0.000029,1,0,0,0,0,0,0,-0.020815,0.018707,-0.000407,1,0,0,0,0,0,0,-0.002739,-0.001138,-0.000028,1,0,0,0,0,0,0
1.850000,-0.001492,-0.006550,0.000028,1,0,0,0,0,0,0,-0.019741,0.018533,-0.000391,1,0,0,0,0,0,0,-0.002738,-0.000864,-0.000027,1,0,0,0,0,0,0
1.860000,-0.001293,-0.006902,0.000027,1,0,0,0,0,0,0,-0.018596,0.018216,-0.000372,1,0,0,0,0,0,0,-0.002548,-0.000669,-0.000025,1,0,0,0,0,0,0
1.870000,-0.001066,-0.007067,0.000026,1,0,0,0,0,0,0,-0.017390,0.017765,-0.000352,1,0,0,0,0,0,0,-0.002173,-0.000555,-0.000024,1,0,0,0,0,0,0
1.880000,-0.000813,-0.007033,0.000025,1,0,0,0,0,0,0,-0.016132,0.017196,-0.000330,1,0,0,0,0,0,0,-0.001625,-0.000518,-0.000023,1,0,0,0,0,0,0
1.890000,-0.000534,-0.006790,0.000023,1,0,0,0,0,0,0,-0.014837,0.016528,-0.000308,1,0,0,0,0,0,0,-0.000920,-0.000554,-0.000021,1,0,0,0,0,0,0
1.900000,-0.000232,-0.006338,0.000022,1,0,0,0,0,0,0,-0.013517,0.015776,-0.000286,1,0,0,0,0,0,0,-0.000070,-0.000662,-0.000020,1,0,0,0,0,0,0
1.910000,0.000087,-0.005691,0.000021,1,0,0,0,0,0,0,-0.012181,0.014944,-0.000265,1,0,0,0,0,0,0,0.000905,-0.000837,-0.000019,1,0,0,0,0,0,0
1.920000,0.000417,-0.004860,0.000019,1,0,0,0,0,0,0,-0.010840,0.014037,-0.000243,1,0,0,0,0,0,0,0.001972,-0.001069,-0.000018,1,0,0,0,0,0,0
1.930000,0.000753,-0.003858,0.000019,1,0,0,0,0,0,0,-0.009506,0.013065,-0.000223,1,0,0,0,0,0,0,0.003098,-0.001345,-0.000017,1,0,0,0,0,0,0
1.940000,0.001087,-0.002713,0.000019,1,0,0,0,0,0,0,-0.008188,0.012031,-0.000204,1,0,0,0,0,0,0,0.004258,-0.001658,-0.000018,1,0,0,0,0,0,0
1.950000,0.001411,-0.001467,0.000019,1,0,0,0,0,0,0,-0.006898,0.010928,-0.000186,1,0,0,0,0,0,0,0.005435,-0.002001,-0.000018,1,0,0,0,0,0,0
1.960000,0.001719,-0.000161,0.000020,1,0,0,0,0,0,0,-0.005651,0.009736,-0.000170,1,0,0,0,0,0,0,0.006612,-0.002369,-0.000020,1,0,0,0,0,0,0
1.970000,0.002008,0.001175,0.000021,1,0,0,0,0,0,0,-0.004466,0.008442,-0.000154,1,0,0,0,0,0,0,0.007772,-0.002752,-0.000022,1,0,0,0,0,0,0
1.980000,0.002275,0.002521,0.000023,1,0,0,0,0,0,0,-0.003356,0.007039,-0.000141,1,0,0,0,0,0,0,0.008901,-0.003146,-0.000024,1,0,0,0,0,0,0
1.990000,0.002519,0.003861,0.000025,1,0,0,0,0,0,0,-0.002331,0.005531,-0.000128,1,0,0,0,0,0,0,0.009991,-0.003547,-0.000027,1,0,0,0,0,0,0
2.000000,0.002739,0.005182,0.000027,1,0,0,0,0,0,0,-0.001392,0.003936,-0.000118,1,0,0,0,0,0,0,0.011047,-0.003964,-0.000031,1,0,0,0,0,0,0
2.010000,0.002926,0.006494,0.000030,1,0,0,0,0,0,0,-0.000546,0.002256,-0.000109,1,0,0,0,0,0,0,0.012065,-0.004404,-0.000036,1,0,0,0,0,0,0
2.020000,0.003057,0.007838,0.000032,1,0,0,0,0,0,0,0.000187,0.000468,-0.000102,1,0,0,0,0,0,0,0.013014,-0.004870,-0.000041,1,0,0,0,0,0,0
2.030000,0.003122,0.009202,0.000035,1,0,0,0,0,0,0,0.000807,-0.001396,-0.000096,1,0,0,0,0,0,0,0.013858,-0.005341,-0.000047,1,0,0,0,0,0,0
2.040000,0.003121,0.010543,0.000038,1,0,0,0,0,0,0,0.001317,-0.003298,-0.000092,1,0,0,0,0,0,0,0.014581,-0.005802,-0.000053,1,0,0,0,0,0,0
2.050000,0.003061,0.011817,0.000041,1,0,0,0,0,0,0,0.001720,-0.005196,-0.000090,1,0,0,0,0,0,0,0.015180,-0.006244,-0.000059,1,0,0,0,0,0,0
2.060000,0.002956,0.012989,0.000043,1,0,0,0,0,0,0,0.002025,-0.007046,-0.000088,1,0,0,0,0,0,0,0.015667,-0.006663,-0.000064,1,0,0,0,0,0,0
2.070000,0.002818,0.014048,0.000045,1,0,0,0,0,0,0,0.002244,-0.008808,-0.000087,1,0,0,0,0,0,0,0.016064,-0.007064,-0.000070,1,0,0,0,0,0,0
2.080000,0.002661,0.014993,0.000046,1,0,0,0,0,0,0,0.002385,-0.010462,-0.000086,1,0,0,0,0,0,0,0.016394,-0.007454,-0.000076,1,0,0,0,0,0,0
2.090000,0.002495,0.015836,0.000047,1,0,0,0,0,0,0,0.002444,-0.012007,-0.000085,1,0,0,0,0,0,0,0.016681,-0.007842,-0.000081,1,0,0,0,0,0,0
2.100000,0.002326,0.016594,0.000047,1,0,0,0,0,0,0,0.002412,-0.013451,-0.000084,1,0,0,0,0,0,0,0.016940,-0.008233,-0.000087,1,0,0,0,0,0,0
2.110000,0.002158,0.017285,0.000047,1,0,0,0,0,0,0,0.002284,-0.014807,-0.000083,1,0,0,0,0,0,0,0.017181,-0.008628,-0.000093,1,0,0,0,0,0,0
2.120000,0.001992,0.017923,0.000046,1,0,0,0,0,0,0,0.002053,-0.016090,-0.000082,1,0,0,0,0,0,0,0.017408,-0.009029,-0.000099,1,0,0,0,0,0,0
2.130000,0.001827,0.018520,0.000046,1,0,0,0,0,0,0,0.001717,-0.017314,-0.000080,1,0,0,0,0,0,0,0.017629,-0.009438,-0.000105,1,0,0,0,0,0,0
2.140000,0.001661,0.019084,0.000045,1,0,0,0,0,0,0,0.001281,-0.018487,-0.000078,1,0,0,0,0,0,0,0.017850,-0.009858,-0.000111,1,0,0,0,0,0,0
2.150000,0.001490,0.019626,0.000044,1,0,0,0,0,0,0,0.000764,-0.019609,-0.000075,1,0,0,0,0,0,0,0.018086,-0.010296,-0.000117,1,0,0,0,0,0,0
2.160000,0.001309,0.020162,0.000043,1,0,0,0,0,0,0,0.000191,-0.020673,-0.000072,1,0,0,0,0,0,0,0.018351,-0.010763,-0.000124,1,0,0,0,0,0,0
2.170000,0.001114,0.020713,0.000042,1,0,0,0,0,0,0,-0.000419,-0.021670,-0.000068,1,0,0,0,0,0,0,0.018649,-0.011260,-0.000132,1,0,0,0,0,0,0
2.180000,0.000900,0.021301,0.000041,1,0,0,0,0,0,0,-0.001065,-0.022608,-0.000063,1,0,0,0,0,0,0,0.018971,-0.011779,-0.000140,1,0,0,0,0,0,0
2.190000,0.000665,0.021934,0.000040,1,0,0,0,0,0,0,-0.001756,-0.023501,-0.000057,1,0,0,0,0,0,0,0.019304,-0.012311,-0.000149,1,0,0,0,0,0,0
2.200000,0.000409,0.022602,0.000038,1,0,0,0,0,0,0,-0.002481,-0.024349,-0.000051,1,0,0,0,0,0,0,0.019641,-0.012851,-0.000158,1,0,0,0,0,0,0
2.210000,0.000136,0.023291,0.000036,1,0,0,0,0,0,0,-0.003224,-0.025150,-0.000044,1,0,0,0,0,0,0,0.019996,-0.013407,-0.000167,1,0,0,0,0,0,0
2.220000,-0.000152,0.023990,0.000034,1,0,0,0,0,0,0,-0.003974,-0.025899,-0.000036,1,0,0,0,0,0,0,0.020411,-0.014010,-0.000177,1,0,0,0,0,0,0
2.230000,-0.000455,0.024713,0.000032,1,0,0,0,0,0,0,-0.004719,-0.026593,-0.000028,1,0,0,0,0,0,0,0.020963,-0.014712,-0.000189,1,0,0,0,0,0,0
2.240000,-0.000778,0.025512,0.000029,1,0,0,0,0,0,0,-0.005456,-0.027233,-0.000019,1,0,0,0,0,0,0,0.021755,-0.015582,-0.000206,1,0,0,0,0,0,0
2.250000,-0.001132,0.026492,0.000026,1,0,0,0,0,0,0,-0.006182,-0.027821,-0.000010,1,0,0,0,0,0,0,0.022896,-0.016692,-0.000229,1,0,0,0,0,0,0
2.260000,-0.001528,0.027822,0.000022,1,0,0,0,0,0,0,-0.006901,-0.028363,-0.000001,1,0,0,0,0,0,0,0.024459,-0.018083,-0.000259,1,0,0,0,0,0,0
2.270000,-0.001979,0.029696,0.000016,1,0,0,0,0,0,0,-0.007619,-0.028864,0.000008,1,0,0,0,0,0,0,0.026494,-0.019782,-0.000300,1,0,0,0,0,0,0
2.280000,-0.002483,0.032250,0.000008,1,0,0,0,0,0,0,-0.008346,-0.029325,0.000018,1,0,0,0,0,0,0,0.029079,-0.021833,-0.000355,1,0,0,0,0,0,0
2.290000,-0.003023,0.035546,-0.000004,1,0,0,0,0,0,0,-0.009095,-0.029747,0.000028,1,0,0,0,0,0,0,0.032301,-0.024289,-0.000428,1,0,0,0,0,0,0
2.300000,-0.003582,0.039662,-0.000021,1,0,0,0,0,0,0,-0.009887,-0.030135,0.000038,1,0,0,0,0,0,0,0.036186,-0.027168,-0.000524,1,0,0,0,0,0,0
2.310000,-0.004138,0.044628,-0.000043,1,0,0,0,0,0,0,-0.010756,-0.030501,0.000048,1,0,0,0,0,0,0,0.040743,-0.030476,-0.000649,1,0,0,0,0,0,0
2.320000,-0.004681,0.050354,-0.000071,1,0,0,0,0,0,0,-0.011747,-0.030862,0.000059,1,0,0,0,0,0,0,0.045993,-0.034226,-0.000809,1,0,0,0,0,0,0
2.330000,-0.005228,0.056781,-0.000106,1,0,0,0,0,0,0,-0.012898,-0.031231,0.000071,1,0,0,0,0,0,0,0.051900,-0.038385,-0.001011,1,0,0,0,0,0,0
2.340000,-0.005814,0.063917,-0.000148,1,0,0,0,0,0,0,-0.014223,-0.031617,0.000084,1,0,0,0,0,0,0,0.058340,-0.042855,-0.001255,1,0,0,0,0,0,0
2.350000,-0.006471,0.071670,-0.000198,1,0,0,0,0,0,0,-0.015731,-0.032027,0.000098,1,0,0,0,0,0,0,0.065144,-0.047495,-0.001541,1,0,0,0,0,0,0
2.360000,-0.007194,0.079816,-0.000255,1,0,0,0,0,0,0,-0.017446,-0.032477,0.000114,1,0,0,0,0,0,0,0.072099,-0.052133,-0.001859,1,0,0,0,0,0,0
2.370000,-0.007920,0.088030,-0.000319,1,0,0,0,0,0,0,-0.019421,-0.032983,0.000133,1,0,0,0,0,0,0,0.079002,-0.056619,-0.002199,1,0,0,0,0,0,0
2.380000,-0.008543,0.096005,-0.000387,1,0,0,0,0,0,0,-0.021695,-0.033534,0.000155,1,0,0,0,0,0,0,0.085795,-0.060913,-0.002554,1,0,0,0,0,0,0
2.390000,-0.008978,0.103651,-0.000456,1,0,0,0,0,0,0,-0.024266,-0.034077,0.000180,1,0,0,0,0,0,0,0.092602,-0.065110,-0.002932,1,0,0,0,0,0,0
2.400000,-0.009216,0.111121,-0.000525,1,0,0,0,0,0,0,-0.027155,-0.034550,0.000205,1,0,0,0,0,0,0,0.099593,-0.069359,-0.003346,1,0,0,0,0,0,0
2.410000,-0.009325,0.118689,-0.000595,1,0,0,0,0,0,0,-0.030438,-0.034903,0.000230,1,0,0,0,0,0,0,0.106717,-0.073711,-0.003803,1,0,0,0,0,0,0
2.420000,-0.009454,0.126474,-0.000667,1,0,0,0,0,0,0,-0.034131,-0.035103,0.000254,1,0,0,0,0,0,0,0.113692,-0.078077,-0.004293,1,0,0,0,0,0,0
2.430000,-0.009731,0.134255,-0.000739,1,0,0,0,0,0,0,-0.038166,-0.035189,0.000276,1,0,0,0,0,0,0,0.120187,-0.082299,-0.004798,1,0,0,0,0,0,0
2.440000,-0.010168,0.141676,-0.000809,1,0,0,0,0,0,0,-0.042540,-0.035280,0.000302,1,0,0,0,0,0,0,0.125926,-0.086192,-0.005290,1,0,0,0,0,0,0
2.450000,-0.010669,0.148397,-0.000875,1,0,0,0,0,0,0,-0.047383,-0.035555,0.000340,1,0,0,0,0,0,0,0.130856,-0.089617,-0.005741,1,0,0,0,0,0,0
2.460000,-0.011074,0.154206,-0.000934,1,0,0,0,0,0,0,-0.052890,-0.036221,0.000402,1,0,0,0,0,0,0,0.135190,-0.092544,-0.006142,1,0,0,0,0,0,0
2.470000,-0.011250,0.159174,-0.000985,1,0,0,0,0,0,0,-0.059255,-0.037456,0.000503,1,0,0,0,0,0,0,0.139231,-0.095011,-0.006492,1,0,0,0,0,0,0
2.480000,-0.011128,0.163556,-0.001029,1,0,0,0,0,0,0,-0.066458,-0.039303,0.000654,1,0,0,0,0,0,0,0.143181,-0.097061,-0.006792,1,0,0,0,0,0,0
2.490000,-0.010691,0.167590,-0.001068,1,0,0,0,0,0,0,-0.074139,-0.041617,0.000855,1,0,0,0,0,0,0,0.147040,-0.098721,-0.007046,1,0,0,0,0,0,0
2.500000,-0.009974,0.171382,-0.001098,1,0,0,0,0,0,0,-0.081952,-0.044294,0.001104,1,0,0,0,0,0,0,0.150693,-0.100016,-0.007253,1,0,0,0,0,0,0
2.510000,-0.009070,0.174921,-0.001120,1,0,0,0,0,0,0,-0.089639,-0.047353,0.001408,1,0,0,0,0,0,0,0.154039,-0.100962,-0.007415,1,0,0,0,0,0,0
2.520000,-0.008094,0.178170,-0.001131,1,0,0,0,0,0,0,-0.096764,-0.050693,0.001763,1,0,0,0,0,0,0,0.157053,-0.101564,-0.007531,1,0,0,0,0,0,0
2.530000,-0.007099,0.181124,-0.001132,1,0,0,0,0,0,0,-0.102991,-0.054014,0.002137,1,0,0,0,0,0,0,0.159788,-0.101821,-0.007598,1,0,0,0,0,0,0
2.540000,-0.006044,0.183799,-0.001123,1,0,0,0,0,0,0,-0.108439,-0.057121,0.002507,1,0,0,0,0,0,0,0.162384,-0.101791,-0.007624,1,0,0,0,0,0,0
2.550000,-0.004850,0.186252,-0.001105,1,0,0,0,0,0,0,-0.113478,-0.059987,0.002863,1,0,0,0,0,0,0,0.165036,-0.101621,-0.007633,1,0,0,0,0,0,0
2.560000,-0.003511,0.188642,-0.001079,1,0,0,0,0,0,0,-0.118512,-0.062564,0.003197,1,0,0,0,0,0,0,0.167909,-0.101503,-0.007657,1,0,0,0,0,0,0
2.570000,-0.002136,0.191247,-0.001044,1,0,0,0,0,0,0,-0.123572,-0.064768,0.003498,1,0,0,0,0,0,0,0.171024,-0.101561,-0.007717,1,0,0,0,0,0,0
2.580000,-0.000869,0.194307,-0.001001,1,0,0,0,0,0,0,-0.128402,-0.066575,0.003758,1,0,0,0,0,0,0,0.174285,-0.101805,-0.007817,1,0,0,0,0,0,0
2.590000,0.000228,0.197784,-0.000949,1,0,0,0,0,0,0,-0.132748,-0.068069,0.003986,1,0,0,0,0,0,0,0.177569,-0.102202,-0.007951,1,0,0,0,0,0,0
2.600000,0.001168,0.201466,-0.000890,1,0,0,0,0,0,0,-0.136453,-0.069426,0.004202,1,0,0,0,0,0,0,0.180735,-0.102715,-0.008111,1,0,0,0,0,0,0
2.610000,0.001951,0.205116,-0.000825,1,0,0,0,0,0,0,-0.139578,-0.070809,0.004427,1,0,0,0,0,0,0,0.183620,-0.103313,-0.008293,1,0,0,0,0,0,0
2.620000,0.002518,0.208500,-0.000756,1,0,0,0,0,0,0,-0.142324,-0.072296,0.004670,1,0,0,0,0,0,0,0.186017,-0.103927,-0.008482,1,0,0,0,0,0,0
2.630000,0.002804,0.211378,-0.000687,1,0,0,0,0,0,0,-0.144809,-0.073829,0.004922,1,0,0,0,0,0,0,0.187726,-0.104450,-0.008654,1,0,0,0,0,0,0
2.640000,0.002806,0.213502,-0.000620,1,0,0,0,0,0,0,-0.146979,-0.075286,0.005165,1,0,0,0,0,0,0,0.188609,-0.104781,-0.008790,1,0,0,0,0,0,0
2.650000,0.002595,0.214653,-0.000560,1,0,0,0,0,0,0,-0.148710,-0.076585,0.005383,1,0,0,0,0,0,0,0.188591,-0.104845,-0.008872,1,0,0,0,0,0,0
2.660000,0.002261,0.214741,-0.000507,1,0,0,0,0,0,0,-0.149974,-0.077715,0.005575,1,0,0,0,0,0,0,0.187651,-0.104630,-0.008897,1,0,0,0,0,0,0
2.670000,0.001858,0.213816,-0.000460,1,0,0,0,0,0,0,-0.150905,-0.078683,0.005740,1,0,0,0,0,0,0,0.185836,-0.104183,-0.008873,1,0,0,0,0,0,0
2.680000,0.001407,0.211991,-0.000421,1,0,0,0,0,0,0,-0.151724,-0.079474,0.005876,1,0,0,0,0,0,0,0.183254,-0.103607,-0.008819,1,0,0,0,0,0,0
2.690000,0.000890,0.209371,-0.000386,1,0,0,0,0,0,0,-0.152581,-0.080053,0.005976,1,0,0,0,0,0,0,0.180030,-0.103006,-0.008755,1,0,0,0,0,0,0
2.700000,0.000241,0.206065,-0.000356,1,0,0,0,0,0,0,-0.153450,-0.080420,0.006043,1,0,0,0,0,0,0,0.176188,-0.102362,-0.008676,1,0,0,0,0,0,0
2.710000,-0.000609,0.202150,-0.000330,1,0,0,0,0,0,0,-0.154215,-0.080636,0.006086,1,0,0,0,0,0,0,0.171616,-0.101516,-0.008554,1,0,0,0,0,0,0
2.720000,-0.001654,0.197565,-0.000305,1,0,0,0,0,0,0,-0.154811,-0.080780,0.006117,1,0,0,0,0,0,0,0.166209,-0.100242,-0.008353,1,0,0,0,0,0,0
2.730000,-0.002742,0.192116,-0.000281,1,0,0,0,0,0,0,-0.155225,-0.080845,0.006137,1,0,0,0,0,0,0,0.160041,-0.098399,-0.008054,1,0,0,0,0,0,0
2.740000,-0.003634,0.185652,-0.000254,1,0,0,0,0,0,0,-0.155498,-0.080730,0.006128,1,0,0,0,0,0,0,0.153438,-0.096018,-0.007672,1,0,0,0,0,0,0
2.750000,-0.004128,0.178287,-0.000227,1,0,0,0,0,0,0,-0.155670,-0.080335,0.006075,1,0,0,0,0,0,0,0.146855,-0.093261,-0.007240,1,0,0,0,0,0,0
2.760000,-0.004174,0.170469,-0.000199,1,0,0,0,0,0,0,-0.155748,-0.079688,0.005985,1,0,0,0,0,0,0,0.140640,-0.090309,-0.006792,1,0,0,0,0,0,0
2.770000,-0.003882,0.162755,-0.000176,1,0,0,0,0,0,0,-0.155702,-0.078974,0.005886,1,0,0,0,0,0,0,0.134875,-0.087255,-0.006343,1,0,0,0,0,0,0
2.780000,-0.003428,0.155503,-0.000157,1,0,0,0,0,0,0,-0.155525,-0.078428,0.005815,1,0,0,0,0,0,0,0.129398,-0.084089,-0.005894,1,0,0,0,0,0,0
2.790000,-0.002955,0.148711,-0.000142,1,0,0,0,0,0,0,-0.155261,-0.078212,0.005798,1,0,0,0,0,0,0,0.124001,-0.080771,-0.005443,1,0,0,0,0,0,0
2.800000,-0.002517,0.142145,-0.000129,1,0,0,0,0,0,0,-0.154884,-0.078297,0.005829,1,0,0,0,0,0,0,0.118608,-0.077298,-0.004992,1,0,0,0,0,0,0
2.810000,-0.002101,0.135645,-0.000118,1,0,0,0,0,0,0,-0.154285,-0.078522,0.005879,1,0,0,0,0,0,0,0.113330,-0.073747,-0.004552,1,0,0,0,0,0,0
2.820000,-0.001686,0.129293,-0.000108,1,0,0,0,0,0,0,-0.153366,-0.078771,0.005931,1,0,0,0,0,0,0,0.108363,-0.070240,-0.004137,1,0,0,0,0,0,0
2.830000,-0.001276,0.123327,-0.000100,1,0,0,0,0,0,0,-0.151985,-0.078965,0.005971,1,0,0,0,0,0,0,0.103883,-0.066914,-0.003761,1,0,0,0,0,0,0
2.840000,-0.000914,0.117976,-0.000093,1,0,0,0,0,0,0,-0.150001,-0.079047,0.005988,1,0,0,0,0,0,0,0.099962,-0.063880,-0.003431,1,0,0,0,0,0,0
2.850000,-0.000670,0.113368,-0.000088,1,0,0,0,0,0,0,-0.147346,-0.078973,0.005977,1,0,0,0,0,0,0,0.096529,-0.061205,-0.003151,1,0,0,0,0,0,0
2.860000,-0.000626,0.109512,-0.000083,1,0,0,0,0,0,0,-0.144019,-0.078627,0.005920,1,0,0,0,0,0,0,0.093420,-0.058906,-0.002918,1,0,0,0,0,0,0
2.870000,-0.000842,0.106299,-0.000078,1,0,0,0,0,0,0,-0.140090,-0.077869,0.005800,1,0,0,0,0,0,0,0.090517,-0.057000,-0.002730,1,0,0,0,0,0,0
2.880000,-0.001334,0.103535,-0.000073,1,0,0,0,0,0,0,-0.135692,-0.076626,0.005610,1,0,0,0,0,0,0,0.087732,-0.055468,-0.002583,1,0,0,0,0,0,0
2.890000,-0.002103,0.101099,-0.000068,1,0,0,0,0,0,0,-0.130998,-0.074941,0.005361,1,0,0,0,0,0,0,0.084985,-0.054246,-0.002468,1,0,0,0,0,0,0
2.900000,-0.003132,0.098883,-0.000064,1,0,0,0,0,0,0,-0.126212,-0.072939,0.005077,1,0,0,0,0,0,0,0.082228,-0.053265,-0.002376,1,0,0,0,0,0,0
2.910000,-0.004381,0.096745,-0.000060,1,0,0,0,0,0,0,-0.121560,-0.070777,0.004780,1,0,0,0,0,0,0,0.079396,-0.052434,-0.002298,1,0,0,0,0,0,0
2.920000,-0.005799,0.094559,-0.000056,1,0,0,0,0,0,0,-0.117134,-0.068574,0.004487,1,0,0,0,0,0,0,0.076422,-0.051669,-0.002225,1,0,0,0,0,0,0
2.930000,-0.007324,0.092211,-0.000052,1,0,0,0,0,0,0,-0.112906,-0.066357,0.004202,1,0,0,0,0,0,0,0.073292,-0.050956,-0.002158,1,0,0,0,0,0,0
2.940000,-0.008895,0.089651,-0.000046,1,0,0,0,0,0,0,-0.108725,-0.064098,0.003922,1,0,0,0,0,0,0,0.070020,-0.050296,-0.002094,1,0,0,0,0,0,0
2.950000,-0.010469,0.086897,-0.000039,1,0,0,0,0,0,0,-0.104472,-0.061801,0.003649,1,0,0,0,0,0,0,0.066636,-0.049682,-0.002033,1,0,0,0,0,0,0
2.960000,-0.012018,0.084014,-0.000029,1,0,0,0,0,0,0,-0.100084,-0.059541,0.003391,1,0,0,0,0,0,0,0.063187,-0.049100,-0.001974,1,0,0,0,0,0,0
2.970000,-0.013516,0.081077,-0.000019,1,0,0,0,0,0,0,-0.095481,-0.057388,0.003154,1,0,0,0,0,0,0,0.059740,-0.048540,-0.001915,1,0,0,0,0,0,0
2.980000,-0.014934,0.078152,-0.000007,1,0,0,0,0,0,0,-0.090727,-0.055391,0.002941,1,0,0,0,0,0,0,0.056376,-0.048006,-0.001858,1,0,0,0,0,0,0
2.990000,-0.016229,0.075285,0.000005,1,0,0,0,0,0,0,-0.085978,-0.053549,0.002752,1,0,0,0,0,0,0,0.053169,-0.047510,-0.001801,1,0,0,0,0,0,0
3.000000,-0.017367,0.072524,0.000016,1,0,0,0,0,0,0,-0.081383,-0.051781,0.002577,1,0,0,0,0,0,0,0.050173,-0.047059,-0.001747,1,0,0,0,0,0,0
3.010000,-0.018333,0.069911,0.000025,1,0,0,0,0,0,0,-0.077056,-0.049986,0.002406,1,0,0,0,0,0,0,0.047408,-0.046629,-0.001693,1,0,0,0,0,0,0
3.020000,-0.019136,0.067457,0.000032,1,0,0,0,0,0,0,-0.073061,-0.048099,0.002236,1,0,0,0,0,0,0,0.044867,-0.046156,-0.001637,1,0,0,0,0,0,0
3.030000,-0.019785,0.065150,0.000036,1,0,0,0,0,0,0,-0.069334,-0.046095,0.002064,1,0,0,0,0,0,0,0.042536,-0.045552,-0.001575,1,0,0,0,0,0,0
3.040000,-0.020259,0.062940,0.000040,1,0,0,0,0,0,0,-0.065822,-0.044026,0.001896,1,0,0,0,0,0,0,0.040452,-0.044746,-0.001505,1,0,0,0,0,0,0
3.050000,-0.020495,0.060772,0.000044,1,0,0,0,0,0,0,-0.062462,-0.041959,0.001735,1,0,0,0,0,0,0,0.038705,-0.043710,-0.001428,1,0,0,0,0,0,0
3.060000,-0.020395,0.058651,0.000047,1,0,0,0,0,0,0,-0.059283,-0.039953,0.001587,1,0,0,0,0,0,0,0.037379,-0.042465,-0.001346,1,0,0,0,0,0,0
3.070000,-0.019887,0.056636,0.000049,1,0,0,0,0,0,0,-0.056330,-0.038033,0.001450,1,0,0,0,0,0,0,0.036573,-0.041087,-0.001261,1,0,0,0,0,0,0
3.080000,-0.018960,0.054854,0.000046,1,0,0,0,0,0,0,-0.053669,-0.036196,0.001325,1,0,0,0,0,0,0,0.036366,-0.039686,-0.001178,1,0,0,0,0,0,0
3.090000,-0.017690,0.053465,0.000036,1,0,0,0,0,0,0,-0.051382,-0.034452,0.001212,1,0,0,0,0,0,0,0.036834,-0.038380,-0.001101,1,0,0,0,0,0,0
3.100000,-0.016216,0.052620,0.000019,1,0,0,0,0,0,0,-0.049494,-0.032816,0.001108,1,0,0,0,0,0,0,0.037944,-0.037262,-0.001034,1,0,0,0,0,0,0
3.110000,-0.014677,0.052503,-0.000008,1,0,0,0,0,0,0,-0.047981,-0.031321,0.001017,1,0,0,0,0,0,0,0.039578,-0.036369,-0.000978,1,0,0,0,0,0,0
3.120000,-0.013220,0.053140,-0.000041,1,0,0,0,0,0,0,-0.046822,-0.030009,0.000937,1,0,0,0,0,0,0,0.041628,-0.035708,-0.000934,1,0,0,0,0,0,0
3.130000,-0.011930,0.054421,-0.000078,1,0,0,0,0,0,0,-0.046005,-0.028918,0.000872,1,0,0,0,0,0,0,0.043995,-0.035277,-0.000902,1,0,0,0,0,0,0
3.140000,-0.010826,0.056232,-0.000116,1,0,0,0,0,0,0,-0.045519,-0.028070,0.000819,1,0,0,0,0,0,0,0.046562,-0.035056,-0.000882,1,0,0,0,0,0,0
3.150000,-0.009893,0.058492,-0.000152,1,0,0,0,0,0,0,-0.045343,-0.027471,0.000780,1,0,0,0,0,0,0,0.049265,-0.035046,-0.000876,1,0,0,0,0,0,0
3.160000,-0.009096,0.061108,-0.000187,1,0,0,0,0,0,0,-0.045457,-0.027135,0.000755,1,0,0,0,0,0,0,0.052156,-0.035313,-0.000887,1,0,0,0,0,0,0
3.170000,-0.008411,0.064013,-0.000220,1,0,0,0,0,0,0,-0.045904,-0.027128,0.000746,1,0,0,0,0,0,0,0.055351,-0.035978,-0.000923,1,0,0,0,0,0,0
3.180000,-0.007855,0.067247,-0.000251,1,0,0,0,0,0,0,-0.046769,-0.027565,0.000758,1,0,0,0,0,0,0,0.058918,-0.037156,-0.000994,1,0,0,0,0,0,0
3.190000,-0.007507,0.070938,-0.000281,1,0,0,0,0,0,0,-0.048040,-0.028490,0.000795,1,0,0,0,0,0,0,0.062743,-0.038849,-0.001102,1,0,0,0,0,0,0
3.200000,-0.007474,0.075150,-0.000313,1,0,0,0,0,0,0,-0.049573,-0.029819,0.000853,1,0,0,0,0,0,0,0.066628,-0.041010,-0.001248,1,0,0,0,0,0,0
3.210000,-0.007835,0.079753,-0.000347,1,0,0,0,0,0,0,-0.051241,-0.031453,0.000928,1,0,0,0,0,0,0,0.070377,-0.043599,-0.001432,1,0,0,0,0,0,0
3.220000,-0.008625,0.084514,-0.000384,1,0,0,0,0,0,0,-0.052955,-0.033316,0.001018,1,0,0,0,0,0,0,0.073808,-0.046540,-0.001651,1,0,0,0,0,0,0
3.230000,-0.009838,0.089203,-0.000426,1,0,0,0,0,0,0,-0.054617,-0.035293,0.001117,1,0,0,0,0,0,0,0.076804,-0.049712,-0.001895,1,0,0,0,0,0,0
3.240000,-0.011384,0.093591,-0.000473,1,0,0,0,0,0,0,-0.056157,-0.037230,0.001215,1,0,0,0,0,0,0,0.079354,-0.053004,-0.002155,1,0,0,0,0,0,0
3.250000,-0.013107,0.097514,-0.000523,1,0,0,0,0,0,0,-0.057614,-0.039028,0.001308,1,0,0,0,0,0,0,0.081518,-0.056350,-0.002423,1,0,0,0,0,0,0
3.260000,-0.014870,0.100934,-0.000577,1,0,0,0,0,0,0,-0.059097,-0.040631,0.001391,1,0,0,0,0,0,0,0.083366,-0.059700,-0.002695,1,0,0,0,0,0,0
3.270000,-0.016603,0.103902,-0.000632,1,0,0,0,0,0,0,-0.060696,-0.042014,0.001463,1,0,0,0,0,0,0,0.084932,-0.062984,-0.002962,1,0,0,0,0,0,0
3.280000,-0.018276,0.106487,-0.000689,1,0,0,0,0,0,0,-0.062465,-0.043190,0.001524,1,0,0,0,0,0,0,0.086220,-0.066141,-0.003219,1,0,0,0,0,0,0
3.290000,-0.019860,0.108734,-0.000748,1,0,0,0,0,0,0,-0.064467,-0.044226,0.001579,1,0,0,0,0,0,0,0.087234,-0.069122,-0.003459,1,0,0,0,0,0,0
3.300000,-0.021314,0.110677,-0.000806,1,0,0,0,0,0,0,-0.066757,-0.045237,0.001636,1,0,0,0,0,0,0,0.088010,-0.071889,-0.003679,1,0,0,0,0,0,0
3.310000,-0.022580,0.112360,-0.000864,1,0,0,0,0,0,0,-0.069340,-0.046337,0.001703,1,0,0,0,0,0,0,0.088643,-0.074429,-0.003876,1,0,0,0,0,0,0
3.320000,-0.023610,0.113851,-0.000922,1,0,0,0,0,0,0,-0.072185,-0.047585,0.001785,1,0,0,0,0,0,0,0.089254,-0.076742,-0.004050,1,0,0,0,0,0,0
3.330000,-0.024397,0.115241,-0.000980,1,0,0,0,0,0,0,-0.075254,-0.048981,0.001883,1,0,0,0,0,0,0,0.089937,-0.078811,-0.004201,1,0,0,0,0,0,0
3.340000,-0.024965,0.116603,-0.001039,1,0,0,0,0,0,0,-0.078458,-0.050488,0.001996,1,0,0,0,0,0,0,0.090713,-0.080582,-0.004324,1,0,0,0,0,0,0
3.350000,-0.025330,0.117933,-0.001098,1,0,0,0,0,0,0,-0.081630,-0.052056,0.002120,1,0,0,0,0,0,0,0.091558,-0.081978,-0.004413,1,0,0,0,0,0,0
3.360000,-0.025471,0.119156,-0.001154,1,0,0,0,0,0,0,-0.084596,-0.053637,0.002251,1,0,0,0,0,0,0,0.092443,-0.082933,-0.004462,1,0,0,0,0,0,0
3.370000,-0.025327,0.120195,-0.001203,1,0,0,0,0,0,0,-0.087265,-0.055184,0.002385,1,0,0,0,0,0,0,0.093384,-0.083442,-0.004471,1,0,0,0,0,0,0
3.380000,-0.024848,0.121023,-0.001244,1,0,0,0,0,0,0,-0.089714,-0.056655,0.002517,1,0,0,0,0,0,0,0.094452,-0.083553,-0.004446,1,0,0,0,0,0,0
3.390000,-0.024039,0.121706,-0.001278,1,0,0,0,0,0,0,-0.092143,-0.058004,0.002641,1,0,0,0,0,0,0,0.095737,-0.083351,-0.004395,1,0,0,0,0,0,0
3.400000,-0.022948,0.122408,-0.001308,1,0,0,0,0,0,0,-0.094812,-0.059188,0.002754,1,0,0,0,0,0,0,0.097290,-0.082930,-0.004328,1,0,0,0,0,0,0
3.410000,-0.021659,0.123295,-0.001337,1,0,0,0,0,0,0,-0.097830,-0.060164,0.002851,1,0,0,0,0,0,0,0.099113,-0.082404,-0.004255,1,0,0,0,0,0,0
3.420000,-0.020268,0.124472,-0.001364,1,0,0,0,0,0,0,-0.101127,-0.060938,0.002933,1,0,0,0,0,0,0,0.101154,-0.081911,-0.004192,1,0,0,0,0,0,0
3.430000,-0.018898,0.125984,-0.001391,1,0,0,0,0,0,0,-0.104608,-0.061589,0.003008,1,0,0,0,0,0,0,0.103318,-0.081584,-0.004152,1,0,0,0,0,0,0
3.440000,-0.017700,0.127808,-0.001416,1,0,0,0,0,0,0,-0.108177,-0.062226,0.003088,1,0,0,0,0,0,0,0.105494,-0.081506,-0.004144,1,0,0,0,0,0,0
3.450000,-0.016821,0.129879,-0.001438,1,0,0,0,0,0,0,-0.111752,-0.062934,0.003181,1,0,0,0,0,0,0,0.107559,-0.081675,-0.004169,1,0,0,0,0,0,0
3.460000,-0.016341,0.132124,-0.001457,1,0,0,0,0,0,0,-0.115293,-0.063743,0.003292,1,0,0,0,0,0,0,0.109414,-0.082027,-0.004218,1,0,0,0,0,0,0
3.470000,-0.016227,0.134418,-0.001474,1,0,0,0,0,0,0,-0.118796,-0.064645,0.003420,1,0,0,0,0,0,0,0.111030,-0.082497,-0.004285,1,0,0,0,0,0,0
3.480000,-0.016347,0.136615,-0.001488,1,0,0,0,0,0,0,-0.122298,-0.065654,0.003566,1,0,0,0,0,0,0,0.112461,-0.083090,-0.004369,1,0,0,0,0,0,0
3.490000,-0.016554,0.138617,-0.001499,1,0,0,0,0,0,0,-0.125832,-0.066814,0.003737,1,0,0,0,0,0,0,0.113810,-0.083902,-0.004479,1,0,0,0,0,0,0
3.500000,-0.016783,0.140437,-0.001508,1,0,0,0,0,0,0,-0.129359,-0.068144,0.003936,1,0,0,0,0,0,0,0.115126,-0.085027,-0.004627,1,0,0,0,0,0,0
3.510000,-0.017098,0.142194,-0.001518,1,0,0,0,0,0,0,-0.132785,-0.069621,0.004159,1,0,0,0,0,0,0,0.116320,-0.086452,-0.004810,1,0,0,0,0,0,0
3.520000,-0.017630,0.143975,-0.001530,1,0,0,0,0,0,0,-0.136006,-0.071213,0.004403,1,0,0,0,0,0,0,0.117222,-0.088065,-0.005015,1,0,0,0,0,0,0
3.530000,-0.018463,0.145710,-0.001545,1,0,0,0,0,0,0,-0.138903,-0.072876,0.004661,1,0,0,0,0,0,0,0.117660,-0.089707,-0.005221,1,0,0,0,0,0,0
3.540000,-0.019557,0.147157,-0.001559,1,0,0,0,0,0,0,-0.141365,-0.074581,0.004928,1,0,0,0,0,0,0,0.117520,-0.091209,-0.005405,1,0,0,0,0,0,0
3.550000,-0.020773,0.148052,-0.001568,1,0,0,0,0,0,0,-0.143325,-0.076315,0.005200,1,0,0,0,0,0,0,0.116788,-0.092425,-0.005550,1,0,0,0,0,0,0
3.560000,-0.021913,0.148212,-0.001567,1,0,0,0,0,0,0,-0.144761,-0.078040,0.005470,1,0,0,0,0,0,0,0.115557,-0.093265,-0.005643,1,0,0,0,0,0,0
3.570000,-0.022794,0.147604,-0.001554,1,0,0,0,0,0,0,-0.145671,-0.079660,0.005721,1,0,0,0,0,0,0,0.113989,-0.093716,-0.005684,1,0,0,0,0,0,0
3.580000,-0.023307,0.146325,-0.001530,1,0,0,0,0,0,0,-0.146055,-0.081024,0.005931,1,0,0,0,0,0,0,0.112265,-0.093810,-0.005678,1,0,0,0,0,0,0
3.590000,-0.023436,0.144541,-0.001496,1,0,0,0,0,0,0,-0.145887,-0.081950,0.006070,1,0,0,0,0,0,0,0.110521,-0.093596,-0.005632,1,0,0,0,0,0,0
3.600000,-0.023229,0.142442,-0.001458,1,0,0,0,0,0,0,-0.145137,-0.082304,0.006121,1,0,0,0,0,0,0,0.108792,-0.093098,-0.005552,1,0,0,0,0,0,0
3.610000,-0.022770,0.140212,-0.001417,1,0,0,0,0,0,0,-0.143829,-0.082071,0.006081,1,0,0,0,0,0,0,0.107048,-0.092305,-0.005438,1,0,0,0,0,0,0
3.620000,-0.022138,0.137945,-0.001377,1,0,0,0,0,0,0,-0.142079,-0.081352,0.005969,1,0,0,0,0,0,0,0.105257,-0.091195,-0.005291,1,0,0,0,0,0,0
3.630000,-0.021359,0.135631,-0.001336,1,0,0,0,0,0,0,-0.140082,-0.080303,0.005809,1,0,0,0,0,0,0,0.103437,-0.089765,-0.005111,1,0,0,0,0,0,0
3.640000,-0.020413,0.133204,-0.001292,1,0,0,0,0,0,0,-0.138069,-0.079078,0.005627,1,0,0,0,0,0,0,0.101684,-0.088048,-0.004906,1,0,0,0,0,0,0
3.650000,-0.019276,0.130624,-0.001246,1,0,0,0,0,0,0,-0.136196,-0.077798,0.005440,1,0,0,0,0,0,0,0.100112,-0.086091,-0.004681,1,0,0,0,0,0,0
3.660000,-0.017963,0.127932,-0.001198,1,0,0,0,0,0,0,-0.134453,-0.076529,0.005258,1,0,0,0,0,0,0,0.098768,-0.083928,-0.004441,1,0,0,0,0,0,0
3.670000,-0.016526,0.125227,-0.001149,1,0,0,0,0,0,0,-0.132722,-0.075313,0.005088,1,0,0,0,0,0,0,0.097612,-0.081578,-0.004189,1,0,0,0,0,0,0
3.680000,-0.015028,0.122578,-0.001102,1,0,0,0,0,0,0,-0.130856,-0.074191,0.004933,1,0,0,0,0,0,0,0.096566,-0.079073,-0.003929,1,0,0,0,0,0,0
3.690000,-0.013519,0.119992,-0.001056,1,0,0,0,0,0,0,-0.128759,-0.073187,0.004796,1,0,0,0,0,0,0,0.095581,-0.076490,-0.003670,1,0,0,0,0,0,0
3.700000,-0.012038,0.117457,-0.001011,1,0,0,0,0,0,0,-0.126421,-0.072270,0.004674,1,0,0,0,0,0,0,0.094661,-0.073952,-0.003424,1,0,0,0,0,0,0
3.710000,-0.010636,0.115003,-0.000966,1,0,0,0,0,0,0,-0.123925,-0.071361,0.004553,1,0,0,0,0,0,0,0.093841,-0.071603,-0.003203,1,0,0,0,0,0,0
3.720000,-0.009390,0.112737,-0.000924,1,0,0,0,0,0,0,-0.121395,-0.070367,0.004423,1,0,0,0,0,0,0,0.093153,-0.069581,-0.003020,1,0,0,0,0,0,0
3.730000,-0.008400,0.110799,-0.000884,1,0,0,0,0,0,0,-0.118929,-0.069213,0.004276,1,0,0,0,0,0,0,0.092592,-0.068005,-0.002884,1,0,0,0,0,0,0
3.740000,-0.007775,0.109300,-0.000848,1,0,0,0,0,0,0,-0.116584,-0.067895,0.004111,1,0,0,0,0,0,0,0.092072,-0.066915,-0.002797,1,0,0,0,0,0,0
3.750000,-0.007594,0.108212,-0.000815,1,0,0,0,0,0,0,-0.114436,-0.066490,0.003938,1,0,0,0,0,0,0,0.091483,-0.066297,-0.002756,1,0,0,0,0,0,0
3.760000,-0.007883,0.107403,-0.000784,1,0,0,0,0,0,0,-0.112613,-0.065117,0.003773,1,0,0,0,0,0,0,0.090750,-0.066092,-0.002753,1,0,0,0,0,0,0
3.770000,-0.008601,0.106722,-0.000756,1,0,0,0,0,0,0,-0.111159,-0.063836,0.003622,1,0,0,0,0,0,0,0.089868,-0.066214,-0.002780,1,0,0,0,0,0,0
3.780000,-0.009633,0.106055,-0.000731,1,0,0,0,0,0,0,-0.110055,-0.062641,0.003484,1,0,0,0,0,0,0,0.088915,-0.066599,-0.002827,1,0,0,0,0,0,0
3.790000,-0.010826,0.105368,-0.000708,1,0,0,0,0,0,0,-0.109261,-0.061515,0.003357,1,0,0,0,0,0,0,0.088002,-0.067204,-0.002891,1,0,0,0,0,0,0
3.800000,-0.012044,0.104698,-0.000690,1,0,0,0,0,0,0,-0.108652,-0.060464,0.003241,1,0,0,0,0,0,0,0.087212,-0.068006,-0.002968,1,0,0,0,0,0,0
3.810000,-0.013209,0.104103,-0.000676,1,0,0,0,0,0,0,-0.108077,-0.059547,0.003143,1,0,0,0,0,0,0,0.086543,-0.068962,-0.003053,1,0,0,0,0,0,0
3.820000,-0.014315,0.103624,-0.000668,1,0,0,0,0,0,0,-0.107410,-0.058847,0.003070,1,0,0,0,0,0,0,0.085924,-0.070006,-0.003142,1,0,0,0,0,0,0
3.830000,-0.015388,0.103262,-0.000665,1,0,0,0,0,0,0,-0.106567,-0.058393,0.003026,1,0,0,0,0,0,0,0.085265,-0.071054,-0.003226,1,0,0,0,0,0,0
3.840000,-0.016441,0.102977,-0.000666,1,0,0,0,0,0,0,-0.105558,-0.058141,0.003005,1,0,0,0,0,0,0,0.084504,-0.071999,-0.003297,1,0,0,0,0,0,0
3.850000,-0.017446,0.102692,-0.000671,1,0,0,0,0,0,0,-0.104419,-0.057985,0.002992,1,0,0,0,0,0,0,0.083613,-0.072707,-0.003344,1,0,0,0,0,0,0
3.860000,-0.018324,0.102298,-0.000676,1,0,0,0,0,0,0,-0.103204,-0.057846,0.002981,1,0,0,0,0,0,0,0.082605,-0.073032,-0.003355,1,0,0,0,0,0,0
3.870000,-0.018972,0.101705,-0.000679,1,0,0,0,0,0,0,-0.101960,-0.057723,0.002970,1,0,0,0,0,0,0,0.081544,-0.072867,-0.003323,1,0,0,0,0,0,0
3.880000,-0.019274,0.100868,-0.000679,1,0,0,0,0,0,0,-0.100627,-0.057618,0.002958,1,0,0,0,0,0,0,0.080546,-0.072187,-0.003247,1,0,0,0,0,0,0
3.890000,-0.019118,0.099794,-0.000675,1,0,0,0,0,0,0,-0.099110,-0.057550,0.002949,1,0,0,0,0,0,0,0.079758,-0.071063,-0.003137,1,0,0,0,0,0,0
3.900000,-0.018446,0.098558,-0.000669,1,0,0,0,0,0,0,-0.097315,-0.057506,0.002940,1,0,0,0,0,0,0,0.079318,-0.069628,-0.003003,1,0,0,0,0,0,0
3.910000,-0.017284,0.097314,-0.000661,1,0,0,0,0,0,0,-0.095159,-0.057409,0.002924,1,0,0,0,0,0,0,0.079247,-0.068015,-0.002859,1,0,0,0,0,0,0
3.920000,-0.015767,0.096263,-0.000656,1,0,0,0,0,0,0,-0.092618,-0.057146,0.002889,1,0,0,0,0,0,0,0.079466,-0.066292,-0.002710,1,0,0,0,0,0,0
3.930000,-0.014090,0.095586,-0.000654,1,0,0,0,0,0,0,-0.089739,-0.056633,0.002829,1,0,0,0,0,0,0,0.079852,-0.064457,-0.002557,1,0,0,0,0,0,0
3.940000,-0.012457,0.095288,-0.000653,1,0,0,0,0,0,0,-0.086635,-0.055851,0.002744,1,0,0,0,0,0,0,0.080303,-0.062487,-0.002397,1,0,0,0,0,0,0
3.950000,-0.010946,0.095228,-0.000652,1,0,0,0,0,0,0,-0.083454,-0.054814,0.002638,1,0,0,0,0,0,0,0.080797,-0.060393,-0.002231,1,0,0,0,0,0,0
3.960000,-0.009511,0.095217,-0.000646,1,0,0,0,0,0,0,-0.080335,-0.053539,0.002513,1,0,0,0,0,0,0,0.081378,-0.058239,-0.002066,1,0,0,0,0,0,0
3.970000,-0.008059,0.095113,-0.000636,1,0,0,0,0,0,0,-0.077363,-0.052027,0.002372,1,0,0,0,0,0,0,0.082107,-0.056125,-0.001908,1,0,0,0,0,0,0
3.980000,-0.006548,0.094907,-0.000621,1,0,0,0,0,0,0,-0.074561,-0.050285,0.002218,1,0,0,0,0,0,0,0.083006,-0.054143,-0.001764,1,0,0,0,0,0,0
3.990000,-0.005027,0.094692,-0.000603,1,0,0,0,0,0,0,-0.071935,-0.048370,0.002057,1,0,0,0,0,0,0,0.084066,-0.052371,-0.001642,1,0,0,0,0,0,0
4.000000,-0.003611,0.094620,-0.000583,1,0,0,0,0,0,0,-0.069551,-0.046413,0.001898,1,0,0,0,0,0,0,0.085237,-0.050866,-0.001545,1,0,0,0,0,0,0
4.010000,-0.002415,0.094876,-0.000560,1,0,0,0,0,0,0,-0.067538,-0.044634,0.001758,1,0,0,0,0,0,0,0.086511,-0.049718,-0.001482,1,0,0,0,0,0,0
4.020000,-0.001497,0.095679,-0.000536,1,0,0,0,0,0,0,-0.066146,-0.043304,0.001653,1,0,0,0,0,0,0,0.088027,-0.049094,-0.001466,1,0,0,0,0,0,0
4.030000,-0.000866,0.097041,-0.000511,1,0,0,0,0,0,0,-0.065448,-0.042522,0.001587,1,0,0,0,0,0,0,0.089796,-0.049079,-0.001505,1,0,0,0,0,0,0
4.040000,-0.000516,0.098901,-0.000485,1,0,0,0,0,0,0,-0.065359,-0.042238,0.001556,1,0,0,0,0,0,0,0.091800,-0.049709,-0.001604,1,0,0,0,0,0,0
4.050000,-0.000459,0.101212,-0.000458,1,0,0,0,0,0,0,-0.065690,-0.042320,0.001550,1,0,0,0,0,0,0,0.094020,-0.050978,-0.001764,1,0,0,0,0,0,0
4.060000,-0.000721,0.103942,-0.000433,1,0,0,0,0,0,0,-0.066272,-0.042654,0.001562,1,0,0,0,0,0,0,0.096422,-0.052832,-0.001980,1,0,0,0,0,0,0
4.070000,-0.001309,0.107037,-0.000412,1,0,0,0,0,0,0,-0.067014,-0.043184,0.001588,1,0,0,0,0,0,0,0.098933,-0.055156,-0.002244,1,0,0,0,0,0,0
4.080000,-0.002187,0.110393,-0.000395,1,0,0,0,0,0,0,-0.067869,-0.043864,0.001625,1,0,0,0,0,0,0,0.101468,-0.057807,-0.002542,1,0,0,0,0,0,0
4.090000,-0.003278,0.113883,-0.000387,1,0,0,0,0,0,0,-0.068836,-0.044633,0.001669,1,0,0,0,0,0,0,0.103968,-0.060656,-0.002862,1,0,0,0,0,0,0
4.100000,-0.004473,0.117371,-0.000386,1,0,0,0,0,0,0,-0.069955,-0.045433,0.001717,1,0,0,0,0,0,0,0.106423,-0.063596,-0.003194,1,0,0,0,0,0,0
4.110000,-0.005657,0.120734,-0.000393,1,0,0,0,0,0,0,-0.071274,-0.046211,0.001764,1,0,0,0,0,0,0,0.108852,-0.066536,-0.003527,1,0,0,0,0,0,0
4.120000,-0.006732,0.123916,-0.000407,1,0,0,0,0,0,0,-0.072809,-0.046934,0.001809,1,0,0,0,0,0,0,0.111283,-0.069406,-0.003853,1,0,0,0,0,0,0
4.130000,-0.007624,0.126891,-0.000427,1,0,0,0,0,0,0,-0.074541,-0.047605,0.001852,1,0,0,0,0,0,0,0.113731,-0.072156,-0.004168,1,0,0,0,0,0,0
4.140000,-0.008299,0.129646,-0.000451,1,0,0,0,0,0,0,-0.076438,-0.048257,0.001896,1,0,0,0,0,0,0,0.116159,-0.074733,-0.004465,1,0,0,0,0,0,0
4.150000,-0.008756,0.132198,-0.000477,1,0,0,0,0,0,0,-0.078430,-0.048927,0.001944,1,0,0,0,0,0,0,0.118486,-0.077077,-0.004737,1,0,0,0,0,0,0
4.160000,-0.009013,0.134565,-0.000503,1,0,0,0,0,0,0,-0.080416,-0.049622,0.001997,1,0,0,0,0,0,0,0.120613,-0.079123,-0.004976,1,0,0,0,0,0,0
4.170000,-0.009105,0.136714,-0.000529,1,0,0,0,0,0,0,-0.082273,-0.050308,0.002053,1,0,0,0,0,0,0,0.122456,-0.080808,-0.005171,1,0,0,0,0,0,0
4.180000,-0.009057,0.138586,-0.000552,1,0,0,0,0,0,0,-0.083911,-0.050939,0.002106,1,0,0,0,0,0,0,0.123969,-0.082068,-0.005316,1,0,0,0,0,0,0
4.190000,-0.008871,0.140116,-0.000570,1,0,0,0,0,0,0,-0.085319,-0.051506,0.002155,1,0,0,0,0,0,0,0.125151,-0.082855,-0.005402,1,0,0,0,0,0,0
4.200000,-0.008528,0.141221,-0.000584,1,0,0,0,0,0,0,-0.086501,-0.052012,0.002201,1,0,0,0,0,0,0,0.126026,-0.083154,-0.005427,1,0,0,0,0,0,0
4.210000,-0.008002,0.141843,-0.000591,1,0,0,0,0,0,0,-0.087430,-0.052448,0.002242,1,0,0,0,0,0,0,0.126645,-0.082982,-0.005394,1,0,0,0,0,0,0
4.220000,-0.007256,0.141968,-0.000592,1,0,0,0,0,0,0,-0.088077,-0.052802,0.002276,1,0,0,0,0,0,0,0.127076,-0.082377,-0.005308,1,0,0,0,0,0,0
4.230000,-0.006275,0.141626,-0.000586,1,0,0,0,0,0,0,-0.088428,-0.053075,0.002303,1,0,0,0,0,0,0,0.127375,-0.081397,-0.005177,1,0,0,0,0,0,0
4.240000,-0.005074,0.140882,-0.000575,1,0,0,0,0,0,0,-0.088468,-0.053264,0.002323,1,0,0,0,0,0,0,0.127549,-0.080118,-0.005011,1,0,0,0,0,0,0
4.250000,-0.003682,0.139829,-0.000560,1,0,0,0,0,0,0,-0.088197,-0.053374,0.002335,1,0,0,0,0,0,0,0.127575,-0.078612,-0.004821,1,0,0,0,0,0,0
4.260000,-0.002157,0.138566,-0.000540,1,0,0,0,0,0,0,-0.087622,-0.053411,0.002340,1,0,0,0,0,0,0,0.127404,-0.076937,-0.004615,1,0,0,0,0,0,0
4.270000,-0.000589,0.137163,-0.000517,1,0,0,0,0,0,0,-0.086760,-0.053374,0.002337,1,0,0,0,0,0,0,0.126978,-0.075138,-0.004399,1,0,0,0,0,0,0
4.280000,0.000928,0.135652,-0.000492,1,0,0,0,0,0,0,-0.085630,-0.053256,0.002326,1,0,0,0,0,0,0,0.126247,-0.073249,-0.004178,1,0,0,0,0,0,0
4.290000,0.002314,0.134021,-0.000463,1,0,0,0,0,0,0,-0.084251,-0.053040,0.002306,1,0,0,0,0,0,0,0.125178,-0.071287,-0.003954,1,0,0,0,0,0,0
4.300000,0.003516,0.132237,-0.000434,1,0,0,0,0,0,0,-0.082645,-0.052714,0.002275,1,0,0,0,0,0,0,0.123768,-0.069267,-0.003729,1,0,0,0,0,0,0
4.310000,0.004506,0.130271,-0.000403,1,0,0,0,0,0,0,-0.080845,-0.052293,0.002236,1,0,0,0,0,0,0,0.122030,-0.067203,-0.003506,1,0,0,0,0,0,0
4.320000,0.005279,0.128084,-0.000374,1,0,0,0,0,0,0,-0.078875,-0.051772,0.002188,1,0,0,0,0,0,0,0.119997,-0.065117,-0.003286,1,0,0,0,0,0,0
