time,drone0_roll,drone0_pitch,drone0_yaw,drone0_des_qw,drone0_des_qx,drone0_des_qy,drone0_des_qz,drone0_err_x,drone0_err_y,drone0_err_z,drone1_roll,drone1_pitch,drone1_yaw,drone1_des_qw,drone1_des_qx,drone1_des_qy,drone1_des_qz,drone1_err_x,drone1_err_y,drone1_err_z,drone2_roll,drone2_pitch,drone2_yaw,drone2_des_qw,drone2_des_qx,drone2_des_qy,drone2_des_qz,drone2_err_x,drone2_err_y,drone2_err_z
0.000000,0.000000,0.000000,0.000000,1,0,0,0,0,0,0,0.000000,0.000000,0.000000,1,0,0,0,0,0,0,0.000000,0.000000,0.000000,1,0,0,0,0,0,0
0.010000,0.000001,-0.000000,0.000000,1,0,0,0,0,0,0,0.000001,-0.000001,-0.000000,1,0,0,0,0,0,0,0.000001,-0.000001,-0.000000,1,0,0,0,0,0,0
0.020000,0.000003,0.000084,0.000000,1,0,0,0,0,0,0,0.000003,-0.000006,-0.000000,1,0,0,0,0,0,0,0.000003,-0.000006,-0.000000,1,0,0,0,0,0,0
0.030000,0.000008,0.000297,0.000000,1,0,0,0,0,0,0,0.000008,-0.000016,-0.000000,1,0,0,0,0,0,0,0.000008,-0.000016,-0.000000,1,0,0,0,0,0,0
0.040000,0.000015,0.000653,0.000000,1,0,0,0,0,0,0,0.000015,-0.000030,-0.000000,1,0,0,0,0,0,0,0.000015,-0.000030,-0.000000,1,0,0,0,0,0,0
0.050000,0.000025,0.001163,0.000000,1,0,0,0,0,0,0,0.000025,-0.000049,-0.000000,1,0,0,0,0,0,0,0.000135,-0.000110,-0.000000,1,0,0,0,0,0,0
0.060000,0.000037,0.001835,0.000000,1,0,0,0,0,0,0,0.000037,-0.000073,-0.000000,1,0,0,0,0,0,0,0.000297,-0.000221,-0.000000,1,0,0,0,0,0,0
0.070000,0.000050,0.002654,0.000000,1,0,0,0,0,0,0,-0.000132,-0.000202,0.000000,1,0,0,0,0,0,0,0.000555,-0.000386,-0.000000,1,0,0,0,0,0,0
0.080000,0.000066,0.003601,0.000000,1,0,0,0,0,0,0,-0.000297,-0.000338,0.000000,1,0,0,0,0,0,0,0.000896,-0.000605,-0.000000,1,0,0,0,0,0,0
0.090000,0.000083,0.004655,0.000000,1,0,0,0,0,0,0,-0.000434,-0.000464,0.000000,1,0,0,0,0,0,0,0.001370,-0.000901,-0.000001,1,0,0,0,0,0,0
0.100000,0.000102,0.005800,0.000000,1,0,0,0,0,0,0,-0.000807,-0.000724,0.000000,1,0,0,0,0,0,0,0.001917,-0.001243,-0.000001,1,0,0,0,0,0,0
0.110000,0.000122,0.007021,0.000000,1,0,0,0,0,0,0,-0.001140,-0.000970,0.000000,1,0,0,0,0,0,0,0.002585,-0.001656,-0.000002,1,0,0,0,0,0,0
0.120000,0.000144,0.008304,0.000001,1,0,0,0,0,0,0,-0.001600,-0.001290,0.000001,1,0,0,0,0,0,0,0.003368,-0.002138,-0.000003,1,0,0,0,0,0,0
0.130000,0.000167,0.009636,0.000001,1,0,0,0,0,0,0,-0.002102,-0.001640,0.000002,1,0,0,0,0,0,0,0.004262,-0.002686,-0.000006,1,0,0,0,0,0,0
0.140000,0.000190,0.011003,0.000001,1,0,0,0,0,0,0,-0.002707,-0.002049,0.000003,1,0,0,0,0,0,0,0.005281,-0.003306,-0.000009,1,0,0,0,0,0,0
0.150000,0.000215,0.012393,0.000001,1,0,0,0,0,0,0,-0.003378,-0.002500,0.000004,1,0,0,0,0,0,0,0.006432,-0.004005,-0.000013,1,0,0,0,0,0,0
0.160000,0.000240,0.013799,0.000002,1,0,0,0,0,0,0,-0.004166,-0.003019,0.000006,1,0,0,0,0,0,0,0.007720,-0.004783,-0.000018,1,0,0,0,0,0,0
0.170000,0.000266,0.015248,0.000002,1,0,0,0,0,0,0,-0.005037,-0.003588,0.000009,1,0,0,0,0,0,0,0.009109,-0.005622,-0.000025,1,0,0,0,0,0,0
0.180000,0.000292,0.016743,0.000002,1,0,0,0,0,0,0,-0.006033,-0.004230,0.000012,1,0,0,0,0,0,0,0.010556,-0.006495,-0.000034,1,0,0,0,0,0,0
0.190000,0.000319,0.018267,0.000003,1,0,0,0,0,0,0,-0.007129,-0.004931,0.000017,1,0,0,0,0,0,0,0.012039,-0.007391,-0.000044,1,0,0,0,0,0,0
0.200000,0.000345,0.019807,0.000003,1,0,0,0,0,0,0,-0.008342,-0.005700,0.000023,1,0,0,0,0,0,0,0.013551,-0.008303,-0.000055,1,0,0,0,0,0,0
0.210000,0.000372,0.021354,0.000004,1,0,0,0,0,0,0,-0.009671,-0.006536,0.000030,1,0,0,0,0,0,0,0.015079,-0.009225,-0.000069,1,0,0,0,0,0,0
0.220000,0.000398,0.022904,0.000005,1,0,0,0,0,0,0,-0.011085,-0.007422,0.000039,1,0,0,0,0,0,0,0.016598,-0.010143,-0.000083,1,0,0,0,0,0,0
0.230000,0.000425,0.024456,0.000005,1,0,0,0,0,0,0,-0.012533,-0.008328,0.000050,1,0,0,0,0,0,0,0.018073,-0.011035,-0.000099,1,0,0,0,0,0,0
0.240000,0.000451,0.026006,0.000006,1,0,0,0,0,0,0,-0.013998,-0.009243,0.000062,1,0,0,0,0,0,0,0.019480,-0.011887,-0.000115,1,0,0,0,0,0,0
0.250000,0.000476,0.027545,0.000007,1,0,0,0,0,0,0,-0.015478,-0.010167,0.000076,1,0,0,0,0,0,0,0.020833,-0.012708,-0.000131,1,0,0,0,0,0,0
0.260000,0.000501,0.029058,0.000007,1,0,0,0,0,0,0,-0.016951,-0.011085,0.000091,1,0,0,0,0,0,0,0.022138,-0.013499,-0.000148,1,0,0,0,0,0,0
0.270000,0.000526,0.030526,0.000008,1,0,0,0,0,0,0,-0.018360,-0.011965,0.000107,1,0,0,0,0,0,0,0.023400,-0.014264,-0.000166,1,0,0,0,0,0,0
0.280000,0.000549,0.031930,0.000009,1,0,0,0,0,0,0,-0.019658,-0.012780,0.000122,1,0,0,0,0,0,0,0.024620,-0.015004,-0.000183,1,0,0,0,0,0,0
0.290000,0.000572,0.033260,0.000010,1,0,0,0,0,0,0,-0.020870,-0.013542,0.000138,1,0,0,0,0,0,0,0.025797,-0.015717,-0.000202,1,0,0,0,0,0,0
0.300000,0.000594,0.034507,0.000010,1,0,0,0,0,0,0,-0.022003,-0.014256,0.000153,1,0,0,0,0,0,0,0.026921,-0.016398,-0.000220,1,0,0,0,0,0,0
0.310000,0.000614,0.035658,0.000011,1,0,0,0,0,0,0,-0.023062,-0.014923,0.000169,1,0,0,0,0,0,0,0.027975,-0.017037,-0.000237,1,0,0,0,0,0,0
0.320000,0.000634,0.036689,0.000012,1,0,0,0,0,0,0,-0.024053,-0.015547,0.000183,1,0,0,0,0,0,0,0.028937,-0.017622,-0.000254,1,0,0,0,0,0,0
0.330000,0.000652,0.037578,0.000012,1,0,0,0,0,0,0,-0.024983,-0.016133,0.000198,1,0,0,0,0,0,0,0.029794,-0.018145,-0.000269,1,0,0,0,0,0,0
0.340000,0.000669,0.038317,0.000013,1,0,0,0,0,0,0,-0.025849,-0.016678,0.000212,1,0,0,0,0,0,0,0.030536,-0.018601,-0.000283,1,0,0,0,0,0,0
0.350000,0.000685,0.038904,0.000013,1,0,0,0,0,0,0,-0.026638,-0.017176,0.000225,1,0,0,0,0,0,0,0.031159,-0.018985,-0.000295,1,0,0,0,0,0,0
0.360000,0.000700,0.039339,0.000013,1,0,0,0,0,0,0,-0.027334,-0.017618,0.000237,1,0,0,0,0,0,0,0.031655,-0.019294,-0.000305,1,0,0,0,0,0,0
0.370000,0.000713,0.039620,0.000014,1,0,0,0,0,0,0,-0.027926,-0.017997,0.000248,1,0,0,0,0,0,0,0.032011,-0.019521,-0.000312,1,0,0,0,0,0,0
0.380000,0.000726,0.039748,0.000014,1,0,0,0,0,0,0,-0.028408,-0.018308,0.000257,1,0,0,0,0,0,0,0.032220,-0.019661,-0.000316,1,0,0,0,0,0,0
0.390000,0.000736,0.039736,0.000014,1,0,0,0,0,0,0,-0.028774,-0.018550,0.000264,1,0,0,0,0,0,0,0.032280,-0.019714,-0.000318,1,0,0,0,0,0,0
0.400000,0.000746,0.039589,0.000014,1,0,0,0,0,0,0,-0.029020,-0.018719,0.000269,1,0,0,0,0,0,0,0.032195,-0.019680,-0.000317,1,0,0,0,0,0,0
0.410000,0.000755,0.039315,0.000014,1,0,0,0,0,0,0,-0.029142,-0.018813,0.000272,1,0,0,0,0,0,0,0.031971,-0.019563,-0.000313,1,0,0,0,0,0,0
0.420000,0.000762,0.038924,0.000013,1,0,0,0,0,0,0,-0.029131,-0.018828,0.000273,1,0,0,0,0,0,0,0.031612,-0.019366,-0.000307,1,0,0,0,0,0,0
0.430000,0.000769,0.038425,0.000013,1,0,0,0,0,0,0,-0.028986,-0.018761,0.000271,1,0,0,0,0,0,0,0.031125,-0.019093,-0.000298,1,0,0,0,0,0,0
0.440000,0.000774,0.037825,0.000013,1,0,0,0,0,0,0,-0.028709,-0.018615,0.000267,1,0,0,0,0,0,0,0.030517,-0.018748,-0.000288,1,0,0,0,0,0,0
0.450000,0.000778,0.037141,0.000012,1,0,0,0,0,0,0,-0.028302,-0.018391,0.000260,1,0,0,0,0,0,0,0.029794,-0.018335,-0.000275,1,0,0,0,0,0,0
0.460000,0.000782,0.036398,0.000012,1,0,0,0,0,0,0,-0.027771,-0.018092,0.000252,1,0,0,0,0,0,0,0.028965,-0.017859,-0.000261,1,0,0,0,0,0,0
0.470000,0.000784,0.035624,0.000011,1,0,0,0,0,0,0,-0.027117,-0.017718,0.000242,1,0,0,0,0,0,0,0.028037,-0.017324,-0.000246,1,0,0,0,0,0,0
0.480000,0.000786,0.034847,0.000011,1,0,0,0,0,0,0,-0.026340,-0.017270,0.000230,1,0,0,0,0,0,0,0.027019,-0.016736,-0.000229,1,0,0,0,0,0,0
0.490000,0.000786,0.034095,0.000010,1,0,0,0,0,0,0,-0.025444,-0.016751,0.000216,1,0,0,0,0,0,0,0.025919,-0.016098,-0.000212,1,0,0,0,0,0,0
0.500000,0.000786,0.033400,0.000010,1,0,0,0,0,0,0,-0.024436,-0.016165,0.000201,1,0,0,0,0,0,0,0.024748,-0.015418,-0.000195,1,0,0,0,0,0,0
0.510000,0.000785,0.032787,0.000010,1,0,0,0,0,0,0,-0.023321,-0.015514,0.000186,1,0,0,0,0,0,0,0.023515,-0.014702,-0.000177,1,0,0,0,0,0,0
0.520000,0.000784,0.032276,0.000010,1,0,0,0,0,0,0,-0.022109,-0.014805,0.000169,1,0,0,0,0,0,0,0.022230,-0.013954,-0.000160,1,0,0,0,0,0,0
0.530000,0.000781,0.031873,0.000009,1,0,0,0,0,0,0,-0.020808,-0.014042,0.000152,1,0,0,0,0,0,0,0.020903,-0.013182,-0.000143,1,0,0,0,0,0,0
0.540000,0.000777,0.031572,0.000009,1,0,0,0,0,0,0,-0.019427,-0.013232,0.000136,1,0,0,0,0,0,0,0.019548,-0.012393,-0.000127,1,0,0,0,0,0,0
0.550000,0.000773,0.031362,0.000009,1,0,0,0,0,0,0,-0.017976,-0.012380,0.000119,1,0,0,0,0,0,0,0.018179,-0.011597,-0.000111,1,0,0,0,0,0,0
0.560000,0.000766,0.031239,0.000009,1,0,0,0,0,0,0,-0.016467,-0.011492,0.000104,1,0,0,0,0,0,0,0.016816,-0.010804,-0.000097,1,0,0,0,0,0,0
0.570000,0.000758,0.031181,0.000010,1,0,0,0,0,0,0,-0.014909,-0.010576,0.000089,1,0,0,0,0,0,0,0.015478,-0.010028,-0.000084,1,0,0,0,0,0,0
0.580000,0.000749,0.031165,0.000010,1,0,0,0,0,0,0,-0.013313,-0.009636,0.000075,1,0,0,0,0,0,0,0.014190,-0.009285,-0.000073,1,0,0,0,0,0,0
0.590000,0.000737,0.031169,0.000010,1,0,0,0,0,0,0,-0.011688,-0.008679,0.000062,1,0,0,0,0,0,0,0.012984,-0.008593,-0.000063,1,0,0,0,0,0,0
0.600000,0.000722,0.031182,0.000010,1,0,0,0,0,0,0,-0.010045,-0.007711,0.000051,1,0,0,0,0,0,0,0.011896,-0.007975,-0.000055,1,0,0,0,0,0,0
0.610000,0.000705,0.031205,0.000010,1,0,0,0,0,0,0,-0.008396,-0.006739,0.000041,1,0,0,0,0,0,0,0.010968,-0.007458,-0.000048,1,0,0,0,0,0,0
0.620000,0.000684,0.031231,0.000010,1,0,0,0,0,0,0,-0.006753,-0.005772,0.000033,1,0,0,0,0,0,0,0.010242,-0.007070,-0.000044,1,0,0,0,0,0,0
0.630000,0.000659,0.031245,0.000010,1,0,0,0,0,0,0,-0.005130,-0.004816,0.000026,1,0,0,0,0,0,0,0.009748,-0.006829,-0.000041,1,0,0,0,0,0,0
0.640000,0.000631,0.031229,0.000010,1,0,0,0,0,0,0,-0.003542,-0.003883,0.000022,1,0,0,0,0,0,0,0.009492,-0.006742,-0.000040,1,0,0,0,0,0,0
0.650000,0.000597,0.031170,0.000010,1,0,0,0,0,0,0,-0.002008,-0.002984,0.000018,1,0,0,0,0,0,0,0.009462,-0.006801,-0.000040,1,0,0,0,0,0,0
0.660000,0.000559,0.031059,0.000010,1,0,0,0,0,0,0,-0.000553,-0.002134,0.000016,1,0,0,0,0,0,0,0.009656,-0.007006,-0.000041,1,0,0,0,0,0,0
0.670000,0.000517,0.030898,0.000010,1,0,0,0,0,0,0,0.000796,-0.001349,0.000015,1,0,0,0,0,0,0,0.010027,-0.007329,-0.000044,1,0,0,0,0,0,0
0.680000,0.000469,0.030697,0.000010,1,0,0,0,0,0,0,0.002006,-0.000651,0.000015,1,0,0,0,0,0,0,0.010490,-0.007716,-0.000047,1,0,0,0,0,0,0
0.690000,0.000416,0.030472,0.000009,1,0,0,0,0,0,0,0.003041,-0.000062,0.000016,1,0,0,0,0,0,0,0.010961,-0.008111,-0.000051,1,0,0,0,0,0,0
0.700000,0.000357,0.030241,0.000009,1,0,0,0,0,0,0,0.003864,0.000395,0.000016,1,0,0,0,0,0,0,0.011390,-0.008478,-0.000055,1,0,0,0,0,0,0
0.710000,0.000292,0.030023,0.000009,1,0,0,0,0,0,0,0.004448,0.000702,0.000017,1,0,0,0,0,0,0,0.011763,-0.008807,-0.000058,1,0,0,0,0,0,0
0.720000,0.000222,0.029829,0.000009,1,0,0,0,0,0,0,0.004777,0.000850,0.000016,1,0,0,0,0,0,0,0.012085,-0.009101,-0.000061,1,0,0,0,0,0,0
0.730000,0.000149,0.029665,0.000008,1,0,0,0,0,0,0,0.004851,0.000837,0.000015,1,0,0,0,0,0,0,0.012390,-0.009381,-0.000064,1,0,0,0,0,0,0
0.740000,0.000073,0.029529,0.000008,1,0,0,0,0,0,0,0.004665,0.000660,0.000014,1,0,0,0,0,0,0,0.012725,-0.009681,-0.000068,1,0,0,0,0,0,0
0.750000,-0.000003,0.029418,0.000008,1,0,0,0,0,0,0,0.004224,0.000322,0.000012,1,0,0,0,0,0,0,0.013106,-0.010015,-0.000072,1,0,0,0,0,0,0
0.760000,-0.000079,0.029334,0.000007,1,0,0,0,0,0,0,0.003582,-0.000143,0.000009,1,0,0,0,0,0,0,0.013532,-0.010385,-0.000076,1,0,0,0,0,0,0
0.770000,-0.000154,0.029284,0.000007,1,0,0,0,0,0,0,0.002827,-0.000680,0.000007,1,0,0,0,0,0,0,0.013989,-0.010781,-0.000081,1,0,0,0,0,0,0
0.780000,-0.000226,0.029278,0.000006,1,0,0,0,0,0,0,0.002034,-0.001237,0.000005,1,0,0,0,0,0,0,0.014461,-0.011192,-0.000087,1,0,0,0,0,0,0
0.790000,-0.000296,0.029325,0.000006,1,0,0,0,0,0,0,0.001254,-0.001782,0.000003,1,0,0,0,0,0,0,0.014926,-0.011602,-0.000093,1,0,0,0,0,0,0
0.800000,-0.000362,0.029435,0.000005,1,0,0,0,0,0,0,0.000503,-0.002303,0.000003,1,0,0,0,0,0,0,0.015360,-0.011990,-0.000098,1,0,0,0,0,0,0
0.810000,-0.000425,0.029616,0.000004,1,0,0,0,0,0,0,-0.000222,-0.002801,0.000002,1,0,0,0,0,0,0,0.015746,-0.012341,-0.000103,1,0,0,0,0,0,0
0.820000,-0.000485,0.029878,0.000004,1,0,0,0,0,0,0,-0.000946,-0.003292,0.000002,1,0,0,0,0,0,0,0.016080,-0.012649,-0.000108,1,0,0,0,0,0,0
0.830000,-0.000542,0.030245,0.000003,1,0,0,0,0,0,0,-0.001727,-0.003813,0.000003,1,0,0,0,0,0,0,0.016368,-0.012917,-0.000112,1,0,0,0,0,0,0
0.840000,-0.000599,0.030749,0.000002,1,0,0,0,0,0,0,-0.002590,-0.004380,0.000004,1,0,0,0,0,0,0,0.016614,-0.013146,-0.000115,1,0,0,0,0,0,0
0.850000,-0.000657,0.031434,0.000001,1,0,0,0,0,0,0,-0.003536,-0.004997,0.000006,1,0,0,0,0,0,0,0.016825,-0.013339,-0.000118,1,0,0,0,0,0,0
0.860000,-0.000716,0.032331,-0.000001,1,0,0,0,0,0,0,-0.004587,-0.005677,0.000009,1,0,0,0,0,0,0,0.017012,-0.013503,-0.000120,1,0,0,0,0,0,0
0.870000,-0.000779,0.033450,-0.000002,1,0,0,0,0,0,0,-0.005762,-0.006431,0.000013,1,0,0,0,0,0,0,0.017188,-0.013646,-0.000122,1,0,0,0,0,0,0
0.880000,-0.000843,0.034766,-0.000004,1,0,0,0,0,0,0,-0.007047,-0.007249,0.000019,1,0,0,0,0,0,0,0.017371,-0.013780,-0.000124,1,0,0,0,0,0,0
0.890000,-0.000909,0.036239,-0.000006,1,0,0,0,0,0,0,-0.008418,-0.008118,0.000026,1,0,0,0,0,0,0,0.017581,-0.013917,-0.000127,1,0,0,0,0,0,0
0.900000,-0.000975,0.037832,-0.000008,1,0,0,0,0,0,0,-0.009836,-0.009009,0.000034,1,0,0,0,0,0,0,0.017840,-0.014073,-0.000129,1,0,0,0,0,0,0
0.910000,-0.001040,0.039518,-0.000010,1,0,0,0,0,0,0,-0.011248,-0.009888,0.000044,1,0,0,0,0,0,0,0.018169,-0.014263,-0.000132,1,0,0,0,0,0,0
0.920000,-0.001102,0.041266,-0.000013,1,0,0,0,0,0,0,-0.012606,-0.010725,0.000055,1,0,0,0,0,0,0,0.018585,-0.014501,-0.000136,1,0,0,0,0,0,0
0.930000,-0.001160,0.043043,-0.000015,1,0,0,0,0,0,0,-0.013894,-0.011509,0.000066,1,0,0,0,0,0,0,0.019095,-0.014792,-0.000142,1,0,0,0,0,0,0
0.940000,-0.001213,0.044833,-0.000018,1,0,0,0,0,0,0,-0.015110,-0.012238,0.000077,1,0,0,0,0,0,0,0.019693,-0.015136,-0.000148,1,0,0,0,0,0,0
0.950000,-0.001260,0.046646,-0.000021,1,0,0,0,0,0,0,-0.016243,-0.012906,0.000088,1,0,0,0,0,0,0,0.020363,-0.015524,-0.000156,1,0,0,0,0,0,0
0.960000,-0.001303,0.048494,-0.000024,1,0,0,0,0,0,0,-0.017287,-0.013511,0.000099,1,0,0,0,0,0,0,0.021080,-0.015943,-0.000165,1,0,0,0,0,0,0
0.970000,-0.001340,0.050390,-0.000027,1,0,0,0,0,0,0,-0.018242,-0.014054,0.000110,1,0,0,0,0,0,0,0.021816,-0.016377,-0.000174,1,0,0,0,0,0,0
0.980000,-0.001372,0.052343,-0.000030,1,0,0,0,0,0,0,-0.019111,-0.014537,0.000120,1,0,0,0,0,0,0,0.022544,-0.016806,-0.000184,1,0,0,0,0,0,0
0.990000,-0.001398,0.054351,-0.000033,1,0,0,0,0,0,0,-0.019901,-0.014965,0.000129,1,0,0,0,0,0,0,0.023251,-0.017222,-0.000194,1,0,0,0,0,0,0
1.000000,-0.001415,0.056394,-0.000036,1,0,0,0,0,0,0,-0.020629,-0.015347,0.000138,1,0,0,0,0,0,0,0.023942,-0.017630,-0.000204,1,0,0,0,0,0,0
1.010000,-0.001421,0.058442,-0.000039,1,0,0,0,0,0,0,-0.021322,-0.015698,0.000147,1,0,0,0,0,0,0,0.024620,-0.018028,-0.000214,1,0,0,0,0,0,0
1.020000,-0.001415,0.060472,-0.000042,1,0,0,0,0,0,0,-0.022006,-0.016035,0.000155,1,0,0,0,0,0,0,0.025304,-0.018431,-0.000224,1,0,0,0,0,0,0
1.030000,-0.001395,0.062496,-0.000045,1,0,0,0,0,0,0,-0.022698,-0.016370,0.000164,1,0,0,0,0,0,0,0.026066,-0.018883,-0.000237,1,0,0,0,0,0,0
1.040000,-0.001361,0.064509,-0.000048,1,0,0,0,0,0,0,-0.023398,-0.016706,0.000173,1,0,0,0,0,0,0,0.026939,-0.019407,-0.000251,1,0,0,0,0,0,0
1.050000,-0.001312,0.066499,-0.000051,1,0,0,0,0,0,0,-0.024096,-0.017038,0.000182,1,0,0,0,0,0,0,0.027921,-0.020003,-0.000268,1,0,0,0,0,0,0
1.060000,-0.001248,0.068465,-0.000053,1,0,0,0,0,0,0,-0.024775,-0.017358,0.000192,1,0,0,0,0,0,0,0.029002,-0.020663,-0.000287,1,0,0,0,0,0,0
1.070000,-0.001173,0.070428,-0.000055,1,0,0,0,0,0,0,-0.025425,-0.017661,0.000201,1,0,0,0,0,0,0,0.030189,-0.021393,-0.000310,1,0,0,0,0,0,0
1.080000,-0.001089,0.072418,-0.000056,1,0,0,0,0,0,0,-0.026065,-0.017962,0.000210,1,0,0,0,0,0,0,0.031473,-0.022187,-0.000335,1,0,0,0,0,0,0
1.090000,-0.001000,0.074459,-0.000057,1,0,0,0,0,0,0,-0.026701,-0.018265,0.000219,1,0,0,0,0,0,0,0.032828,-0.023028,-0.000363,1,0,0,0,0,0,0
1.100000,-0.000912,0.076565,-0.000058,1,0,0,0,0,0,0,-0.027355,-0.018585,0.000229,1,0,0,0,0,0,0,0.034212,-0.023892,-0.000393,1,0,0,0,0,0,0
1.110000,-0.000830,0.078729,-0.000059,1,0,0,0,0,0,0,-0.028021,-0.018918,0.000240,1,0,0,0,0,0,0,0.035567,-0.024740,-0.000423,1,0,0,0,0,0,0
1.120000,-0.000756,0.080916,-0.000059,1,0,0,0,0,0,0,-0.028664,-0.019242,0.000251,1,0,0,0,0,0,0,0.036859,-0.025551,-0.000453,1,0,0,0,0,0,0
1.130000,-0.000694,0.083091,-0.000059,1,0,0,0,0,0,0,-0.029254,-0.019541,0.000261,1,0,0,0,0,0,0,0.038124,-0.026350,-0.000484,1,0,0,0,0,0,0
1.140000,-0.000646,0.085210,-0.000059,1,0,0,0,0,0,0,-0.029778,-0.019806,0.000270,1,0,0,0,0,0,0,0.039394,-0.027160,-0.000517,1,0,0,0,0,0,0
1.150000,-0.000613,0.087209,-0.000058,1,0,0,0,0,0,0,-0.030232,-0.020035,0.000278,1,0,0,0,0,0,0,0.040662,-0.027981,-0.000551,1,0,0,0,0,0,0
1.160000,-0.000597,0.089028,-0.000058,1,0,0,0,0,0,0,-0.030617,-0.020230,0.000286,1,0,0,0,0,0,0,0.041926,-0.028813,-0.000586,1,0,0,0,0,0,0
1.170000,-0.000600,0.090611,-0.000057,1,0,0,0,0,0,0,-0.030940,-0.020394,0.000292,1,0,0,0,0,0,0,0.043187,-0.029661,-0.000623,1,0,0,0,0,0,0
1.180000,-0.000621,0.091915,-0.000056,1,0,0,0,0,0,0,-0.031197,-0.020525,0.000298,1,0,0,0,0,0,0,0.044449,-0.030531,-0.000662,1,0,0,0,0,0,0
1.190000,-0.000661,0.092909,-0.000055,1,0,0,0,0,0,0,-0.031368,-0.020609,0.000302,1,0,0,0,0,0,0,0.045703,-0.031417,-0.000703,1,0,0,0,0,0,0
1.200000,-0.000720,0.093579,-0.000054,1,0,0,0,0,0,0,-0.031441,-0.020637,0.000304,1,0,0,0,0,0,0,0.046927,-0.032307,-0.000746,1,0,0,0,0,0,0
1.210000,-0.000797,0.093927,-0.000052,1,0,0,0,0,0,0,-0.031428,-0.020617,0.000305,1,0,0,0,0,0,0,0.048102,-0.033186,-0.000788,1,0,0,0,0,0,0
1.220000,-0.000890,0.093969,-0.000051,1,0,0,0,0,0,0,-0.031332,-0.020551,0.000304,1,0,0,0,0,0,0,0.049213,-0.034041,-0.000830,1,0,0,0,0,0,0
1.230000,-0.000997,0.093726,-0.000051,1,0,0,0,0,0,0,-0.031166,-0.020446,0.000302,1,0,0,0,0,0,0,0.050199,-0.034827,-0.000870,1,0,0,0,0,0,0
1.240000,-0.001115,0.093229,-0.000050,1,0,0,0,0,0,0,-0.030947,-0.020316,0.000299,1,0,0,0,0,0,0,0.050997,-0.035489,-0.000904,1,0,0,0,0,0,0
1.250000,-0.001244,0.092512,-0.000049,1,0,0,0,0,0,0,-0.030689,-0.020171,0.000295,1,0,0,0,0,0,0,0.051625,-0.036039,-0.000932,1,0,0,0,0,0,0
1.260000,-0.001387,0.091618,-0.000048,1,0,0,0,0,0,0,-0.030403,-0.020018,0.000291,1,0,0,0,0,0,0,0.052107,-0.036498,-0.000956,1,0,0,0,0,0,0
1.270000,-0.001541,0.090576,-0.000047,1,0,0,0,0,0,0,-0.030097,-0.019861,0.000287,1,0,0,0,0,0,0,0.052440,-0.036863,-0.000975,1,0,0,0,0,0,0
1.280000,-0.001706,0.089408,-0.000046,1,0,0,0,0,0,0,-0.029769,-0.019699,0.000283,1,0,0,0,0,0,0,0.052617,-0.037127,-0.000989,1,0,0,0,0,0,0
1.290000,-0.001879,0.088127,-0.000046,1,0,0,0,0,0,0,-0.029421,-0.019533,0.000279,1,0,0,0,0,0,0,0.052630,-0.037284,-0.000996,1,0,0,0,0,0,0
1.300000,-0.002061,0.086744,-0.000045,1,0,0,0,0,0,0,-0.029056,-0.019362,0.000275,1,0,0,0,0,0,0,0.052476,-0.037327,-0.000998,1,0,0,0,0,0,0
1.310000,-0.002248,0.085257,-0.000044,1,0,0,0,0,0,0,-0.028679,-0.019191,0.000270,1,0,0,0,0,0,0,0.052156,-0.037256,-0.000993,1,0,0,0,0,0,0
1.320000,-0.002438,0.083664,-0.000043,1,0,0,0,0,0,0,-0.028298,-0.019024,0.000266,1,0,0,0,0,0,0,0.051674,-0.037071,-0.000982,1,0,0,0,0,0,0
1.330000,-0.002629,0.081962,-0.000042,1,0,0,0,0,0,0,-0.027915,-0.018861,0.000261,1,0,0,0,0,0,0,0.051036,-0.036775,-0.000966,1,0,0,0,0,0,0
1.340000,-0.002815,0.080145,-0.000041,1,0,0,0,0,0,0,-0.027516,-0.018694,0.000257,1,0,0,0,0,0,0,0.050256,-0.036377,-0.000944,1,0,0,0,0,0,0
1.350000,-0.002995,0.078223,-0.000040,1,0,0,0,0,0,0,-0.027101,-0.018520,0.000252,1,0,0,0,0,0,0,0.049351,-0.035887,-0.000918,1,0,0,0,0,0,0
1.360000,-0.003168,0.076220,-0.000038,1,0,0,0,0,0,0,-0.026690,-0.018353,0.000248,1,0,0,0,0,0,0,0.048342,-0.035318,-0.000888,1,0,0,0,0,0,0
1.370000,-0.003330,0.074158,-0.000036,1,0,0,0,0,0,0,-0.026302,-0.018207,0.000244,1,0,0,0,0,0,0,0.047248,-0.034682,-0.000856,1,0,0,0,0,0,0
1.380000,-0.003480,0.072052,-0.000034,1,0,0,0,0,0,0,-0.025948,-0.018087,0.000240,1,0,0,0,0,0,0,0.046088,-0.033993,-0.000821,1,0,0,0,0,0,0
1.390000,-0.003615,0.069920,-0.000032,1,0,0,0,0,0,0,-0.025629,-0.017997,0.000238,1,0,0,0,0,0,0,0.044882,-0.033261,-0.000786,1,0,0,0,0,0,0
1.400000,-0.003734,0.067778,-0.000029,1,0,0,0,0,0,0,-0.025337,-0.017931,0.000236,1,0,0,0,0,0,0,0.043644,-0.032496,-0.000750,1,0,0,0,0,0,0
1.410000,-0.003835,0.065642,-0.000027,1,0,0,0,0,0,0,-0.025056,-0.017877,0.000234,1,0,0,0,0,0,0,0.042390,-0.031711,-0.000713,1,0,0,0,0,0,0
1.420000,-0.003918,0.063521,-0.000025,1,0,0,0,0,0,0,-0.024774,-0.017827,0.000232,1,0,0,0,0,0,0,0.041138,-0.030914,-0.000678,1,0,0,0,0,0,0
1.430000,-0.003981,0.061414,-0.000022,1,0,0,0,0,0,0,-0.024490,-0.017780,0.000230,1,0,0,0,0,0,0,0.039902,-0.030119,-0.000643,1,0,0,0,0,0,0
1.440000,-0.004025,0.059318,-0.000020,1,0,0,0,0,0,0,-0.024206,-0.017736,0.000228,1,0,0,0,0,0,0,0.038692,-0.029331,-0.000609,1,0,0,0,0,0,0
1.450000,-0.004048,0.057224,-0.000017,1,0,0,0,0,0,0,-0.023917,-0.017692,0.000227,1,0,0,0,0,0,0,0.037509,-0.028552,-0.000577,1,0,0,0,0,0,0
1.460000,-0.004052,0.055106,-0.000015,1,0,0,0,0,0,0,-0.023605,-0.017634,0.000224,1,0,0,0,0,0,0,0.036352,-0.027786,-0.000546,1,0,0,0,0,0,0
1.470000,-0.004035,0.052937,-0.000012,1,0,0,0,0,0,0,-0.023256,-0.017549,0.000221,1,0,0,0,0,0,0,0.035227,-0.027036,-0.000517,1,0,0,0,0,0,0
1.480000,-0.003997,0.050714,-0.000009,1,0,0,0,0,0,0,-0.022875,-0.017442,0.000218,1,0,0,0,0,0,0,0.034139,-0.026309,-0.000489,1,0,0,0,0,0,0
1.490000,-0.003938,0.048443,-0.000005,1,0,0,0,0,0,0,-0.022481,-0.017324,0.000214,1,0,0,0,0,0,0,0.033084,-0.025604,-0.000463,1,0,0,0,0,0,0
1.500000,-0.003858,0.046117,-0.000002,1,0,0,0,0,0,0,-0.022085,-0.017203,0.000210,1,0,0,0,0,0,0,0.032046,-0.024914,-0.000438,1,0,0,0,0,0,0
1.510000,-0.003757,0.043741,0.000002,1,0,0,0,0,0,0,-0.021697,-0.017084,0.000207,1,0,0,0,0,0,0,0.031007,-0.024227,-0.000414,1,0,0,0,0,0,0
1.520000,-0.003634,0.041332,0.000006,1,0,0,0,0,0,0,-0.021321,-0.016971,0.000203,1,0,0,0,0,0,0,0.029956,-0.023534,-0.000391,1,0,0,0,0,0,0
1.530000,-0.003488,0.038911,0.000010,1,0,0,0,0,0,0,-0.020959,-0.016862,0.000199,1,0,0,0,0,0,0,0.028880,-0.022830,-0.000367,1,0,0,0,0,0,0
1.540000,-0.003319,0.036492,0.000013,1,0,0,0,0,0,0,-0.020611,-0.016756,0.000196,1,0,0,0,0,0,0,0.027759,-0.022097,-0.000344,1,0,0,0,0,0,0
1.550000,-0.003127,0.034094,0.000016,1,0,0,0,0,0,0,-0.020270,-0.016647,0.000192,1,0,0,0,0,0,0,0.026570,-0.021315,-0.000321,1,0,0,0,0,0,0
1.560000,-0.002911,0.031734,0.000019,1,0,0,0,0,0,0,-0.019928,-0.016527,0.000188,1,0,0,0,0,0,0,0.025308,-0.020477,-0.000297,1,0,0,0,0,0,0
1.570000,-0.002673,0.029425,0.000022,1,0,0,0,0,0,0,-0.019576,-0.016389,0.000184,1,0,0,0,0,0,0,0.023981,-0.019586,-0.000273,1,0,0,0,0,0,0
1.580000,-0.002415,0.027179,0.000024,1,0,0,0,0,0,0,-0.019209,-0.016228,0.000180,1,0,0,0,0,0,0,0.022599,-0.018650,-0.000248,1,0,0,0,0,0,0
1.590000,-0.002138,0.025008,0.000025,1,0,0,0,0,0,0,-0.018823,-0.016041,0.000175,1,0,0,0,0,0,0,0.021172,-0.017675,-0.000225,1,0,0,0,0,0,0
1.600000,-0.001843,0.022922,0.000026,1,0,0,0,0,0,0,-0.018417,-0.015825,0.000169,1,0,0,0,0,0,0,0.019711,-0.016670,-0.000202,1,0,0,0,0,0,0
1.610000,-0.001531,0.020935,0.000026,1,0,0,0,0,0,0,-0.017985,-0.015577,0.000163,1,0,0,0,0,0,0,0.018228,-0.015640,-0.000180,1,0,0,0,0,0,0
1.620000,-0.001202,0.019058,0.000026,1,0,0,0,0,0,0,-0.017524,-0.015293,0.000157,1,0,0,0,0,0,0,0.016734,-0.014593,-0.000159,1,0,0,0,0,0,0
1.630000,-0.000858,0.017299,0.000026,1,0,0,0,0,0,0,-0.017024,-0.014967,0.000150,1,0,0,0,0,0,0,0.015241,-0.013535,-0.000140,1,0,0,0,0,0,0
1.640000,-0.000499,0.015663,0.000025,1,0,0,0,0,0,0,-0.016478,-0.014593,0.000142,1,0,0,0,0,0,0,0.013760,-0.012471,-0.000122,1,0,0,0,0,0,0
1.650000,-0.000128,0.014148,0.000023,1,0,0,0,0,0,0,-0.015876,-0.014167,0.000134,1,0,0,0,0,0,0,0.012298,-0.011407,-0.000106,1,0,0,0,0,0,0
1.660000,0.000253,0.012756,0.000022,1,0,0,0,0,0,0,-0.015213,-0.013685,0.000125,1,0,0,0,0,0,0,0.010864,-0.010347,-0.000092,1,0,0,0,0,0,0
1.670000,0.000643,0.011490,0.000020,1,0,0,0,0,0,0,-0.014487,-0.013146,0.000116,1,0,0,0,0,0,0,0.009454,-0.009291,-0.000079,1,0,0,0,0,0,0
1.680000,0.001038,0.010356,0.000018,1,0,0,0,0,0,0,-0.013702,-0.012555,0.000106,1,0,0,0,0,0,0,0.008058,-0.008235,-0.000067,1,0,0,0,0,0,0
1.690000,0.001435,0.009359,0.000016,1,0,0,0,0,0,0,-0.012865,-0.011916,0.000097,1,0,0,0,0,0,0,0.006680,-0.007183,-0.000058,1,0,0,0,0,0,0
1.700000,0.001832,0.008502,0.000014,1,0,0,0,0,0,0,-0.011987,-0.011238,0.000087,1,0,0,0,0,0,0,0.005327,-0.006139,-0.000049,1,0,0,0,0,0,0
1.710000,0.002222,0.007787,0.000012,1,0,0,0,0,0,0,-0.011080,-0.010532,0.000078,1,0,0,0,0,0,0,0.004019,-0.005112,-0.000042,1,0,0,0,0,0,0
1.720000,0.002602,0.007220,0.000010,1,0,0,0,0,0,0,-0.010157,-0.009808,0.000069,1,0,0,0,0,0,0,0.002773,-0.004109,-0.000037,1,0,0,0,0,0,0
1.730000,0.002968,0.006803,0.000009,1,0,0,0,0,0,0,-0.009227,-0.009073,0.000060,1,0,0,0,0,0,0,0.001602,-0.003135,-0.000033,1,0,0,0,0,0,0
1.740000,0.003313,0.006530,0.000008,1,0,0,0,0,0,0,-0.008301,-0.008336,0.000053,1,0,0,0,0,0,0,0.000525,-0.002199,-0.000030,1,0,0,0,0,0,0
1.750000,0.003633,0.006387,0.000008,1,0,0,0,0,0,0,-0.007388,-0.007602,0.000046,1,0,0,0,0,0,0,-0.000433,-0.001310,-0.000028,1,0,0,0,0,0,0
1.760000,0.003925,0.006354,0.000008,1,0,0,0,0,0,0,-0.006498,-0.006880,0.000040,1,0,0,0,0,0,0,-0.001251,-0.000481,-0.000027,1,0,0,0,0,0,0
1.770000,0.004184,0.006421,0.000008,1,0,0,0,0,0,0,-0.005640,-0.006175,0.000034,1,0,0,0,0,0,0,-0.001908,0.000277,-0.000027,1,0,0,0,0,0,0
1.780000,0.004408,0.006576,0.000009,1,0,0,0,0,0,0,-0.004815,-0.005491,0.000030,1,0,0,0,0,0,0,-0.002382,0.000949,-0.000026,1,0,0,0,0,0,0
1.790000,0.004597,0.006808,0.000011,1,0,0,0,0,0,0,-0.004023,-0.004827,0.000026,1,0,0,0,0,0,0,-0.002663,0.001525,-0.000026,1,0,0,0,0,0,0
1.800000,0.004747,0.007109,0.000012,1,0,0,0,0,0,0,-0.003262,-0.004186,0.000022,1,0,0,0,0,0,0,-0.002748,0.001996,-0.000026,1,0,0,0,0,0,0
1.810000,0.004856,0.007490,0.000014,1,0,0,0,0,0,0,-0.002531,-0.003566,0.000020,1,0,0,0,0,0,0,-0.002639,0.002359,-0.000026,1,0,0,0,0,0,0
1.820000,0.004922,0.007943,0.000017,1,0,0,0,0,0,0,-0.001829,-0.002969,0.000017,1,0,0,0,0,0,0,-0.002346,0.002611,-0.000025,1,0,0,0,0,0,0
1.830000,0.004945,0.008459,0.000020,1,0,0,0,0,0,0,-0.001156,-0.002393,0.000016,1,0,0,0,0,0,0,-0.001885,0.002757,-0.000024,1,0,0,0,0,0,0
1.840000,0.004924,0.009027,0.000022,1,0,0,0,0,0,0,-0.000509,-0.001840,0.000014,1,0,0,0,0,0,0,-0.001274,0.002799,-0.000023,1,0,0,0,0,0,0
1.850000,0.004859,0.009634,0.000025,1,0,0,0,0,0,0,0.000112,-0.001309,0.000013,1,0,0,0,0,0,0,-0.000526,0.002741,-0.000021,1,0,0,0,0,0,0
1.860000,0.004753,0.010265,0.000028,1,0,0,0,0,0,0,0.000706,-0.000800,0.000013,1,0,0,0,0,0,0,0.000334,0.002591,-0.000020,1,0,0,0,0,0,0
1.870000,0.004609,0.010905,0.000031,1,0,0,0,0,0,0,0.001270,-0.000317,0.000012,1,0,0,0,0,0,0,0.001278,0.002362,-0.000019,1,0,0,0,0,0,0
1.880000,0.004432,0.011533,0.000034,1,0,0,0,0,0,0,0.001799,0.000138,0.000012,1,0,0,0,0,0,0,0.002276,0.002069,-0.000018,1,0,0,0,0,0,0
1.890000,0.004224,0.012141,0.000036,1,0,0,0,0,0,0,0.002285,0.000560,0.000012,1,0,0,0,0,0,0,0.003306,0.001724,-0.000018,1,0,0,0,0,0,0
1.900000,0.003986,0.012736,0.000038,1,0,0,0,0,0,0,0.002723,0.000944,0.000013,1,0,0,0,0,0,0,0.004348,0.001337,-0.000018,1,0,0,0,0,0,0
1.910000,0.003719,0.013316,0.000039,1,0,0,0,0,0,0,0.003105,0.001287,0.000013,1,0,0,0,0,0,0,0.005385,0.000920,-0.000019,1,0,0,0,0,0,0
1.920000,0.003426,0.013881,0.000041,1,0,0,0,0,0,0,0.003430,0.001588,0.000013,1,0,0,0,0,0,0,0.006405,0.000480,-0.000020,1,0,0,0,0,0,0
1.930000,0.003112,0.014434,0.000042,1,0,0,0,0,0,0,0.003691,0.001844,0.000014,1,0,0,0,0,0,0,0.007394,0.000027,-0.000022,1,0,0,0,0,0,0
1.940000,0.002778,0.014980,0.000042,1,0,0,0,0,0,0,0.003884,0.002051,0.000014,1,0,0,0,0,0,0,0.008342,-0.000432,-0.000024,1,0,0,0,0,0,0
1.950000,0.002427,0.015528,0.000042,1,0,0,0,0,0,0,0.004008,0.002210,0.000014,1,0,0,0,0,0,0,0.009245,-0.000894,-0.000027,1,0,0,0,0,0,0
1.960000,0.002061,0.016090,0.000042,1,0,0,0,0,0,0,0.004063,0.002321,0.000014,1,0,0,0,0,0,0,0.010110,-0.001366,-0.000030,1,0,0,0,0,0,0
1.970000,0.001682,0.016681,0.000042,1,0,0,0,0,0,0,0.004052,0.002386,0.000013,1,0,0,0,0,0,0,0.010932,-0.001844,-0.000034,1,0,0,0,0,0,0
1.980000,0.001291,0.017317,0.000041,1,0,0,0,0,0,0,0.003979,0.002409,0.000013,1,0,0,0,0,0,0,0.011701,-0.002321,-0.000038,1,0,0,0,0,0,0
1.990000,0.000891,0.018014,0.000040,1,0,0,0,0,0,0,0.003830,0.002381,0.000012,1,0,0,0,0,0,0,0.012410,-0.002789,-0.000042,1,0,0,0,0,0,0
2.000000,0.000485,0.018782,0.000039,1,0,0,0,0,0,0,0.003590,0.002296,0.000011,1,0,0,0,0,0,0,0.013058,-0.003245,-0.000046,1,0,0,0,0,0,0
2.010000,0.000072,0.019635,0.000037,1,0,0,0,0,0,0,0.003230,0.002138,0.000010,1,0,0,0,0,0,0,0.013636,-0.003686,-0.000051,1,0,0,0,0,0,0
2.020000,-0.000350,0.020582,0.000035,1,0,0,0,0,0,0,0.002690,0.001876,0.000009,1,0,0,0,0,0,0,0.014126,-0.004110,-0.000055,1,0,0,0,0,0,0
2.030000,-0.000773,0.021608,0.000032,1,0,0,0,0,0,0,0.001960,0.001507,0.000008,1,0,0,0,0,0,0,0.014531,-0.004519,-0.000059,1,0,0,0,0,0,0
2.040000,-0.001192,0.022702,0.000029,1,0,0,0,0,0,0,0.001045,0.001035,0.000007,1,0,0,0,0,0,0,0.014869,-0.004918,-0.000064,1,0,0,0,0,0,0
2.050000,-0.001599,0.023855,0.000025,1,0,0,0,0,0,0,-0.000038,0.000474,0.000006,1,0,0,0,0,0,0,0.015158,-0.005314,-0.000068,1,0,0,0,0,0,0
2.060000,-0.001987,0.025054,0.000020,1,0,0,0,0,0,0,-0.001266,-0.000162,0.000006,1,0,0,0,0,0,0,0.015412,-0.005712,-0.000072,1,0,0,0,0,0,0
2.070000,-0.002350,0.026282,0.000015,1,0,0,0,0,0,0,-0.002609,-0.000852,0.000007,1,0,0,0,0,0,0,0.015636,-0.006113,-0.000077,1,0,0,0,0,0,0
2.080000,-0.002683,0.027523,0.000009,1,0,0,0,0,0,0,-0.004040,-0.001581,0.000009,1,0,0,0,0,0,0,0.015836,-0.006519,-0.000082,1,0,0,0,0,0,0
2.090000,-0.002981,0.028761,0.000003,1,0,0,0,0,0,0,-0.005529,-0.002331,0.000012,1,0,0,0,0,0,0,0.016020,-0.006934,-0.000086,1,0,0,0,0,0,0
2.100000,-0.003241,0.029989,-0.000004,1,0,0,0,0,0,0,-0.007046,-0.003086,0.000017,1,0,0,0,0,0,0,0.016198,-0.007363,-0.000092,1,0,0,0,0,0,0
2.110000,-0.003460,0.031214,-0.000011,1,0,0,0,0,0,0,-0.008568,-0.003839,0.000022,1,0,0,0,0,0,0,0.016389,-0.007818,-0.000097,1,0,0,0,0,0,0
2.120000,-0.003638,0.032452,-0.000018,1,0,0,0,0,0,0,-0.010079,-0.004583,0.000029,1,0,0,0,0,0,0,0.016609,-0.008311,-0.000103,1,0,0,0,0,0,0
2.130000,-0.003770,0.033726,-0.000025,1,0,0,0,0,0,0,-0.011563,-0.005316,0.000036,1,0,0,0,0,0,0,0.016873,-0.008851,-0.000110,1,0,0,0,0,0,0
2.140000,-0.003857,0.035063,-0.000032,1,0,0,0,0,0,0,-0.013009,-0.006037,0.000045,1,0,0,0,0,0,0,0.017177,-0.009436,-0.000118,1,0,0,0,0,0,0
2.150000,-0.003896,0.036479,-0.000040,1,0,0,0,0,0,0,-0.014410,-0.006748,0.000054,1,0,0,0,0,0,0,0.017510,-0.010056,-0.000127,1,0,0,0,0,0,0
2.160000,-0.003884,0.037986,-0.000048,1,0,0,0,0,0,0,-0.015764,-0.007450,0.000064,1,0,0,0,0,0,0,0.017859,-0.010702,-0.000136,1,0,0,0,0,0,0
2.170000,-0.003819,0.039603,-0.000056,1,0,0,0,0,0,0,-0.017066,-0.008147,0.000075,1,0,0,0,0,0,0,0.018225,-0.011374,-0.000146,1,0,0,0,0,0,0
2.180000,-0.003696,0.041366,-0.000064,1,0,0,0,0,0,0,-0.018311,-0.008837,0.000087,1,0,0,0,0,0,0,0.018612,-0.012073,-0.000156,1,0,0,0,0,0,0
2.190000,-0.003505,0.043333,-0.000072,1,0,0,0,0,0,0,-0.019488,-0.009516,0.000100,1,0,0,0,0,0,0,0.019051,-0.012824,-0.000168,1,0,0,0,0,0,0
2.200000,-0.003238,0.045580,-0.000080,1,0,0,0,0,0,0,-0.020587,-0.010178,0.000113,1,0,0,0,0,0,0,0.019599,-0.013668,-0.000181,1,0,0,0,0,0,0
2.210000,-0.002880,0.048212,-0.000088,1,0,0,0,0,0,0,-0.021628,-0.010840,0.000126,1,0,0,0,0,0,0,0.020317,-0.014646,-0.000198,1,0,0,0,0,0,0
2.220000,-0.002418,0.051363,-0.000096,1,0,0,0,0,0,0,-0.022635,-0.011525,0.000141,1,0,0,0,0,0,0,0.021257,-0.015788,-0.000219,1,0,0,0,0,0,0
2.230000,-0.001844,0.055183,-0.000102,1,0,0,0,0,0,0,-0.023617,-0.012246,0.000157,1,0,0,0,0,0,0,0.022449,-0.017095,-0.000244,1,0,0,0,0,0,0
2.240000,-0.001167,0.059781,-0.000107,1,0,0,0,0,0,0,-0.024572,-0.013005,0.000174,1,0,0,0,0,0,0,0.023905,-0.018551,-0.000275,1,0,0,0,0,0,0
2.250000,-0.000425,0.065174,-0.000107,1,0,0,0,0,0,0,-0.025496,-0.013798,0.000193,1,0,0,0,0,0,0,0.025658,-0.020144,-0.000311,1,0,0,0,0,0,0
2.260000,0.000326,0.071296,-0.000103,1,0,0,0,0,0,0,-0.026390,-0.014623,0.000214,1,0,0,0,0,0,0,0.027775,-0.021875,-0.000354,1,0,0,0,0,0,0
2.270000,0.001019,0.078040,-0.000092,1,0,0,0,0,0,0,-0.027256,-0.015474,0.000235,1,0,0,0,0,0,0,0.030325,-0.023753,-0.000405,1,0,0,0,0,0,0
2.280000,0.001586,0.085267,-0.000075,1,0,0,0,0,0,0,-0.028095,-0.016339,0.000258,1,0,0,0,0,0,0,0.033390,-0.025821,-0.000468,1,0,0,0,0,0,0
2.290000,0.001970,0.092824,-0.000054,1,0,0,0,0,0,0,-0.028904,-0.017200,0.000281,1,0,0,0,0,0,0,0.037124,-0.028194,-0.000549,1,0,0,0,0,0,0
2.300000,0.002133,0.100604,-0.000029,1,0,0,0,0,0,0,-0.029693,-0.018050,0.000304,1,0,0,0,0,0,0,0.041677,-0.031011,-0.000658,1,0,0,0,0,0,0
2.310000,0.002055,0.108545,-0.000004,1,0,0,0,0,0,0,-0.030496,-0.018900,0.000328,1,0,0,0,0,0,0,0.047022,-0.034307,-0.000803,1,0,0,0,0,0,0
2.320000,0.001749,0.116541,0.000019,1,0,0,0,0,0,0,-0.031374,-0.019780,0.000352,1,0,0,0,0,0,0,0.052980,-0.038000,-0.000987,1,0,0,0,0,0,0
2.330000,0.001262,0.124403,0.000036,1,0,0,0,0,0,0,-0.032409,-0.020733,0.000380,1,0,0,0,0,0,0,0.059396,-0.041979,-0.001211,1,0,0,0,0,0,0
2.340000,0.000654,0.131951,0.000048,1,0,0,0,0,0,0,-0.033692,-0.021814,0.000414,1,0,0,0,0,0,0,0.066154,-0.046133,-0.001473,1,0,0,0,0,0,0
2.350000,-0.000012,0.139121,0.000051,1,0,0,0,0,0,0,-0.035322,-0.023087,0.000455,1,0,0,0,0,0,0,0.073117,-0.050338,-0.001768,1,0,0,0,0,0,0
2.360000,-0.000696,0.146007,0.000047,1,0,0,0,0,0,0,-0.037416,-0.024624,0.000508,1,0,0,0,0,0,0,0.080184,-0.054517,-0.002092,1,0,0,0,0,0,0
2.370000,-0.001385,0.152793,0.000036,1,0,0,0,0,0,0,-0.040121,-0.026513,0.000578,1,0,0,0,0,0,0,0.087400,-0.058717,-0.002449,1,0,0,0,0,0,0
2.380000,-0.002067,0.159526,0.000017,1,0,0,0,0,0,0,-0.043587,-0.028841,0.000673,1,0,0,0,0,0,0,0.094869,-0.063057,-0.002852,1,0,0,0,0,0,0
2.390000,-0.002716,0.166027,-0.000008,1,0,0,0,0,0,0,-0.047914,-0.031657,0.000799,1,0,0,0,0,0,0,0.102504,-0.067573,-0.003306,1,0,0,0,0,0,0
2.400000,-0.003282,0.172025,-0.000038,1,0,0,0,0,0,0,-0.053126,-0.034967,0.000963,1,0,0,0,0,0,0,0.110015,-0.072141,-0.003803,1,0,0,0,0,0,0
2.410000,-0.003714,0.177337,-0.000071,1,0,0,0,0,0,0,-0.059121,-0.038699,0.001170,1,0,0,0,0,0,0,0.117076,-0.076545,-0.004315,1,0,0,0,0,0,0
2.420000,-0.003987,0.181969,-0.000104,1,0,0,0,0,0,0,-0.065707,-0.042731,0.001419,1,0,0,0,0,0,0,0.123431,-0.080527,-0.004806,1,0,0,0,0,0,0
2.430000,-0.004092,0.186047,-0.000136,1,0,0,0,0,0,0,-0.072726,-0.046961,0.001711,1,0,0,0,0,0,0,0.129026,-0.083917,-0.005247,1,0,0,0,0,0,0
2.440000,-0.004024,0.189707,-0.000166,1,0,0,0,0,0,0,-0.079982,-0.051274,0.002039,1,0,0,0,0,0,0,0.134040,-0.086738,-0.005632,1,0,0,0,0,0,0
2.450000,-0.003768,0.193044,-0.000193,1,0,0,0,0,0,0,-0.087135,-0.055485,0.002392,1,0,0,0,0,0,0,0.138739,-0.089135,-0.005973,1,0,0,0,0,0,0
2.460000,-0.003313,0.196120,-0.000216,1,0,0,0,0,0,0,-0.093886,-0.059433,0.002751,1,0,0,0,0,0,0,0.143299,-0.091260,-0.006288,1,0,0,0,0,0,0
2.470000,-0.002653,0.198993,-0.000233,1,0,0,0,0,0,0,-0.100230,-0.063104,0.003110,1,0,0,0,0,0,0,0.147708,-0.093174,-0.006584,1,0,0,0,0,0,0
2.480000,-0.001791,0.201741,-0.000243,1,0,0,0,0,0,0,-0.106412,-0.066597,0.003475,1,0,0,0,0,0,0,0.151843,-0.094851,-0.006856,1,0,0,0,0,0,0
2.490000,-0.000741,0.204477,-0.000246,1,0,0,0,0,0,0,-0.112662,-0.070001,0.003853,1,0,0,0,0,0,0,0.155603,-0.096257,-0.007095,1,0,0,0,0,0,0
2.500000,0.000452,0.207332,-0.000239,1,0,0,0,0,0,0,-0.118940,-0.073286,0.004240,1,0,0,0,0,0,0,0.158960,-0.097392,-0.007299,1,0,0,0,0,0,0
2.510000,0.001705,0.210359,-0.000222,1,0,0,0,0,0,0,-0.125032,-0.076348,0.004623,1,0,0,0,0,0,0,0.161953,-0.098290,-0.007471,1,0,0,0,0,0,0
2.520000,0.002902,0.213464,-0.000194,1,0,0,0,0,0,0,-0.130671,-0.079088,0.004984,1,0,0,0,0,0,0,0.164659,-0.099011,-0.007620,1,0,0,0,0,0,0
2.530000,0.003922,0.216434,-0.000157,1,0,0,0,0,0,0,-0.135663,-0.081469,0.005314,1,0,0,0,0,0,0,0.167169,-0.099634,-0.007757,1,0,0,0,0,0,0
2.540000,0.004652,0.219016,-0.000113,1,0,0,0,0,0,0,-0.140023,-0.083560,0.005617,1,0,0,0,0,0,0,0.169548,-0.100238,-0.007895,1,0,0,0,0,0,0
2.550000,0.005003,0.220989,-0.000068,1,0,0,0,0,0,0,-0.143878,-0.085474,0.005905,1,0,0,0,0,0,0,0.171804,-0.100858,-0.008039,1,0,0,0,0,0,0
2.560000,0.004929,0.222180,-0.000025,1,0,0,0,0,0,0,-0.147243,-0.087252,0.006181,1,0,0,0,0,0,0,0.173928,-0.101488,-0.008188,1,0,0,0,0,0,0
2.570000,0.004445,0.222479,0.000012,1,0,0,0,0,0,0,-0.150025,-0.088871,0.006440,1,0,0,0,0,0,0,0.175952,-0.102131,-0.008342,1,0,0,0,0,0,0
2.580000,0.003612,0.221873,0.000041,1,0,0,0,0,0,0,-0.152168,-0.090317,0.006675,1,0,0,0,0,0,0,0.177915,-0.102823,-0.008507,1,0,0,0,0,0,0
2.590000,0.002504,0.220437,0.000061,1,0,0,0,0,0,0,-0.153758,-0.091607,0.006889,1,0,0,0,0,0,0,0.179816,-0.103628,-0.008694,1,0,0,0,0,0,0
2.600000,0.001190,0.218269,0.000074,1,0,0,0,0,0,0,-0.154983,-0.092764,0.007081,1,0,0,0,0,0,0,0.181564,-0.104575,-0.008908,1,0,0,0,0,0,0
2.610000,-0.000275,0.215424,0.000081,1,0,0,0,0,0,0,-0.155951,-0.093737,0.007243,1,0,0,0,0,0,0,0.182992,-0.105598,-0.009136,1,0,0,0,0,0,0
2.620000,-0.001832,0.211928,0.000083,1,0,0,0,0,0,0,-0.156614,-0.094416,0.007357,1,0,0,0,0,0,0,0.183916,-0.106554,-0.009349,1,0,0,0,0,0,0
2.630000,-0.003432,0.207853,0.000082,1,0,0,0,0,0,0,-0.156897,-0.094724,0.007410,1,0,0,0,0,0,0,0.184187,-0.107278,-0.009517,1,0,0,0,0,0,0
2.640000,-0.005020,0.203322,0.000080,1,0,0,0,0,0,0,-0.156864,-0.094707,0.007411,1,0,0,0,0,0,0,0.183702,-0.107641,-0.009611,1,0,0,0,0,0,0
2.650000,-0.006537,0.198411,0.000078,1,0,0,0,0,0,0,-0.156725,-0.094517,0.007384,1,0,0,0,0,0,0,0.182431,-0.107592,-0.009624,1,0,0,0,0,0,0
2.660000,-0.007912,0.193093,0.000078,1,0,0,0,0,0,0,-0.156769,-0.094348,0.007359,1,0,0,0,0,0,0,0.180438,-0.107166,-0.009562,1,0,0,0,0,0,0
2.670000,-0.009065,0.187283,0.000081,1,0,0,0,0,0,0,-0.157080,-0.094277,0.007351,1,0,0,0,0,0,0,0.177839,-0.106448,-0.009442,1,0,0,0,0,0,0
2.680000,-0.009913,0.180985,0.000089,1,0,0,0,0,0,0,-0.157594,-0.094293,0.007358,1,0,0,0,0,0,0,0.174727,-0.105501,-0.009279,1,0,0,0,0,0,0
2.690000,-0.010393,0.174353,0.000100,1,0,0,0,0,0,0,-0.158229,-0.094371,0.007376,1,0,0,0,0,0,0,0.171074,-0.104273,-0.009064,1,0,0,0,0,0,0
2.700000,-0.010484,0.167644,0.000112,1,0,0,0,0,0,0,-0.158947,-0.094516,0.007405,1,0,0,0,0,0,0,0.166774,-0.102609,-0.008774,1,0,0,0,0,0,0
2.710000,-0.010200,0.161089,0.000121,1,0,0,0,0,0,0,-0.159694,-0.094713,0.007444,1,0,0,0,0,0,0,0.161777,-0.100348,-0.008389,1,0,0,0,0,0,0
2.720000,-0.009574,0.154820,0.000127,1,0,0,0,0,0,0,-0.160341,-0.094893,0.007481,1,0,0,0,0,0,0,0.156210,-0.097460,-0.007910,1,0,0,0,0,0,0
2.730000,-0.008647,0.148853,0.000128,1,0,0,0,0,0,0,-0.160735,-0.094972,0.007503,1,0,0,0,0,0,0,0.150367,-0.094100,-0.007373,1,0,0,0,0,0,0
2.740000,-0.007481,0.143126,0.000126,1,0,0,0,0,0,0,-0.160679,-0.094851,0.007492,1,0,0,0,0,0,0,0.144582,-0.090543,-0.006826,1,0,0,0,0,0,0
2.750000,-0.006149,0.137611,0.000121,1,0,0,0,0,0,0,-0.160027,-0.094474,0.007440,1,0,0,0,0,0,0,0.139067,-0.087060,-0.006310,1,0,0,0,0,0,0
2.760000,-0.004746,0.132365,0.000114,1,0,0,0,0,0,0,-0.158689,-0.093816,0.007342,1,0,0,0,0,0,0,0.133817,-0.083798,-0.005844,1,0,0,0,0,0,0
2.770000,-0.003381,0.127468,0.000105,1,0,0,0,0,0,0,-0.156664,-0.092883,0.007201,1,0,0,0,0,0,0,0.128660,-0.080743,-0.005425,1,0,0,0,0,0,0
2.780000,-0.002159,0.122922,0.000095,1,0,0,0,0,0,0,-0.154021,-0.091706,0.007022,1,0,0,0,0,0,0,0.123432,-0.077816,-0.005038,1,0,0,0,0,0,0
2.790000,-0.001163,0.118615,0.000085,1,0,0,0,0,0,0,-0.150846,-0.090311,0.006811,1,0,0,0,0,0,0,0.118080,-0.074979,-0.004678,1,0,0,0,0,0,0
2.800000,-0.000448,0.114356,0.000077,1,0,0,0,0,0,0,-0.147229,-0.088721,0.006574,1,0,0,0,0,0,0,0.112676,-0.072261,-0.004347,1,0,0,0,0,0,0
2.810000,-0.000054,0.109986,0.000069,1,0,0,0,0,0,0,-0.143281,-0.086991,0.006319,1,0,0,0,0,0,0,0.107361,-0.069736,-0.004051,1,0,0,0,0,0,0
2.820000,-0.000009,0.105430,0.000064,1,0,0,0,0,0,0,-0.139155,-0.085221,0.006063,1,0,0,0,0,0,0,0.102275,-0.067478,-0.003795,1,0,0,0,0,0,0
2.830000,-0.000311,0.100694,0.000060,1,0,0,0,0,0,0,-0.134947,-0.083468,0.005814,1,0,0,0,0,0,0,0.097519,-0.065546,-0.003581,1,0,0,0,0,0,0
2.840000,-0.000945,0.095839,0.000058,1,0,0,0,0,0,0,-0.130658,-0.081732,0.005573,1,0,0,0,0,0,0,0.093117,-0.063952,-0.003406,1,0,0,0,0,0,0
2.850000,-0.001873,0.090938,0.000059,1,0,0,0,0,0,0,-0.126194,-0.079954,0.005330,1,0,0,0,0,0,0,0.089040,-0.062678,-0.003265,1,0,0,0,0,0,0
2.860000,-0.003033,0.086063,0.000063,1,0,0,0,0,0,0,-0.121442,-0.078067,0.005079,1,0,0,0,0,0,0,0.085249,-0.061691,-0.003151,1,0,0,0,0,0,0
2.870000,-0.004365,0.081307,0.000070,1,0,0,0,0,0,0,-0.116349,-0.076042,0.004818,1,0,0,0,0,0,0,0.081706,-0.060942,-0.003059,1,0,0,0,0,0,0
2.880000,-0.005821,0.076791,0.000079,1,0,0,0,0,0,0,-0.110934,-0.073871,0.004548,1,0,0,0,0,0,0,0.078382,-0.060372,-0.002980,1,0,0,0,0,0,0
2.890000,-0.007361,0.072613,0.000090,1,0,0,0,0,0,0,-0.105325,-0.071602,0.004275,1,0,0,0,0,0,0,0.075263,-0.059943,-0.002912,1,0,0,0,0,0,0
2.900000,-0.008948,0.068814,0.000101,1,0,0,0,0,0,0,-0.099706,-0.069310,0.004010,1,0,0,0,0,0,0,0.072337,-0.059632,-0.002851,1,0,0,0,0,0,0
2.910000,-0.010540,0.065378,0.000111,1,0,0,0,0,0,0,-0.094237,-0.067044,0.003757,1,0,0,0,0,0,0,0.069549,-0.059397,-0.002793,1,0,0,0,0,0,0
2.920000,-0.012099,0.062303,0.000120,1,0,0,0,0,0,0,-0.089003,-0.064802,0.003516,1,0,0,0,0,0,0,0.066842,-0.059202,-0.002738,1,0,0,0,0,0,0
2.930000,-0.013579,0.059599,0.000126,1,0,0,0,0,0,0,-0.084003,-0.062541,0.003283,1,0,0,0,0,0,0,0.064179,-0.059015,-0.002681,1,0,0,0,0,0,0
2.940000,-0.014927,0.057269,0.000129,1,0,0,0,0,0,0,-0.079223,-0.060219,0.003054,1,0,0,0,0,0,0,0.061529,-0.058795,-0.002621,1,0,0,0,0,0,0
2.950000,-0.016091,0.055291,0.000127,1,0,0,0,0,0,0,-0.074704,-0.057828,0.002829,1,0,0,0,0,0,0,0.058859,-0.058477,-0.002554,1,0,0,0,0,0,0
2.960000,-0.017023,0.053628,0.000121,1,0,0,0,0,0,0,-0.070524,-0.055374,0.002610,1,0,0,0,0,0,0,0.056155,-0.058005,-0.002477,1,0,0,0,0,0,0
2.970000,-0.017675,0.052289,0.000110,1,0,0,0,0,0,0,-0.066704,-0.052864,0.002398,1,0,0,0,0,0,0,0.053447,-0.057355,-0.002391,1,0,0,0,0,0,0
2.980000,-0.018001,0.051297,0.000093,1,0,0,0,0,0,0,-0.063244,-0.050318,0.002193,1,0,0,0,0,0,0,0.050800,-0.056545,-0.002298,1,0,0,0,0,0,0
2.990000,-0.017975,0.050688,0.000071,1,0,0,0,0,0,0,-0.060208,-0.047790,0.002000,1,0,0,0,0,0,0,0.048297,-0.055619,-0.002200,1,0,0,0,0,0,0
3.000000,-0.017594,0.050519,0.000042,1,0,0,0,0,0,0,-0.057659,-0.045351,0.001821,1,0,0,0,0,0,0,0.046007,-0.054619,-0.002102,1,0,0,0,0,0,0
3.010000,-0.016873,0.050856,0.000006,1,0,0,0,0,0,0,-0.055607,-0.043068,0.001659,1,0,0,0,0,0,0,0.043972,-0.053571,-0.002003,1,0,0,0,0,0,0
3.020000,-0.015847,0.051740,-0.000036,1,0,0,0,0,0,0,-0.054066,-0.041012,0.001516,1,0,0,0,0,0,0,0.042200,-0.052475,-0.001906,1,0,0,0,0,0,0
3.030000,-0.014560,0.053158,-0.000082,1,0,0,0,0,0,0,-0.053039,-0.039242,0.001395,1,0,0,0,0,0,0,0.040680,-0.051307,-0.001809,1,0,0,0,0,0,0
3.040000,-0.013064,0.055064,-0.000129,1,0,0,0,0,0,0,-0.052464,-0.037784,0.001295,1,0,0,0,0,0,0,0.039400,-0.050043,-0.001711,1,0,0,0,0,0,0
3.050000,-0.011419,0.057372,-0.000173,1,0,0,0,0,0,0,-0.052265,-0.036641,0.001215,1,0,0,0,0,0,0,0.038407,-0.048683,-0.001614,1,0,0,0,0,0,0
3.060000,-0.009696,0.059959,-0.000212,1,0,0,0,0,0,0,-0.052396,-0.035819,0.001155,1,0,0,0,0,0,0,0.037771,-0.047271,-0.001518,1,0,0,0,0,0,0
3.070000,-0.007973,0.062723,-0.000244,1,0,0,0,0,0,0,-0.052827,-0.035319,0.001115,1,0,0,0,0,0,0,0.037565,-0.045896,-0.001427,1,0,0,0,0,0,0
3.080000,-0.006323,0.065607,-0.000268,1,0,0,0,0,0,0,-0.053563,-0.035157,0.001094,1,0,0,0,0,0,0,0.037856,-0.044692,-0.001346,1,0,0,0,0,0,0
3.090000,-0.004827,0.068573,-0.000283,1,0,0,0,0,0,0,-0.054579,-0.035327,0.001093,1,0,0,0,0,0,0,0.038716,-0.043830,-0.001281,1,0,0,0,0,0,0
3.100000,-0.003563,0.071623,-0.000291,1,0,0,0,0,0,0,-0.055757,-0.035766,0.001108,1,0,0,0,0,0,0,0.040171,-0.043471,-0.001239,1,0,0,0,0,0,0
3.110000,-0.002600,0.074756,-0.000292,1,0,0,0,0,0,0,-0.056968,-0.036410,0.001137,1,0,0,0,0,0,0,0.042123,-0.043674,-0.001223,1,0,0,0,0,0,0
3.120000,-0.001986,0.077904,-0.000289,1,0,0,0,0,0,0,-0.058106,-0.037217,0.001177,1,0,0,0,0,0,0,0.044432,-0.044407,-0.001235,1,0,0,0,0,0,0
3.130000,-0.001737,0.080927,-0.000283,1,0,0,0,0,0,0,-0.059086,-0.038132,0.001225,1,0,0,0,0,0,0,0.046997,-0.045616,-0.001273,1,0,0,0,0,0,0
3.140000,-0.001843,0.083679,-0.000276,1,0,0,0,0,0,0,-0.059916,-0.039135,0.001279,1,0,0,0,0,0,0,0.049729,-0.047204,-0.001336,1,0,0,0,0,0,0
3.150000,-0.002265,0.086070,-0.000269,1,0,0,0,0,0,0,-0.060676,-0.040251,0.001340,1,0,0,0,0,0,0,0.052551,-0.049030,-0.001419,1,0,0,0,0,0,0
3.160000,-0.002950,0.088128,-0.000263,1,0,0,0,0,0,0,-0.061432,-0.041480,0.001408,1,0,0,0,0,0,0,0.055476,-0.051020,-0.001517,1,0,0,0,0,0,0
3.170000,-0.003858,0.089993,-0.000260,1,0,0,0,0,0,0,-0.062215,-0.042803,0.001483,1,0,0,0,0,0,0,0.058619,-0.053222,-0.001636,1,0,0,0,0,0,0
3.180000,-0.004963,0.091865,-0.000262,1,0,0,0,0,0,0,-0.063070,-0.044231,0.001564,1,0,0,0,0,0,0,0.062102,-0.055731,-0.001782,1,0,0,0,0,0,0
3.190000,-0.006227,0.093893,-0.000270,1,0,0,0,0,0,0,-0.064044,-0.045775,0.001652,1,0,0,0,0,0,0,0.065908,-0.058553,-0.001959,1,0,0,0,0,0,0
3.200000,-0.007592,0.096115,-0.000285,1,0,0,0,0,0,0,-0.065187,-0.047440,0.001750,1,0,0,0,0,0,0,0.069884,-0.061602,-0.002164,1,0,0,0,0,0,0
3.210000,-0.009000,0.098489,-0.000308,1,0,0,0,0,0,0,-0.066560,-0.049241,0.001857,1,0,0,0,0,0,0,0.073877,-0.064783,-0.002392,1,0,0,0,0,0,0
3.220000,-0.010399,0.100949,-0.000338,1,0,0,0,0,0,0,-0.068167,-0.051153,0.001973,1,0,0,0,0,0,0,0.077761,-0.068009,-0.002636,1,0,0,0,0,0,0
3.230000,-0.011752,0.103450,-0.000375,1,0,0,0,0,0,0,-0.069934,-0.053106,0.002095,1,0,0,0,0,0,0,0.081431,-0.071187,-0.002890,1,0,0,0,0,0,0
3.240000,-0.013025,0.105985,-0.000419,1,0,0,0,0,0,0,-0.071765,-0.055032,0.002218,1,0,0,0,0,0,0,0.084845,-0.074255,-0.003147,1,0,0,0,0,0,0
3.250000,-0.014185,0.108555,-0.000469,1,0,0,0,0,0,0,-0.073552,-0.056865,0.002337,1,0,0,0,0,0,0,0.088022,-0.077212,-0.003404,1,0,0,0,0,0,0
3.260000,-0.015173,0.111133,-0.000524,1,0,0,0,0,0,0,-0.075247,-0.058570,0.002450,1,0,0,0,0,0,0,0.090981,-0.080081,-0.003662,1,0,0,0,0,0,0
3.270000,-0.015916,0.113673,-0.000582,1,0,0,0,0,0,0,-0.076928,-0.060176,0.002558,1,0,0,0,0,0,0,0.093686,-0.082837,-0.003917,1,0,0,0,0,0,0
3.280000,-0.016340,0.116126,-0.000641,1,0,0,0,0,0,0,-0.078758,-0.061739,0.002665,1,0,0,0,0,0,0,0.096061,-0.085408,-0.004161,1,0,0,0,0,0,0
3.290000,-0.016408,0.118477,-0.000698,1,0,0,0,0,0,0,-0.080937,-0.063326,0.002778,1,0,0,0,0,0,0,0.098046,-0.087703,-0.004382,1,0,0,0,0,0,0
3.300000,-0.016125,0.120741,-0.000753,1,0,0,0,0,0,0,-0.083582,-0.064961,0.002900,1,0,0,0,0,0,0,0.099644,-0.089654,-0.004572,1,0,0,0,0,0,0
3.310000,-0.015528,0.122952,-0.000803,1,0,0,0,0,0,0,-0.086631,-0.066607,0.003029,1,0,0,0,0,0,0,0.100935,-0.091247,-0.004728,1,0,0,0,0,0,0
3.320000,-0.014675,0.125128,-0.000847,1,0,0,0,0,0,0,-0.089983,-0.068230,0.003163,1,0,0,0,0,0,0,0.102056,-0.092538,-0.004853,1,0,0,0,0,0,0
3.330000,-0.013632,0.127270,-0.000884,1,0,0,0,0,0,0,-0.093552,-0.069827,0.003303,1,0,0,0,0,0,0,0.103145,-0.093615,-0.004958,1,0,0,0,0,0,0
3.340000,-0.012469,0.129347,-0.000913,1,0,0,0,0,0,0,-0.097249,-0.071407,0.003451,1,0,0,0,0,0,0,0.104277,-0.094547,-0.005048,1,0,0,0,0,0,0
3.350000,-0.011261,0.131303,-0.000933,1,0,0,0,0,0,0,-0.101032,-0.073015,0.003611,1,0,0,0,0,0,0,0.105459,-0.095355,-0.005126,1,0,0,0,0,0,0
3.360000,-0.010081,0.133068,-0.000943,1,0,0,0,0,0,0,-0.104894,-0.074714,0.003790,1,0,0,0,0,0,0,0.106680,-0.096025,-0.005192,1,0,0,0,0,0,0
3.370000,-0.009003,0.134573,-0.000944,1,0,0,0,0,0,0,-0.108847,-0.076579,0.003996,1,0,0,0,0,0,0,0.107945,-0.096545,-0.005244,1,0,0,0,0,0,0
3.380000,-0.008097,0.135743,-0.000937,1,0,0,0,0,0,0,-0.112913,-0.078696,0.004242,1,0,0,0,0,0,0,0.109298,-0.096934,-0.005284,1,0,0,0,0,0,0
3.390000,-0.007426,0.136526,-0.000921,1,0,0,0,0,0,0,-0.117040,-0.081083,0.004529,1,0,0,0,0,0,0,0.110800,-0.097254,-0.005320,1,0,0,0,0,0,0
3.400000,-0.007043,0.136922,-0.000901,1,0,0,0,0,0,0,-0.121110,-0.083681,0.004854,1,0,0,0,0,0,0,0.112486,-0.097589,-0.005361,1,0,0,0,0,0,0
3.410000,-0.006985,0.136979,-0.000877,1,0,0,0,0,0,0,-0.125005,-0.086399,0.005204,1,0,0,0,0,0,0,0.114355,-0.098027,-0.005417,1,0,0,0,0,0,0
3.420000,-0.007264,0.136770,-0.000851,1,0,0,0,0,0,0,-0.128614,-0.089119,0.005564,1,0,0,0,0,0,0,0.116368,-0.098641,-0.005499,1,0,0,0,0,0,0
3.430000,-0.007859,0.136344,-0.000826,1,0,0,0,0,0,0,-0.131838,-0.091725,0.005918,1,0,0,0,0,0,0,0.118436,-0.099460,-0.005609,1,0,0,0,0,0,0
3.440000,-0.008725,0.135710,-0.000802,1,0,0,0,0,0,0,-0.134580,-0.094095,0.006246,1,0,0,0,0,0,0,0.120441,-0.100445,-0.005744,1,0,0,0,0,0,0
3.450000,-0.009803,0.134860,-0.000779,1,0,0,0,0,0,0,-0.136789,-0.096146,0.006534,1,0,0,0,0,0,0,0.122260,-0.101487,-0.005890,1,0,0,0,0,0,0
3.460000,-0.011029,0.133830,-0.000759,1,0,0,0,0,0,0,-0.138458,-0.097830,0.006773,1,0,0,0,0,0,0,0.123792,-0.102426,-0.006026,1,0,0,0,0,0,0
3.470000,-0.012342,0.132741,-0.000742,1,0,0,0,0,0,0,-0.139607,-0.099121,0.006957,1,0,0,0,0,0,0,0.124990,-0.103098,-0.006129,1,0,0,0,0,0,0
3.480000,-0.013690,0.131791,-0.000731,1,0,0,0,0,0,0,-0.140256,-0.099999,0.007081,1,0,0,0,0,0,0,0.125898,-0.103429,-0.006191,1,0,0,0,0,0,0
3.490000,-0.015032,0.131163,-0.000729,1,0,0,0,0,0,0,-0.140416,-0.100447,0.007143,1,0,0,0,0,0,0,0.126612,-0.103465,-0.006216,1,0,0,0,0,0,0
3.500000,-0.016324,0.130904,-0.000738,1,0,0,0,0,0,0,-0.140105,-0.100466,0.007142,1,0,0,0,0,0,0,0.127207,-0.103312,-0.006217,1,0,0,0,0,0,0
3.510000,-0.017520,0.130923,-0.000756,1,0,0,0,0,0,0,-0.139397,-0.100098,0.007085,1,0,0,0,0,0,0,0.127689,-0.103068,-0.006207,1,0,0,0,0,0,0
3.520000,-0.018574,0.131053,-0.000779,1,0,0,0,0,0,0,-0.138436,-0.099423,0.006985,1,0,0,0,0,0,0,0.127976,-0.102761,-0.006190,1,0,0,0,0,0,0
3.530000,-0.019435,0.131158,-0.000806,1,0,0,0,0,0,0,-0.137395,-0.098539,0.006857,1,0,0,0,0,0,0,0.127929,-0.102338,-0.006159,1,0,0,0,0,0,0
3.540000,-0.020056,0.131157,-0.000833,1,0,0,0,0,0,0,-0.136378,-0.097505,0.006709,1,0,0,0,0,0,0,0.127420,-0.101712,-0.006102,1,0,0,0,0,0,0
3.550000,-0.020393,0.131025,-0.000859,1,0,0,0,0,0,0,-0.135358,-0.096319,0.006543,1,0,0,0,0,0,0,0.126379,-0.100810,-0.006010,1,0,0,0,0,0,0
3.560000,-0.020406,0.130777,-0.000882,1,0,0,0,0,0,0,-0.134229,-0.094944,0.006354,1,0,0,0,0,0,0,0.124808,-0.099591,-0.005879,1,0,0,0,0,0,0
3.570000,-0.020069,0.130433,-0.000903,1,0,0,0,0,0,0,-0.132876,-0.093355,0.006140,1,0,0,0,0,0,0,0.122781,-0.098069,-0.005710,1,0,0,0,0,0,0
3.580000,-0.019381,0.129988,-0.000919,1,0,0,0,0,0,0,-0.131258,-0.091570,0.005905,1,0,0,0,0,0,0,0.120419,-0.096313,-0.005514,1,0,0,0,0,0,0
3.590000,-0.018362,0.129419,-0.000931,1,0,0,0,0,0,0,-0.129423,-0.089639,0.005657,1,0,0,0,0,0,0,0.117850,-0.094417,-0.005305,1,0,0,0,0,0,0
3.600000,-0.017065,0.128690,-0.000935,1,0,0,0,0,0,0,-0.127488,-0.087632,0.005405,1,0,0,0,0,0,0,0.115163,-0.092458,-0.005092,1,0,0,0,0,0,0
3.610000,-0.015563,0.127780,-0.000933,1,0,0,0,0,0,0,-0.125541,-0.085593,0.005155,1,0,0,0,0,0,0,0.112384,-0.090456,-0.004877,1,0,0,0,0,0,0
3.620000,-0.013940,0.126709,-0.000924,1,0,0,0,0,0,0,-0.123613,-0.083537,0.004909,1,0,0,0,0,0,0,0.109510,-0.088372,-0.004658,1,0,0,0,0,0,0
3.630000,-0.012288,0.125526,-0.000909,1,0,0,0,0,0,0,-0.121718,-0.081484,0.004669,1,0,0,0,0,0,0,0.106574,-0.086170,-0.004430,1,0,0,0,0,0,0
3.640000,-0.010693,0.124247,-0.000889,1,0,0,0,0,0,0,-0.119957,-0.079516,0.004446,1,0,0,0,0,0,0,0.103691,-0.083872,-0.004197,1,0,0,0,0,0,0
3.650000,-0.009225,0.122816,-0.000864,1,0,0,0,0,0,0,-0.118409,-0.077716,0.004249,1,0,0,0,0,0,0,0.101032,-0.081575,-0.003970,1,0,0,0,0,0,0
3.660000,-0.007935,0.121140,-0.000834,1,0,0,0,0,0,0,-0.117133,-0.076147,0.004083,1,0,0,0,0,0,0,0.098769,-0.079423,-0.003763,1,0,0,0,0,0,0
3.670000,-0.006859,0.119163,-0.000801,1,0,0,0,0,0,0,-0.116084,-0.074809,0.003948,1,0,0,0,0,0,0,0.096961,-0.077508,-0.003585,1,0,0,0,0,0,0
3.680000,-0.006028,0.116931,-0.000764,1,0,0,0,0,0,0,-0.115150,-0.073668,0.003839,1,0,0,0,0,0,0,0.095545,-0.075826,-0.003432,1,0,0,0,0,0,0
3.690000,-0.005475,0.114571,-0.000727,1,0,0,0,0,0,0,-0.114197,-0.072683,0.003749,1,0,0,0,0,0,0,0.094433,-0.074323,-0.003300,1,0,0,0,0,0,0
3.700000,-0.005214,0.112215,-0.000690,1,0,0,0,0,0,0,-0.113125,-0.071838,0.003677,1,0,0,0,0,0,0,0.093565,-0.072944,-0.003182,1,0,0,0,0,0,0
3.710000,-0.005223,0.109939,-0.000654,1,0,0,0,0,0,0,-0.111907,-0.071146,0.003622,1,0,0,0,0,0,0,0.092918,-0.071677,-0.003076,1,0,0,0,0,0,0
3.720000,-0.005448,0.107793,-0.000620,1,0,0,0,0,0,0,-0.110575,-0.070620,0.003586,1,0,0,0,0,0,0,0.092516,-0.070563,-0.002987,1,0,0,0,0,0,0
3.730000,-0.005830,0.105851,-0.000588,1,0,0,0,0,0,0,-0.109173,-0.070253,0.003565,1,0,0,0,0,0,0,0.092375,-0.069659,-0.002919,1,0,0,0,0,0,0
3.740000,-0.006315,0.104214,-0.000560,1,0,0,0,0,0,0,-0.107745,-0.070033,0.003559,1,0,0,0,0,0,0,0.092469,-0.068995,-0.002875,1,0,0,0,0,0,0
3.750000,-0.006862,0.102974,-0.000537,1,0,0,0,0,0,0,-0.106299,-0.069920,0.003562,1,0,0,0,0,0,0,0.092721,-0.068550,-0.002852,1,0,0,0,0,0,0
3.760000,-0.007428,0.102160,-0.000518,1,0,0,0,0,0,0,-0.104779,-0.069818,0.003562,1,0,0,0,0,0,0,0.093006,-0.068250,-0.002844,1,0,0,0,0,0,0
3.770000,-0.007970,0.101766,-0.000506,1,0,0,0,0,0,0,-0.103097,-0.069609,0.003548,1,0,0,0,0,0,0,0.093199,-0.067986,-0.002839,1,0,0,0,0,0,0
3.780000,-0.008452,0.101795,-0.000499,1,0,0,0,0,0,0,-0.101193,-0.069200,0.003511,1,0,0,0,0,0,0,0.093212,-0.067644,-0.002827,1,0,0,0,0,0,0
3.790000,-0.008846,0.102259,-0.000497,1,0,0,0,0,0,0,-0.099018,-0.068505,0.003442,1,0,0,0,0,0,0,0.093038,-0.067151,-0.002800,1,0,0,0,0,0,0
3.800000,-0.009143,0.103104,-0.000501,1,0,0,0,0,0,0,-0.096548,-0.067474,0.003340,1,0,0,0,0,0,0,0.092728,-0.066496,-0.002759,1,0,0,0,0,0,0
3.810000,-0.009332,0.104189,-0.000509,1,0,0,0,0,0,0,-0.093833,-0.066114,0.003206,1,0,0,0,0,0,0,0.092355,-0.065734,-0.002708,1,0,0,0,0,0,0
3.820000,-0.009392,0.105342,-0.000518,1,0,0,0,0,0,0,-0.090974,-0.064482,0.003049,1,0,0,0,0,0,0,0.091978,-0.064976,-0.002657,1,0,0,0,0,0,0
3.830000,-0.009287,0.106406,-0.000526,1,0,0,0,0,0,0,-0.088099,-0.062664,0.002879,1,0,0,0,0,0,0,0.091597,-0.064332,-0.002618,1,0,0,0,0,0,0
3.840000,-0.008985,0.107274,-0.000533,1,0,0,0,0,0,0,-0.085312,-0.060740,0.002705,1,0,0,0,0,0,0,0.091138,-0.063855,-0.002594,1,0,0,0,0,0,0
3.850000,-0.008467,0.107949,-0.000536,1,0,0,0,0,0,0,-0.082664,-0.058766,0.002532,1,0,0,0,0,0,0,0.090501,-0.063516,-0.002583,1,0,0,0,0,0,0
3.860000,-0.007730,0.108517,-0.000536,1,0,0,0,0,0,0,-0.080177,-0.056773,0.002362,1,0,0,0,0,0,0,0.089610,-0.063236,-0.002575,1,0,0,0,0,0,0
3.870000,-0.006789,0.109072,-0.000534,1,0,0,0,0,0,0,-0.077871,-0.054786,0.002199,1,0,0,0,0,0,0,0.088429,-0.062915,-0.002563,1,0,0,0,0,0,0
3.880000,-0.005675,0.109652,-0.000530,1,0,0,0,0,0,0,-0.075775,-0.052836,0.002044,1,0,0,0,0,0,0,0.086974,-0.062471,-0.002538,1,0,0,0,0,0,0
3.890000,-0.004436,0.110230,-0.000521,1,0,0,0,0,0,0,-0.073946,-0.050970,0.001901,1,0,0,0,0,0,0,0.085322,-0.061868,-0.002498,1,0,0,0,0,0,0
3.900000,-0.003140,0.110740,-0.000508,1,0,0,0,0,0,0,-0.072440,-0.049233,0.001772,1,0,0,0,0,0,0,0.083605,-0.061136,-0.002446,1,0,0,0,0,0,0
3.910000,-0.001865,0.111134,-0.000491,1,0,0,0,0,0,0,-0.071253,-0.047646,0.001657,1,0,0,0,0,0,0,0.081980,-0.060355,-0.002389,1,0,0,0,0,0,0
3.920000,-0.000693,0.111393,-0.000470,1,0,0,0,0,0,0,-0.070300,-0.046193,0.001556,1,0,0,0,0,0,0,0.080576,-0.059618,-0.002335,1,0,0,0,0,0,0
3.930000,0.000305,0.111556,-0.000445,1,0,0,0,0,0,0,-0.069490,-0.044852,0.001465,1,0,0,0,0,0,0,0.079471,-0.058993,-0.002290,1,0,0,0,0,0,0
3.940000,0.001084,0.111680,-0.000419,1,0,0,0,0,0,0,-0.068797,-0.043634,0.001385,1,0,0,0,0,0,0,0.078671,-0.058486,-0.002253,1,0,0,0,0,0,0
3.950000,0.001626,0.111791,-0.000391,1,0,0,0,0,0,0,-0.068201,-0.042538,0.001316,1,0,0,0,0,0,0,0.078172,-0.058061,-0.002223,1,0,0,0,0,0,0
3.960000,0.001934,0.111869,-0.000362,1,0,0,0,0,0,0,-0.067754,-0.041587,0.001259,1,0,0,0,0,0,0,0.077997,-0.057668,-0.002195,1,0,0,0,0,0,0
3.970000,0.002020,0.111897,-0.000334,1,0,0,0,0,0,0,-0.067524,-0.040801,0.001214,1,0,0,0,0,0,0,0.078183,-0.057273,-0.002168,1,0,0,0,0,0,0
3.980000,0.001907,0.111905,-0.000306,1,0,0,0,0,0,0,-0.067547,-0.040182,0.001181,1,0,0,0,0,0,0,0.078779,-0.056893,-0.002142,1,0,0,0,0,0,0
3.990000,0.001618,0.111999,-0.000280,1,0,0,0,0,0,0,-0.067856,-0.039746,0.001162,1,0,0,0,0,0,0,0.079849,-0.056597,-0.002124,1,0,0,0,0,0,0
4.000000,0.001176,0.112340,-0.000257,1,0,0,0,0,0,0,-0.068484,-0.039522,0.001158,1,0,0,0,0,0,0,0.081410,-0.056453,-0.002120,1,0,0,0,0,0,0
4.010000,0.000625,0.113142,-0.000235,1,0,0,0,0,0,0,-0.069457,-0.039545,0.001171,1,0,0,0,0,0,0,0.083457,-0.056523,-0.002135,1,0,0,0,0,0,0
4.020000,0.000024,0.114703,-0.000217,1,0,0,0,0,0,0,-0.070901,-0.039903,0.001208,1,0,0,0,0,0,0,0.086049,-0.056895,-0.002179,1,0,0,0,0,0,0
4.030000,-0.000571,0.117046,-0.000203,1,0,0,0,0,0,0,-0.072760,-0.040577,0.001269,1,0,0,0,0,0,0,0.089075,-0.057519,-0.002249,1,0,0,0,0,0,0
4.040000,-0.001109,0.120072,-0.000193,1,0,0,0,0,0,0,-0.074906,-0.041504,0.001350,1,0,0,0,0,0,0,0.092405,-0.058321,-0.002339,1,0,0,0,0,0,0
4.050000,-0.001555,0.123667,-0.000189,1,0,0,0,0,0,0,-0.077184,-0.042608,0.001446,1,0,0,0,0,0,0,0.095934,-0.059253,-0.002448,1,0,0,0,0,0,0
4.060000,-0.001892,0.127729,-0.000189,1,0,0,0,0,0,0,-0.079461,-0.043824,0.001554,1,0,0,0,0,0,0,0.099589,-0.060300,-0.002573,1,0,0,0,0,0,0
4.070000,-0.002117,0.132159,-0.000193,1,0,0,0,0,0,0,-0.081687,-0.045139,0.001671,1,0,0,0,0,0,0,0.103323,-0.061467,-0.002717,1,0,0,0,0,0,0
4.080000,-0.002240,0.136843,-0.000199,1,0,0,0,0,0,0,-0.083867,-0.046562,0.001800,1,0,0,0,0,0,0,0.107086,-0.062756,-0.002880,1,0,0,0,0,0,0
4.090000,-0.002263,0.141645,-0.000207,1,0,0,0,0,0,0,-0.086012,-0.048093,0.001941,1,0,0,0,0,0,0,0.110793,-0.064138,-0.003059,1,0,0,0,0,0,0
4.100000,-0.002184,0.146409,-0.000215,1,0,0,0,0,0,0,-0.088133,-0.049713,0.002090,1,0,0,0,0,0,0,0.114325,-0.065544,-0.003248,1,0,0,0,0,0,0
4.110000,-0.001992,0.150978,-0.000221,1,0,0,0,0,0,0,-0.090204,-0.051372,0.002246,1,0,0,0,0,0,0,0.117567,-0.066899,-0.003436,1,0,0,0,0,0,0
4.120000,-0.001679,0.155200,-0.000225,1,0,0,0,0,0,0,-0.092170,-0.053002,0.002400,1,0,0,0,0,0,0,0.120452,-0.068143,-0.003615,1,0,0,0,0,0,0
4.130000,-0.001246,0.158942,-0.000226,1,0,0,0,0,0,0,-0.093978,-0.054542,0.002548,1,0,0,0,0,0,0,0.122955,-0.069253,-0.003781,1,0,0,0,0,0,0
4.140000,-0.000708,0.162128,-0.000222,1,0,0,0,0,0,0,-0.095591,-0.055948,0.002683,1,0,0,0,0,0,0,0.125094,-0.070239,-0.003933,1,0,0,0,0,0,0
4.150000,-0.000094,0.164731,-0.000214,1,0,0,0,0,0,0,-0.096966,-0.057180,0.002803,1,0,0,0,0,0,0,0.126902,-0.071147,-0.004077,1,0,0,0,0,0,0
4.160000,0.000568,0.166753,-0.000203,1,0,0,0,0,0,0,-0.098066,-0.058205,0.002902,1,0,0,0,0,0,0,0.128400,-0.072031,-0.004218,1,0,0,0,0,0,0
4.170000,0.001260,0.168224,-0.000188,1,0,0,0,0,0,0,-0.098879,-0.059011,0.002980,1,0,0,0,0,0,0,0.129586,-0.072935,-0.004362,1,0,0,0,0,0,0
4.180000,0.001967,0.169187,-0.000170,1,0,0,0,0,0,0,-0.099400,-0.059593,0.003035,1,0,0,0,0,0,0,0.130421,-0.073862,-0.004507,1,0,0,0,0,0,0
4.190000,0.002671,0.169682,-0.000150,1,0,0,0,0,0,0,-0.099633,-0.059943,0.003066,1,0,0,0,0,0,0,0.130853,-0.074778,-0.004648,1,0,0,0,0,0,0
4.200000,0.003344,0.169736,-0.000128,1,0,0,0,0,0,0,-0.099574,-0.060059,0.003073,1,0,0,0,0,0,0,0.130838,-0.075627,-0.004777,1,0,0,0,0,0,0
4.210000,0.003954,0.169356,-0.000106,1,0,0,0,0,0,0,-0.099219,-0.059942,0.003057,1,0,0,0,0,0,0,0.130351,-0.076338,-0.004884,1,0,0,0,0,0,0
4.220000,0.004466,0.168537,-0.000084,1,0,0,0,0,0,0,-0.098577,-0.059608,0.003019,1,0,0,0,0,0,0,0.129398,-0.076852,-0.004960,1,0,0,0,0,0,0
4.230000,0.004848,0.167265,-0.000063,1,0,0,0,0,0,0,-0.097669,-0.059079,0.002962,1,0,0,0,0,0,0,0.128019,-0.077126,-0.004999,1,0,0,0,0,0,0
4.240000,0.005080,0.165529,-0.000044,1,0,0,0,0,0,0,-0.096527,-0.058385,0.002890,1,0,0,0,0,0,0,0.126278,-0.077138,-0.005000,1,0,0,0,0,0,0
4.250000,0.005153,0.163346,-0.000027,1,0,0,0,0,0,0,-0.095183,-0.057558,0.002806,1,0,0,0,0,0,0,0.124247,-0.076895,-0.004964,1,0,0,0,0,0,0
4.260000,0.005066,0.160771,-0.000013,1,0,0,0,0,0,0,-0.093682,-0.056632,0.002714,1,0,0,0,0,0,0,0.121990,-0.076416,-0.004896,1,0,0,0,0,0,0
4.270000,0.004843,0.157870,-0.000002,1,0,0,0,0,0,0,-0.092059,-0.055633,0.002617,1,0,0,0,0,0,0,0.119574,-0.075735,-0.004801,1,0,0,0,0,0,0
4.280000,0.004512,0.154699,0.000007,1,0,0,0,0,0,0,-0.090327,-0.054574,0.002517,1,0,0,0,0,0,0,0.117066,-0.074887,-0.004686,1,0,0,0,0,0,0
4.290000,0.004073,0.151343,0.000014,1,0,0,0,0,0,0,-0.088466,-0.053447,0.002412,1,0,0,0,0,0,0,0.114535,-0.073910,-0.004555,1,0,0,0,0,0,0
4.300000,0.003523,0.147887,0.000020,1,0,0,0,0,0,0,-0.086468,-0.052246,0.002304,1,0,0,0,0,0,0,0.112036,-0.072835,-0.004414,1,0,0,0,0,0,0
4.310000,0.002870,0.144385,0.000025,1,0,0,0,0,0,0,-0.084358,-0.050985,0.002193,1,0,0,0,0,0,0,0.109590,-0.071676,-0.004266,1,0,0,0,0,0,0
4.320000,0.002132,0.140882,0.000029,1,0,0,0,0,0,0,-0.082178,-0.049688,0.002082,1,0,0,0,0,0,0,0.107201,-0.070438,-0.004111,1,0,0,0,0,0,0
4.330000,0.001330,0.137422,0.000032,1,0,0,0,0,0,0,-0.079952,-0.048371,0.001972,1,0,0,0,0,0,0,0.104876,-0.069120,-0.003950,1,0,0,0,0,0,0
4.340000,0.000495,0.134061,0.000034,1,0,0,0,0,0,0,-0.077675,-0.047032,0.001864,1,0,0,0,0,0,0,0.102647,-0.067727,-0.003785,1,0,0,0,0,0,0
