time,drone0_roll,drone0_pitch,drone0_yaw,drone0_des_qw,drone0_des_qx,drone0_des_qy,drone0_des_qz,drone0_err_x,drone0_err_y,drone0_err_z,drone1_roll,drone1_pitch,drone1_yaw,drone1_des_qw,drone1_des_qx,drone1_des_qy,drone1_des_qz,drone1_err_x,drone1_err_y,drone1_err_z,drone2_roll,drone2_pitch,drone2_yaw,drone2_des_qw,drone2_des_qx,drone2_des_qy,drone2_des_qz,drone2_err_x,drone2_err_y,drone2_err_z
0.000000,0.000000,0.000000,0.000000,1,0,0,0,0,0,0,0.000000,0.000000,0.000000,1,0,0,0,0,0,0,0.000000,0.000000,0.000000,1,0,0,0,0,0,0
0.010000,0.000001,-0.000001,-0.000000,1,0,0,0,0,0,0,0.000001,-0.000001,-0.000000,1,0,0,0,0,0,0,0.000210,-0.000117,-0.000000,1,0,0,0,0,0,0
0.020000,0.000003,-0.000006,-0.000000,1,0,0,0,0,0,0,0.000003,-0.000006,-0.000000,1,0,0,0,0,0,0,0.000709,-0.000403,-0.000000,1,0,0,0,0,0,0
0.030000,0.000008,-0.000016,-0.000000,1,0,0,0,0,0,0,0.000008,-0.000016,-0.000000,1,0,0,0,0,0,0,0.001431,-0.000822,-0.000001,1,0,0,0,0,0,0
0.040000,0.000015,-0.000030,-0.000000,1,0,0,0,0,0,0,0.000015,-0.000030,-0.000000,1,0,0,0,0,0,0,0.002369,-0.001370,-0.000002,1,0,0,0,0,0,0
0.050000,0.000025,0.000072,0.000000,1,0,0,0,0,0,0,-0.000009,-0.000068,-0.000000,1,0,0,0,0,0,0,0.003524,-0.002047,-0.000004,1,0,0,0,0,0,0
0.060000,0.000037,0.000222,0.000000,1,0,0,0,0,0,0,-0.000188,-0.000199,0.000000,1,0,0,0,0,0,0,0.004901,-0.002855,-0.000007,1,0,0,0,0,0,0
0.070000,0.000050,0.000467,0.000000,1,0,0,0,0,0,0,-0.000323,-0.000313,0.000000,1,0,0,0,0,0,0,0.006481,-0.003784,-0.000012,1,0,0,0,0,0,0
0.080000,0.000066,0.000813,0.000000,1,0,0,0,0,0,0,-0.000658,-0.000544,0.000000,1,0,0,0,0,0,0,0.008225,-0.004811,-0.000020,1,0,0,0,0,0,0
0.090000,0.000084,0.001300,0.000000,1,0,0,0,0,0,0,-0.000997,-0.000784,0.000000,1,0,0,0,0,0,0,0.010090,-0.005912,-0.000030,1,0,0,0,0,0,0
0.100000,0.000102,0.001872,0.000000,1,0,0,0,0,0,0,-0.001484,-0.001112,0.000001,1,0,0,0,0,0,0,0.012043,-0.007068,-0.000042,1,0,0,0,0,0,0
0.110000,0.000123,0.002578,0.000000,1,0,0,0,0,0,0,-0.002043,-0.001486,0.000001,1,0,0,0,0,0,0,0.014067,-0.008266,-0.000058,1,0,0,0,0,0,0
0.120000,0.000145,0.003414,0.000000,1,0,0,0,0,0,0,-0.002703,-0.001923,0.000002,1,0,0,0,0,0,0,0.016123,-0.009486,-0.000076,1,0,0,0,0,0,0
0.130000,0.000167,0.004376,0.000000,1,0,0,0,0,0,0,-0.003482,-0.002430,0.000004,1,0,0,0,0,0,0,0.018119,-0.010675,-0.000097,1,0,0,0,0,0,0
0.140000,0.000191,0.005480,0.000001,1,0,0,0,0,0,0,-0.004370,-0.003002,0.000006,1,0,0,0,0,0,0,0.020066,-0.011836,-0.000119,1,0,0,0,0,0,0
0.150000,0.000216,0.006736,0.000001,1,0,0,0,0,0,0,-0.005379,-0.003647,0.000009,1,0,0,0,0,0,0,0.021997,-0.012989,-0.000143,1,0,0,0,0,0,0
0.160000,0.000241,0.008148,0.000001,1,0,0,0,0,0,0,-0.006519,-0.004369,0.000014,1,0,0,0,0,0,0,0.023910,-0.014132,-0.000169,1,0,0,0,0,0,0
0.170000,0.000267,0.009677,0.000002,1,0,0,0,0,0,0,-0.007792,-0.005170,0.000019,1,0,0,0,0,0,0,0.025801,-0.015263,-0.000197,1,0,0,0,0,0,0
0.180000,0.000293,0.011273,0.000002,1,0,0,0,0,0,0,-0.009163,-0.006029,0.000027,1,0,0,0,0,0,0,0.027661,-0.016376,-0.000227,1,0,0,0,0,0,0
0.190000,0.000320,0.012911,0.000002,1,0,0,0,0,0,0,-0.010584,-0.006919,0.000035,1,0,0,0,0,0,0,0.029482,-0.017467,-0.000258,1,0,0,0,0,0,0
0.200000,0.000347,0.014583,0.000003,1,0,0,0,0,0,0,-0.012038,-0.007829,0.000046,1,0,0,0,0,0,0,0.031259,-0.018532,-0.000290,1,0,0,0,0,0,0
0.210000,0.000374,0.016274,0.000004,1,0,0,0,0,0,0,-0.013517,-0.008754,0.000058,1,0,0,0,0,0,0,0.032984,-0.019568,-0.000323,1,0,0,0,0,0,0
0.220000,0.000401,0.017951,0.000004,1,0,0,0,0,0,0,-0.015008,-0.009685,0.000071,1,0,0,0,0,0,0,0.034653,-0.020571,-0.000357,1,0,0,0,0,0,0
0.230000,0.000428,0.019572,0.000005,1,0,0,0,0,0,0,-0.016478,-0.010605,0.000085,1,0,0,0,0,0,0,0.036260,-0.021537,-0.000391,1,0,0,0,0,0,0
0.240000,0.000454,0.021118,0.000006,1,0,0,0,0,0,0,-0.017890,-0.011491,0.000101,1,0,0,0,0,0,0,0.037796,-0.022462,-0.000425,1,0,0,0,0,0,0
0.250000,0.000481,0.022609,0.000006,1,0,0,0,0,0,0,-0.019231,-0.012335,0.000116,1,0,0,0,0,0,0,0.039250,-0.023338,-0.000459,1,0,0,0,0,0,0
0.260000,0.000506,0.024050,0.000007,1,0,0,0,0,0,0,-0.020515,-0.013144,0.000133,1,0,0,0,0,0,0,0.040607,-0.024158,-0.000492,1,0,0,0,0,0,0
0.270000,0.000531,0.025447,0.000008,1,0,0,0,0,0,0,-0.021750,-0.013922,0.000149,1,0,0,0,0,0,0,0.041855,-0.024914,-0.000523,1,0,0,0,0,0,0
0.280000,0.000554,0.026805,0.000008,1,0,0,0,0,0,0,-0.022942,-0.014673,0.000166,1,0,0,0,0,0,0,0.042983,-0.025599,-0.000552,1,0,0,0,0,0,0
0.290000,0.000577,0.028119,0.000009,1,0,0,0,0,0,0,-0.024094,-0.015398,0.000183,1,0,0,0,0,0,0,0.043984,-0.026210,-0.000578,1,0,0,0,0,0,0
0.300000,0.000599,0.029376,0.000010,1,0,0,0,0,0,0,-0.025203,-0.016095,0.000201,1,0,0,0,0,0,0,0.044855,-0.026744,-0.000602,1,0,0,0,0,0,0
0.310000,0.000620,0.030552,0.000010,1,0,0,0,0,0,0,-0.026253,-0.016756,0.000218,1,0,0,0,0,0,0,0.045587,-0.027197,-0.000622,1,0,0,0,0,0,0
0.320000,0.000640,0.031625,0.000011,1,0,0,0,0,0,0,-0.027224,-0.017369,0.000234,1,0,0,0,0,0,0,0.046172,-0.027563,-0.000639,1,0,0,0,0,0,0
0.330000,0.000659,0.032577,0.000011,1,0,0,0,0,0,0,-0.028097,-0.017923,0.000250,1,0,0,0,0,0,0,0.046603,-0.027838,-0.000652,1,0,0,0,0,0,0
0.340000,0.000676,0.033401,0.000012,1,0,0,0,0,0,0,-0.028861,-0.018410,0.000264,1,0,0,0,0,0,0,0.046878,-0.028022,-0.000660,1,0,0,0,0,0,0
0.350000,0.000693,0.034090,0.000012,1,0,0,0,0,0,0,-0.029508,-0.018828,0.000276,1,0,0,0,0,0,0,0.047001,-0.028115,-0.000664,1,0,0,0,0,0,0
0.360000,0.000708,0.034631,0.000013,1,0,0,0,0,0,0,-0.030034,-0.019172,0.000286,1,0,0,0,0,0,0,0.046973,-0.028120,-0.000664,1,0,0,0,0,0,0
0.370000,0.000722,0.035009,0.000013,1,0,0,0,0,0,0,-0.030427,-0.019435,0.000294,1,0,0,0,0,0,0,0.046800,-0.028039,-0.000660,1,0,0,0,0,0,0
0.380000,0.000734,0.035217,0.000013,1,0,0,0,0,0,0,-0.030675,-0.019613,0.000300,1,0,0,0,0,0,0,0.046486,-0.027874,-0.000652,1,0,0,0,0,0,0
0.390000,0.000746,0.035256,0.000013,1,0,0,0,0,0,0,-0.030775,-0.019701,0.000303,1,0,0,0,0,0,0,0.046038,-0.027630,-0.000641,1,0,0,0,0,0,0
0.400000,0.000756,0.035129,0.000013,1,0,0,0,0,0,0,-0.030729,-0.019702,0.000303,1,0,0,0,0,0,0,0.045464,-0.027311,-0.000626,1,0,0,0,0,0,0
0.410000,0.000765,0.034845,0.000013,1,0,0,0,0,0,0,-0.030541,-0.019617,0.000300,1,0,0,0,0,0,0,0.044777,-0.026925,-0.000608,1,0,0,0,0,0,0
0.420000,0.000772,0.034410,0.000012,1,0,0,0,0,0,0,-0.030217,-0.019449,0.000295,1,0,0,0,0,0,0,0.043990,-0.026479,-0.000588,1,0,0,0,0,0,0
0.430000,0.000778,0.033832,0.000012,1,0,0,0,0,0,0,-0.029762,-0.019201,0.000287,1,0,0,0,0,0,0,0.043117,-0.025981,-0.000566,1,0,0,0,0,0,0
0.440000,0.000783,0.033118,0.000012,1,0,0,0,0,0,0,-0.029180,-0.018877,0.000278,1,0,0,0,0,0,0,0.042180,-0.025444,-0.000543,1,0,0,0,0,0,0
0.450000,0.000787,0.032275,0.000011,1,0,0,0,0,0,0,-0.028478,-0.018480,0.000266,1,0,0,0,0,0,0,0.041204,-0.024882,-0.000519,1,0,0,0,0,0,0
0.460000,0.000789,0.031314,0.000010,1,0,0,0,0,0,0,-0.027664,-0.018015,0.000253,1,0,0,0,0,0,0,0.040206,-0.024306,-0.000495,1,0,0,0,0,0,0
0.470000,0.000790,0.030242,0.000010,1,0,0,0,0,0,0,-0.026747,-0.017488,0.000238,1,0,0,0,0,0,0,0.039207,-0.023728,-0.000472,1,0,0,0,0,0,0
0.480000,0.000790,0.029069,0.000009,1,0,0,0,0,0,0,-0.025735,-0.016902,0.000223,1,0,0,0,0,0,0,0.038221,-0.023156,-0.000449,1,0,0,0,0,0,0
0.490000,0.000788,0.027805,0.000008,1,0,0,0,0,0,0,-0.024636,-0.016263,0.000206,1,0,0,0,0,0,0,0.037261,-0.022597,-0.000428,1,0,0,0,0,0,0
0.500000,0.000784,0.026463,0.000007,1,0,0,0,0,0,0,-0.023461,-0.015577,0.000190,1,0,0,0,0,0,0,0.036334,-0.022058,-0.000407,1,0,0,0,0,0,0
0.510000,0.000778,0.025054,0.000006,1,0,0,0,0,0,0,-0.022219,-0.014849,0.000172,1,0,0,0,0,0,0,0.035446,-0.021539,-0.000388,1,0,0,0,0,0,0
0.520000,0.000771,0.023588,0.000005,1,0,0,0,0,0,0,-0.020923,-0.014087,0.000156,1,0,0,0,0,0,0,0.034598,-0.021044,-0.000371,1,0,0,0,0,0,0
0.530000,0.000760,0.022080,0.000004,1,0,0,0,0,0,0,-0.019581,-0.013294,0.000139,1,0,0,0,0,0,0,0.033789,-0.020571,-0.000354,1,0,0,0,0,0,0
0.540000,0.000746,0.020547,0.000003,1,0,0,0,0,0,0,-0.018205,-0.012478,0.000123,1,0,0,0,0,0,0,0.033020,-0.020120,-0.000338,1,0,0,0,0,0,0
0.550000,0.000727,0.019009,0.000002,1,0,0,0,0,0,0,-0.016808,-0.011645,0.000108,1,0,0,0,0,0,0,0.032287,-0.019691,-0.000324,1,0,0,0,0,0,0
0.560000,0.000702,0.017488,0.000002,1,0,0,0,0,0,0,-0.015406,-0.010804,0.000094,1,0,0,0,0,0,0,0.031590,-0.019283,-0.000311,1,0,0,0,0,0,0
0.570000,0.000669,0.016012,0.000001,1,0,0,0,0,0,0,-0.014018,-0.009963,0.000081,1,0,0,0,0,0,0,0.030926,-0.018894,-0.000298,1,0,0,0,0,0,0
0.580000,0.000625,0.014612,0.000000,1,0,0,0,0,0,0,-0.012666,-0.009135,0.000069,1,0,0,0,0,0,0,0.030295,-0.018525,-0.000286,1,0,0,0,0,0,0
0.590000,0.000568,0.013331,-0.000000,1,0,0,0,0,0,0,-0.011376,-0.008332,0.000059,1,0,0,0,0,0,0,0.029697,-0.018176,-0.000276,1,0,0,0,0,0,0
0.600000,0.000494,0.012217,-0.000001,1,0,0,0,0,0,0,-0.010183,-0.007570,0.000050,1,0,0,0,0,0,0,0.029134,-0.017848,-0.000266,1,0,0,0,0,0,0
0.610000,0.000399,0.011322,-0.000001,1,0,0,0,0,0,0,-0.009127,-0.006870,0.000042,1,0,0,0,0,0,0,0.028608,-0.017543,-0.000256,1,0,0,0,0,0,0
0.620000,0.000280,0.010692,-0.000001,1,0,0,0,0,0,0,-0.008257,-0.006255,0.000036,1,0,0,0,0,0,0,0.028124,-0.017263,-0.000248,1,0,0,0,0,0,0
0.630000,0.000135,0.010355,-0.000001,1,0,0,0,0,0,0,-0.007618,-0.005748,0.000032,1,0,0,0,0,0,0,0.027687,-0.017012,-0.000241,1,0,0,0,0,0,0
0.640000,-0.000032,0.010298,-0.000001,1,0,0,0,0,0,0,-0.007245,-0.005366,0.000028,1,0,0,0,0,0,0,0.027304,-0.016794,-0.000234,1,0,0,0,0,0,0
0.650000,-0.000220,0.010515,-0.000001,1,0,0,0,0,0,0,-0.007145,-0.005116,0.000026,1,0,0,0,0,0,0,0.026978,-0.016610,-0.000229,1,0,0,0,0,0,0
0.660000,-0.000427,0.010981,-0.000001,1,0,0,0,0,0,0,-0.007304,-0.004992,0.000024,1,0,0,0,0,0,0,0.026713,-0.016463,-0.000225,1,0,0,0,0,0,0
0.670000,-0.000643,0.011605,-0.000001,1,0,0,0,0,0,0,-0.007723,-0.004996,0.000024,1,0,0,0,0,0,0,0.026509,-0.016353,-0.000222,1,0,0,0,0,0,0
0.680000,-0.000857,0.012273,-0.000002,1,0,0,0,0,0,0,-0.008342,-0.005100,0.000024,1,0,0,0,0,0,0,0.026364,-0.016279,-0.000219,1,0,0,0,0,0,0
0.690000,-0.001061,0.012899,-0.000003,1,0,0,0,0,0,0,-0.009053,-0.005258,0.000026,1,0,0,0,0,0,0,0.026273,-0.016237,-0.000218,1,0,0,0,0,0,0
0.700000,-0.001252,0.013450,-0.000003,1,0,0,0,0,0,0,-0.009750,-0.005418,0.000027,1,0,0,0,0,0,0,0.026233,-0.016225,-0.000217,1,0,0,0,0,0,0
0.710000,-0.001429,0.013924,-0.000004,1,0,0,0,0,0,0,-0.010380,-0.005556,0.000028,1,0,0,0,0,0,0,0.026243,-0.016242,-0.000218,1,0,0,0,0,0,0
0.720000,-0.001595,0.014349,-0.000005,1,0,0,0,0,0,0,-0.010929,-0.005665,0.000029,1,0,0,0,0,0,0,0.026302,-0.016287,-0.000219,1,0,0,0,0,0,0
0.730000,-0.001755,0.014787,-0.000006,1,0,0,0,0,0,0,-0.011409,-0.005749,0.000030,1,0,0,0,0,0,0,0.026417,-0.016364,-0.000220,1,0,0,0,0,0,0
0.740000,-0.001910,0.015279,-0.000008,1,0,0,0,0,0,0,-0.011870,-0.005833,0.000032,1,0,0,0,0,0,0,0.026593,-0.016476,-0.000223,1,0,0,0,0,0,0
0.750000,-0.002062,0.015828,-0.000009,1,0,0,0,0,0,0,-0.012373,-0.005945,0.000033,1,0,0,0,0,0,0,0.026840,-0.016627,-0.000227,1,0,0,0,0,0,0
0.760000,-0.002206,0.016424,-0.000011,1,0,0,0,0,0,0,-0.012933,-0.006096,0.000035,1,0,0,0,0,0,0,0.027172,-0.016828,-0.000232,1,0,0,0,0,0,0
0.770000,-0.002341,0.017046,-0.000013,1,0,0,0,0,0,0,-0.013544,-0.006284,0.000038,1,0,0,0,0,0,0,0.027606,-0.017086,-0.000239,1,0,0,0,0,0,0
0.780000,-0.002462,0.017667,-0.000015,1,0,0,0,0,0,0,-0.014206,-0.006510,0.000041,1,0,0,0,0,0,0,0.028162,-0.017414,-0.000248,1,0,0,0,0,0,0
0.790000,-0.002568,0.018258,-0.000016,1,0,0,0,0,0,0,-0.014901,-0.006768,0.000045,1,0,0,0,0,0,0,0.028863,-0.017826,-0.000259,1,0,0,0,0,0,0
0.800000,-0.002655,0.018793,-0.000018,1,0,0,0,0,0,0,-0.015610,-0.007052,0.000050,1,0,0,0,0,0,0,0.029726,-0.018332,-0.000274,1,0,0,0,0,0,0
0.810000,-0.002725,0.019258,-0.000020,1,0,0,0,0,0,0,-0.016304,-0.007347,0.000055,1,0,0,0,0,0,0,0.030764,-0.018939,-0.000292,1,0,0,0,0,0,0
0.820000,-0.002779,0.019656,-0.000021,1,0,0,0,0,0,0,-0.016953,-0.007637,0.000060,1,0,0,0,0,0,0,0.031974,-0.019646,-0.000314,1,0,0,0,0,0,0
0.830000,-0.002816,0.019990,-0.000023,1,0,0,0,0,0,0,-0.017537,-0.007910,0.000065,1,0,0,0,0,0,0,0.033343,-0.020445,-0.000340,1,0,0,0,0,0,0
0.840000,-0.002838,0.020272,-0.000024,1,0,0,0,0,0,0,-0.018056,-0.008165,0.000070,1,0,0,0,0,0,0,0.034850,-0.021324,-0.000370,1,0,0,0,0,0,0
0.850000,-0.002847,0.020511,-0.000025,1,0,0,0,0,0,0,-0.018515,-0.008403,0.000074,1,0,0,0,0,0,0,0.036471,-0.022269,-0.000404,1,0,0,0,0,0,0
0.860000,-0.002844,0.020724,-0.000026,1,0,0,0,0,0,0,-0.018915,-0.008623,0.000079,1,0,0,0,0,0,0,0.038184,-0.023267,-0.000441,1,0,0,0,0,0,0
0.870000,-0.002831,0.020929,-0.000027,1,0,0,0,0,0,0,-0.019264,-0.008828,0.000083,1,0,0,0,0,0,0,0.039967,-0.024304,-0.000482,1,0,0,0,0,0,0
0.880000,-0.002811,0.021151,-0.000027,1,0,0,0,0,0,0,-0.019570,-0.009021,0.000087,1,0,0,0,0,0,0,0.041798,-0.025369,-0.000526,1,0,0,0,0,0,0
0.890000,-0.002785,0.021417,-0.000028,1,0,0,0,0,0,0,-0.019851,-0.009210,0.000091,1,0,0,0,0,0,0,0.043658,-0.026451,-0.000572,1,0,0,0,0,0,0
0.900000,-0.002756,0.021754,-0.000029,1,0,0,0,0,0,0,-0.020123,-0.009403,0.000095,1,0,0,0,0,0,0,0.045533,-0.027542,-0.000621,1,0,0,0,0,0,0
0.910000,-0.002724,0.022188,-0.000031,1,0,0,0,0,0,0,-0.020417,-0.009615,0.000099,1,0,0,0,0,0,0,0.047411,-0.028635,-0.000672,1,0,0,0,0,0,0
0.920000,-0.002690,0.022732,-0.000032,1,0,0,0,0,0,0,-0.020762,-0.009860,0.000104,1,0,0,0,0,0,0,0.049286,-0.029727,-0.000725,1,0,0,0,0,0,0
0.930000,-0.002655,0.023384,-0.000034,1,0,0,0,0,0,0,-0.021182,-0.010152,0.000110,1,0,0,0,0,0,0,0.051154,-0.030815,-0.000780,1,0,0,0,0,0,0
0.940000,-0.002618,0.024130,-0.000036,1,0,0,0,0,0,0,-0.021693,-0.010498,0.000117,1,0,0,0,0,0,0,0.053009,-0.031895,-0.000837,1,0,0,0,0,0,0
0.950000,-0.002576,0.024947,-0.000038,1,0,0,0,0,0,0,-0.022295,-0.010900,0.000126,1,0,0,0,0,0,0,0.054847,-0.032963,-0.000895,1,0,0,0,0,0,0
0.960000,-0.002530,0.025803,-0.000039,1,0,0,0,0,0,0,-0.022975,-0.011351,0.000136,1,0,0,0,0,0,0,0.056664,-0.034017,-0.000955,1,0,0,0,0,0,0
0.970000,-0.002477,0.026664,-0.000041,1,0,0,0,0,0,0,-0.023713,-0.011841,0.000147,1,0,0,0,0,0,0,0.058459,-0.035055,-0.001015,1,0,0,0,0,0,0
0.980000,-0.002418,0.027508,-0.000043,1,0,0,0,0,0,0,-0.024482,-0.012356,0.000159,1,0,0,0,0,0,0,0.060233,-0.036077,-0.001076,1,0,0,0,0,0,0
0.990000,-0.002354,0.028336,-0.000044,1,0,0,0,0,0,0,-0.025249,-0.012879,0.000172,1,0,0,0,0,0,0,0.061991,-0.037087,-0.001139,1,0,0,0,0,0,0
1.000000,-0.002285,0.029147,-0.000046,1,0,0,0,0,0,0,-0.025978,-0.013389,0.000184,1,0,0,0,0,0,0,0.063739,-0.038087,-0.001202,1,0,0,0,0,0,0
1.010000,-0.002214,0.029954,-0.000047,1,0,0,0,0,0,0,-0.026654,-0.013877,0.000196,1,0,0,0,0,0,0,0.065494,-0.039089,-0.001268,1,0,0,0,0,0,0
1.020000,-0.002148,0.030843,-0.000048,1,0,0,0,0,0,0,-0.027284,-0.014345,0.000208,1,0,0,0,0,0,0,0.067298,-0.040119,-0.001337,1,0,0,0,0,0,0
1.030000,-0.002091,0.031865,-0.000049,1,0,0,0,0,0,0,-0.027870,-0.014790,0.000220,1,0,0,0,0,0,0,0.069170,-0.041189,-0.001411,1,0,0,0,0,0,0
1.040000,-0.002048,0.033024,-0.000051,1,0,0,0,0,0,0,-0.028431,-0.015220,0.000231,1,0,0,0,0,0,0,0.071105,-0.042299,-0.001490,1,0,0,0,0,0,0
1.050000,-0.002020,0.034299,-0.000052,1,0,0,0,0,0,0,-0.029037,-0.015670,0.000243,1,0,0,0,0,0,0,0.073083,-0.043439,-0.001573,1,0,0,0,0,0,0
1.060000,-0.002008,0.035678,-0.000054,1,0,0,0,0,0,0,-0.029732,-0.016158,0.000257,1,0,0,0,0,0,0,0.075070,-0.044590,-0.001659,1,0,0,0,0,0,0
1.070000,-0.002015,0.037171,-0.000056,1,0,0,0,0,0,0,-0.030539,-0.016695,0.000272,1,0,0,0,0,0,0,0.077029,-0.045732,-0.001747,1,0,0,0,0,0,0
1.080000,-0.002041,0.038753,-0.000058,1,0,0,0,0,0,0,-0.031456,-0.017278,0.000289,1,0,0,0,0,0,0,0.078917,-0.046842,-0.001835,1,0,0,0,0,0,0
1.090000,-0.002083,0.040379,-0.000060,1,0,0,0,0,0,0,-0.032477,-0.017901,0.000308,1,0,0,0,0,0,0,0.080695,-0.047896,-0.001920,1,0,0,0,0,0,0
1.100000,-0.002135,0.041982,-0.000063,1,0,0,0,0,0,0,-0.033599,-0.018561,0.000329,1,0,0,0,0,0,0,0.082332,-0.048876,-0.002001,1,0,0,0,0,0,0
1.110000,-0.002190,0.043513,-0.000065,1,0,0,0,0,0,0,-0.034803,-0.019246,0.000351,1,0,0,0,0,0,0,0.083807,-0.049769,-0.002076,1,0,0,0,0,0,0
1.120000,-0.002253,0.045001,-0.000067,1,0,0,0,0,0,0,-0.036038,-0.019932,0.000374,1,0,0,0,0,0,0,0.085109,-0.050568,-0.002144,1,0,0,0,0,0,0
1.130000,-0.002331,0.046494,-0.000070,1,0,0,0,0,0,0,-0.037226,-0.020586,0.000397,1,0,0,0,0,0,0,0.086235,-0.051270,-0.002205,1,0,0,0,0,0,0
1.140000,-0.002425,0.047993,-0.000072,1,0,0,0,0,0,0,-0.038323,-0.021188,0.000419,1,0,0,0,0,0,0,0.087186,-0.051874,-0.002258,1,0,0,0,0,0,0
1.150000,-0.002534,0.049497,-0.000075,1,0,0,0,0,0,0,-0.039340,-0.021742,0.000440,1,0,0,0,0,0,0,0.087966,-0.052382,-0.002303,1,0,0,0,0,0,0
1.160000,-0.002660,0.051013,-0.000078,1,0,0,0,0,0,0,-0.040333,-0.022271,0.000460,1,0,0,0,0,0,0,0.088582,-0.052797,-0.002340,1,0,0,0,0,0,0
1.170000,-0.002805,0.052550,-0.000082,1,0,0,0,0,0,0,-0.041313,-0.022778,0.000480,1,0,0,0,0,0,0,0.089037,-0.053118,-0.002369,1,0,0,0,0,0,0
1.180000,-0.002970,0.054101,-0.000086,1,0,0,0,0,0,0,-0.042267,-0.023259,0.000500,1,0,0,0,0,0,0,0.089337,-0.053349,-0.002390,1,0,0,0,0,0,0
1.190000,-0.003150,0.055634,-0.000090,1,0,0,0,0,0,0,-0.043186,-0.023710,0.000518,1,0,0,0,0,0,0,0.089490,-0.053490,-0.002402,1,0,0,0,0,0,0
1.200000,-0.003343,0.057122,-0.000094,1,0,0,0,0,0,0,-0.044065,-0.024129,0.000536,1,0,0,0,0,0,0,0.089504,-0.053546,-0.002407,1,0,0,0,0,0,0
1.210000,-0.003548,0.058547,-0.000099,1,0,0,0,0,0,0,-0.044901,-0.024514,0.000553,1,0,0,0,0,0,0,0.089394,-0.053525,-0.002405,1,0,0,0,0,0,0
1.220000,-0.003753,0.059833,-0.000104,1,0,0,0,0,0,0,-0.045692,-0.024864,0.000569,1,0,0,0,0,0,0,0.089174,-0.053435,-0.002396,1,0,0,0,0,0,0
1.230000,-0.003941,0.060888,-0.000109,1,0,0,0,0,0,0,-0.046431,-0.025178,0.000583,1,0,0,0,0,0,0,0.088858,-0.053287,-0.002382,1,0,0,0,0,0,0
1.240000,-0.004115,0.061727,-0.000113,1,0,0,0,0,0,0,-0.047112,-0.025450,0.000596,1,0,0,0,0,0,0,0.088454,-0.053087,-0.002364,1,0,0,0,0,0,0
1.250000,-0.004281,0.062383,-0.000116,1,0,0,0,0,0,0,-0.047707,-0.025671,0.000606,1,0,0,0,0,0,0,0.087962,-0.052836,-0.002341,1,0,0,0,0,0,0
1.260000,-0.004438,0.062854,-0.000119,1,0,0,0,0,0,0,-0.048208,-0.025836,0.000615,1,0,0,0,0,0,0,0.087387,-0.052537,-0.002313,1,0,0,0,0,0,0
1.270000,-0.004582,0.063131,-0.000121,1,0,0,0,0,0,0,-0.048628,-0.025951,0.000621,1,0,0,0,0,0,0,0.086741,-0.052197,-0.002283,1,0,0,0,0,0,0
1.280000,-0.004711,0.063206,-0.000123,1,0,0,0,0,0,0,-0.048970,-0.026017,0.000624,1,0,0,0,0,0,0,0.086035,-0.051822,-0.002249,1,0,0,0,0,0,0
1.290000,-0.004819,0.063075,-0.000124,1,0,0,0,0,0,0,-0.049237,-0.026034,0.000626,1,0,0,0,0,0,0,0.085277,-0.051413,-0.002213,1,0,0,0,0,0,0
1.300000,-0.004907,0.062739,-0.000124,1,0,0,0,0,0,0,-0.049429,-0.026003,0.000625,1,0,0,0,0,0,0,0.084467,-0.050969,-0.002174,1,0,0,0,0,0,0
1.310000,-0.004970,0.062205,-0.000123,1,0,0,0,0,0,0,-0.049538,-0.025922,0.000622,1,0,0,0,0,0,0,0.083596,-0.050481,-0.002132,1,0,0,0,0,0,0
1.320000,-0.005009,0.061481,-0.000121,1,0,0,0,0,0,0,-0.049547,-0.025785,0.000617,1,0,0,0,0,0,0,0.082654,-0.049944,-0.002086,1,0,0,0,0,0,0
1.330000,-0.005022,0.060585,-0.000119,1,0,0,0,0,0,0,-0.049437,-0.025586,0.000608,1,0,0,0,0,0,0,0.081631,-0.049349,-0.002035,1,0,0,0,0,0,0
1.340000,-0.005008,0.059542,-0.000115,1,0,0,0,0,0,0,-0.049191,-0.025323,0.000596,1,0,0,0,0,0,0,0.080512,-0.048689,-0.001981,1,0,0,0,0,0,0
1.350000,-0.004967,0.058375,-0.000112,1,0,0,0,0,0,0,-0.048805,-0.024996,0.000582,1,0,0,0,0,0,0,0.079284,-0.047956,-0.001921,1,0,0,0,0,0,0
1.360000,-0.004900,0.057107,-0.000107,1,0,0,0,0,0,0,-0.048279,-0.024608,0.000565,1,0,0,0,0,0,0,0.077933,-0.047143,-0.001855,1,0,0,0,0,0,0
1.370000,-0.004808,0.055760,-0.000103,1,0,0,0,0,0,0,-0.047614,-0.024163,0.000545,1,0,0,0,0,0,0,0.076450,-0.046248,-0.001785,1,0,0,0,0,0,0
1.380000,-0.004693,0.054354,-0.000098,1,0,0,0,0,0,0,-0.046810,-0.023662,0.000523,1,0,0,0,0,0,0,0.074839,-0.045272,-0.001710,1,0,0,0,0,0,0
1.390000,-0.004558,0.052907,-0.000093,1,0,0,0,0,0,0,-0.045877,-0.023112,0.000499,1,0,0,0,0,0,0,0.073113,-0.044223,-0.001631,1,0,0,0,0,0,0
1.400000,-0.004407,0.051436,-0.000088,1,0,0,0,0,0,0,-0.044832,-0.022523,0.000474,1,0,0,0,0,0,0,0.071285,-0.043109,-0.001549,1,0,0,0,0,0,0
1.410000,-0.004241,0.049963,-0.000083,1,0,0,0,0,0,0,-0.043693,-0.021907,0.000449,1,0,0,0,0,0,0,0.069369,-0.041937,-0.001466,1,0,0,0,0,0,0
1.420000,-0.004065,0.048504,-0.000079,1,0,0,0,0,0,0,-0.042475,-0.021271,0.000423,1,0,0,0,0,0,0,0.067380,-0.040715,-0.001381,1,0,0,0,0,0,0
1.430000,-0.003881,0.047069,-0.000074,1,0,0,0,0,0,0,-0.041192,-0.020624,0.000398,1,0,0,0,0,0,0,0.065335,-0.039453,-0.001297,1,0,0,0,0,0,0
1.440000,-0.003689,0.045656,-0.000070,1,0,0,0,0,0,0,-0.039858,-0.019971,0.000373,1,0,0,0,0,0,0,0.063248,-0.038158,-0.001213,1,0,0,0,0,0,0
1.450000,-0.003491,0.044263,-0.000066,1,0,0,0,0,0,0,-0.038501,-0.019330,0.000349,1,0,0,0,0,0,0,0.061137,-0.036841,-0.001130,1,0,0,0,0,0,0
1.460000,-0.003286,0.042897,-0.000062,1,0,0,0,0,0,0,-0.037134,-0.018707,0.000327,1,0,0,0,0,0,0,0.059015,-0.035508,-0.001050,1,0,0,0,0,0,0
1.470000,-0.003075,0.041569,-0.000058,1,0,0,0,0,0,0,-0.035763,-0.018100,0.000306,1,0,0,0,0,0,0,0.056896,-0.034171,-0.000972,1,0,0,0,0,0,0
1.480000,-0.002856,0.040283,-0.000055,1,0,0,0,0,0,0,-0.034392,-0.017511,0.000287,1,0,0,0,0,0,0,0.054798,-0.032838,-0.000897,1,0,0,0,0,0,0
1.490000,-0.002628,0.039024,-0.000052,1,0,0,0,0,0,0,-0.033026,-0.016940,0.000268,1,0,0,0,0,0,0,0.052736,-0.031519,-0.000826,1,0,0,0,0,0,0
1.500000,-0.002388,0.037764,-0.000049,1,0,0,0,0,0,0,-0.031668,-0.016385,0.000251,1,0,0,0,0,0,0,0.050725,-0.030225,-0.000759,1,0,0,0,0,0,0
1.510000,-0.002137,0.036488,-0.000046,1,0,0,0,0,0,0,-0.030323,-0.015847,0.000235,1,0,0,0,0,0,0,0.048779,-0.028965,-0.000697,1,0,0,0,0,0,0
1.520000,-0.001874,0.035183,-0.000043,1,0,0,0,0,0,0,-0.029004,-0.015332,0.000220,1,0,0,0,0,0,0,0.046905,-0.027744,-0.000639,1,0,0,0,0,0,0
1.530000,-0.001599,0.033827,-0.000040,1,0,0,0,0,0,0,-0.027724,-0.014843,0.000207,1,0,0,0,0,0,0,0.045108,-0.026568,-0.000585,1,0,0,0,0,0,0
1.540000,-0.001314,0.032391,-0.000037,1,0,0,0,0,0,0,-0.026484,-0.014381,0.000194,1,0,0,0,0,0,0,0.043389,-0.025438,-0.000536,1,0,0,0,0,0,0
1.550000,-0.001025,0.030861,-0.000034,1,0,0,0,0,0,0,-0.025277,-0.013940,0.000182,1,0,0,0,0,0,0,0.041747,-0.024356,-0.000490,1,0,0,0,0,0,0
1.560000,-0.000732,0.029246,-0.000032,1,0,0,0,0,0,0,-0.024091,-0.013513,0.000172,1,0,0,0,0,0,0,0.040179,-0.023321,-0.000449,1,0,0,0,0,0,0
1.570000,-0.000437,0.027555,-0.000030,1,0,0,0,0,0,0,-0.022923,-0.013097,0.000161,1,0,0,0,0,0,0,0.038686,-0.022337,-0.000411,1,0,0,0,0,0,0
1.580000,-0.000139,0.025800,-0.000028,1,0,0,0,0,0,0,-0.021753,-0.012682,0.000151,1,0,0,0,0,0,0,0.037270,-0.021404,-0.000377,1,0,0,0,0,0,0
1.590000,0.000159,0.023995,-0.000026,1,0,0,0,0,0,0,-0.020551,-0.012249,0.000142,1,0,0,0,0,0,0,0.035929,-0.020524,-0.000346,1,0,0,0,0,0,0
1.600000,0.000459,0.022151,-0.000025,1,0,0,0,0,0,0,-0.019292,-0.011781,0.000131,1,0,0,0,0,0,0,0.034660,-0.019695,-0.000318,1,0,0,0,0,0,0
1.610000,0.000756,0.020281,-0.000025,1,0,0,0,0,0,0,-0.017981,-0.011281,0.000121,1,0,0,0,0,0,0,0.033455,-0.018914,-0.000293,1,0,0,0,0,0,0
1.620000,0.001049,0.018400,-0.000025,1,0,0,0,0,0,0,-0.016633,-0.010755,0.000111,1,0,0,0,0,0,0,0.032302,-0.018175,-0.000270,1,0,0,0,0,0,0
1.630000,0.001336,0.016518,-0.000025,1,0,0,0,0,0,0,-0.015261,-0.010210,0.000101,1,0,0,0,0,0,0,0.031192,-0.017472,-0.000249,1,0,0,0,0,0,0
1.640000,0.001616,0.014645,-0.000025,1,0,0,0,0,0,0,-0.013873,-0.009650,0.000091,1,0,0,0,0,0,0,0.030114,-0.016800,-0.000230,1,0,0,0,0,0,0
1.650000,0.001888,0.012788,-0.000026,1,0,0,0,0,0,0,-0.012478,-0.009080,0.000082,1,0,0,0,0,0,0,0.029065,-0.016158,-0.000212,1,0,0,0,0,0,0
1.660000,0.002150,0.010943,-0.000028,1,0,0,0,0,0,0,-0.011086,-0.008503,0.000074,1,0,0,0,0,0,0,0.028052,-0.015549,-0.000196,1,0,0,0,0,0,0
1.670000,0.002399,0.009105,-0.000030,1,0,0,0,0,0,0,-0.009711,-0.007927,0.000066,1,0,0,0,0,0,0,0.027084,-0.014979,-0.000181,1,0,0,0,0,0,0
1.680000,0.002637,0.007278,-0.000032,1,0,0,0,0,0,0,-0.008370,-0.007359,0.000060,1,0,0,0,0,0,0,0.026167,-0.014452,-0.000169,1,0,0,0,0,0,0
1.690000,0.002862,0.005472,-0.000034,1,0,0,0,0,0,0,-0.007073,-0.006804,0.000054,1,0,0,0,0,0,0,0.025312,-0.013974,-0.000158,1,0,0,0,0,0,0
1.700000,0.003075,0.003708,-0.000037,1,0,0,0,0,0,0,-0.005825,-0.006264,0.000048,1,0,0,0,0,0,0,0.024531,-0.013552,-0.000148,1,0,0,0,0,0,0
1.710000,0.003279,0.002004,-0.000040,1,0,0,0,0,0,0,-0.004625,-0.005740,0.000044,1,0,0,0,0,0,0,0.023837,-0.013195,-0.000141,1,0,0,0,0,0,0
1.720000,0.003471,0.000372,-0.000043,1,0,0,0,0,0,0,-0.003478,-0.005234,0.000040,1,0,0,0,0,0,0,0.023244,-0.012910,-0.000135,1,0,0,0,0,0,0
1.730000,0.003654,-0.001171,-0.000046,1,0,0,0,0,0,0,-0.002381,-0.004744,0.000037,1,0,0,0,0,0,0,0.022761,-0.012701,-0.000131,1,0,0,0,0,0,0
1.740000,0.003825,-0.002607,-0.000049,1,0,0,0,0,0,0,-0.001329,-0.004270,0.000034,1,0,0,0,0,0,0,0.022387,-0.012569,-0.000129,1,0,0,0,0,0,0
1.750000,0.003985,-0.003915,-0.000051,1,0,0,0,0,0,0,-0.000313,-0.003807,0.000032,1,0,0,0,0,0,0,0.022114,-0.012507,-0.000128,1,0,0,0,0,0,0
1.760000,0.004133,-0.005061,-0.000053,1,0,0,0,0,0,0,0.000667,-0.003355,0.000030,1,0,0,0,0,0,0,0.021936,-0.012511,-0.000129,1,0,0,0,0,0,0
1.770000,0.004268,-0.006010,-0.000054,1,0,0,0,0,0,0,0.001595,-0.002924,0.000028,1,0,0,0,0,0,0,0.021859,-0.012583,-0.000131,1,0,0,0,0,0,0
1.780000,0.004388,-0.006738,-0.000055,1,0,0,0,0,0,0,0.002462,-0.002522,0.000027,1,0,0,0,0,0,0,0.021896,-0.012729,-0.000135,1,0,0,0,0,0,0
1.790000,0.004493,-0.007226,-0.000055,1,0,0,0,0,0,0,0.003258,-0.002154,0.000027,1,0,0,0,0,0,0,0.022050,-0.012949,-0.000140,1,0,0,0,0,0,0
1.800000,0.004583,-0.007461,-0.000053,1,0,0,0,0,0,0,0.003974,-0.001830,0.000026,1,0,0,0,0,0,0,0.022320,-0.013241,-0.000147,1,0,0,0,0,0,0
1.810000,0.004655,-0.007445,-0.000051,1,0,0,0,0,0,0,0.004594,-0.001560,0.000025,1,0,0,0,0,0,0,0.022702,-0.013600,-0.000155,1,0,0,0,0,0,0
1.820000,0.004712,-0.007197,-0.000048,1,0,0,0,0,0,0,0.005097,-0.001359,0.000025,1,0,0,0,0,0,0,0.023188,-0.014018,-0.000165,1,0,0,0,0,0,0
1.830000,0.004753,-0.006748,-0.000044,1,0,0,0,0,0,0,0.005459,-0.001241,0.000023,1,0,0,0,0,0,0,0.023770,-0.014489,-0.000176,1,0,0,0,0,0,0
1.840000,0.004778,-0.006112,-0.000039,1,0,0,0,0,0,0,0.005663,-0.001218,0.000022,1,0,0,0,0,0,0,0.024440,-0.015005,-0.000188,1,0,0,0,0,0,0
1.850000,0.004788,-0.005313,-0.000034,1,0,0,0,0,0,0,0.005695,-0.001299,0.000020,1,0,0,0,0,0,0,0.025193,-0.015562,-0.000201,1,0,0,0,0,0,0
1.860000,0.004784,-0.004385,-0.000028,1,0,0,0,0,0,0,0.005546,-0.001490,0.000017,1,0,0,0,0,0,0,0.026018,-0.016151,-0.000216,1,0,0,0,0,0,0
1.870000,0.004766,-0.003368,-0.000022,1,0,0,0,0,0,0,0.005214,-0.001792,0.000014,1,0,0,0,0,0,0,0.026899,-0.016763,-0.000232,1,0,0,0,0,0,0
1.880000,0.004734,-0.002300,-0.000016,1,0,0,0,0,0,0,0.004704,-0.002202,0.000011,1,0,0,0,0,0,0,0.027821,-0.017390,-0.000249,1,0,0,0,0,0,0
1.890000,0.004690,-0.001207,-0.000010,1,0,0,0,0,0,0,0.004035,-0.002709,0.000008,1,0,0,0,0,0,0,0.028778,-0.018025,-0.000266,1,0,0,0,0,0,0
1.900000,0.004634,-0.000107,-0.000004,1,0,0,0,0,0,0,0.003220,-0.003303,0.000005,1,0,0,0,0,0,0,0.029760,-0.018665,-0.000285,1,0,0,0,0,0,0
1.910000,0.004565,0.000991,0.000001,1,0,0,0,0,0,0,0.002284,-0.003968,0.000002,1,0,0,0,0,0,0,0.030754,-0.019301,-0.000303,1,0,0,0,0,0,0
1.920000,0.004484,0.002074,0.000006,1,0,0,0,0,0,0,0.001260,-0.004681,0.000000,1,0,0,0,0,0,0,0.031751,-0.019928,-0.000323,1,0,0,0,0,0,0
1.930000,0.004392,0.003142,0.000011,1,0,0,0,0,0,0,0.000191,-0.005414,-0.000000,1,0,0,0,0,0,0,0.032736,-0.020537,-0.000342,1,0,0,0,0,0,0
1.940000,0.004288,0.004202,0.000015,1,0,0,0,0,0,0,-0.000895,-0.006146,-0.000000,1,0,0,0,0,0,0,0.033695,-0.021118,-0.000361,1,0,0,0,0,0,0
1.950000,0.004171,0.005243,0.000019,1,0,0,0,0,0,0,-0.001983,-0.006867,0.000001,1,0,0,0,0,0,0,0.034613,-0.021664,-0.000379,1,0,0,0,0,0,0
1.960000,0.004041,0.006253,0.000023,1,0,0,0,0,0,0,-0.003063,-0.007570,0.000003,1,0,0,0,0,0,0,0.035476,-0.022165,-0.000396,1,0,0,0,0,0,0
1.970000,0.003898,0.007219,0.000026,1,0,0,0,0,0,0,-0.004131,-0.008253,0.000006,1,0,0,0,0,0,0,0.036275,-0.022615,-0.000412,1,0,0,0,0,0,0
1.980000,0.003743,0.008134,0.000029,1,0,0,0,0,0,0,-0.005184,-0.008913,0.000009,1,0,0,0,0,0,0,0.037002,-0.023010,-0.000427,1,0,0,0,0,0,0
1.990000,0.003575,0.008996,0.000032,1,0,0,0,0,0,0,-0.006223,-0.009550,0.000014,1,0,0,0,0,0,0,0.037657,-0.023349,-0.000439,1,0,0,0,0,0,0
2.000000,0.003395,0.009806,0.000034,1,0,0,0,0,0,0,-0.007245,-0.010162,0.000019,1,0,0,0,0,0,0,0.038244,-0.023637,-0.000450,1,0,0,0,0,0,0
2.010000,0.003198,0.010570,0.000035,1,0,0,0,0,0,0,-0.008241,-0.010738,0.000024,1,0,0,0,0,0,0,0.038754,-0.023865,-0.000459,1,0,0,0,0,0,0
2.020000,0.002974,0.011288,0.000036,1,0,0,0,0,0,0,-0.009194,-0.011251,0.000030,1,0,0,0,0,0,0,0.039135,-0.024000,-0.000464,1,0,0,0,0,0,0
2.030000,0.002723,0.011973,0.000037,1,0,0,0,0,0,0,-0.010078,-0.011681,0.000035,1,0,0,0,0,0,0,0.039392,-0.024043,-0.000466,1,0,0,0,0,0,0
2.040000,0.002451,0.012642,0.000038,1,0,0,0,0,0,0,-0.010879,-0.012021,0.000040,1,0,0,0,0,0,0,0.039553,-0.024014,-0.000466,1,0,0,0,0,0,0
2.050000,0.002166,0.013303,0.000038,1,0,0,0,0,0,0,-0.011590,-0.012270,0.000044,1,0,0,0,0,0,0,0.039655,-0.023936,-0.000463,1,0,0,0,0,0,0
2.060000,0.001874,0.013958,0.000038,1,0,0,0,0,0,0,-0.012222,-0.012438,0.000048,1,0,0,0,0,0,0,0.039731,-0.023830,-0.000459,1,0,0,0,0,0,0
2.070000,0.001580,0.014600,0.000038,1,0,0,0,0,0,0,-0.012788,-0.012538,0.000051,1,0,0,0,0,0,0,0.039809,-0.023716,-0.000456,1,0,0,0,0,0,0
2.080000,0.001287,0.015228,0.000037,1,0,0,0,0,0,0,-0.013310,-0.012587,0.000053,1,0,0,0,0,0,0,0.039916,-0.023611,-0.000452,1,0,0,0,0,0,0
2.090000,0.000996,0.015848,0.000036,1,0,0,0,0,0,0,-0.013803,-0.012596,0.000055,1,0,0,0,0,0,0,0.040075,-0.023531,-0.000450,1,0,0,0,0,0,0
2.100000,0.000708,0.016473,0.000035,1,0,0,0,0,0,0,-0.014280,-0.012576,0.000057,1,0,0,0,0,0,0,0.040307,-0.023496,-0.000450,1,0,0,0,0,0,0
2.110000,0.000422,0.017120,0.000034,1,0,0,0,0,0,0,-0.014741,-0.012531,0.000058,1,0,0,0,0,0,0,0.040632,-0.023520,-0.000452,1,0,0,0,0,0,0
2.120000,0.000136,0.017800,0.000032,1,0,0,0,0,0,0,-0.015188,-0.012462,0.000059,1,0,0,0,0,0,0,0.041060,-0.023618,-0.000458,1,0,0,0,0,0,0
2.130000,-0.000148,0.018505,0.000030,1,0,0,0,0,0,0,-0.015626,-0.012372,0.000060,1,0,0,0,0,0,0,0.041604,-0.023802,-0.000467,1,0,0,0,0,0,0
2.140000,-0.000430,0.019219,0.000028,1,0,0,0,0,0,0,-0.016063,-0.012264,0.000060,1,0,0,0,0,0,0,0.042278,-0.024084,-0.000480,1,0,0,0,0,0,0
2.150000,-0.000704,0.019927,0.000026,1,0,0,0,0,0,0,-0.016521,-0.012148,0.000060,1,0,0,0,0,0,0,0.043107,-0.024478,-0.000499,1,0,0,0,0,0,0
2.160000,-0.000970,0.020639,0.000023,1,0,0,0,0,0,0,-0.017031,-0.012036,0.000061,1,0,0,0,0,0,0,0.044128,-0.025002,-0.000524,1,0,0,0,0,0,0
2.170000,-0.001225,0.021367,0.000021,1,0,0,0,0,0,0,-0.017610,-0.011934,0.000062,1,0,0,0,0,0,0,0.045383,-0.025679,-0.000556,1,0,0,0,0,0,0
2.180000,-0.001469,0.022138,0.000017,1,0,0,0,0,0,0,-0.018255,-0.011843,0.000062,1,0,0,0,0,0,0,0.046913,-0.026527,-0.000596,1,0,0,0,0,0,0
2.190000,-0.001702,0.023034,0.000014,1,0,0,0,0,0,0,-0.018955,-0.011760,0.000064,1,0,0,0,0,0,0,0.048751,-0.027569,-0.000648,1,0,0,0,0,0,0
2.200000,-0.001928,0.024137,0.000010,1,0,0,0,0,0,0,-0.019694,-0.011682,0.000065,1,0,0,0,0,0,0,0.050923,-0.028829,-0.000712,1,0,0,0,0,0,0
2.210000,-0.002148,0.025502,0.000005,1,0,0,0,0,0,0,-0.020478,-0.011615,0.000067,1,0,0,0,0,0,0,0.053464,-0.030337,-0.000792,1,0,0,0,0,0,0
2.220000,-0.002361,0.027136,-0.000000,1,0,0,0,0,0,0,-0.021341,-0.011576,0.000069,1,0,0,0,0,0,0,0.056426,-0.032132,-0.000892,1,0,0,0,0,0,0
2.230000,-0.002566,0.029030,-0.000007,1,0,0,0,0,0,0,-0.022346,-0.011601,0.000073,1,0,0,0,0,0,0,0.059887,-0.034260,-0.001017,1,0,0,0,0,0,0
2.240000,-0.002758,0.031196,-0.000015,1,0,0,0,0,0,0,-0.023585,-0.011743,0.000079,1,0,0,0,0,0,0,0.063931,-0.036758,-0.001172,1,0,0,0,0,0,0
2.250000,-0.002930,0.033682,-0.000023,1,0,0,0,0,0,0,-0.025189,-0.012080,0.000091,1,0,0,0,0,0,0,0.068593,-0.039630,-0.001363,1,0,0,0,0,0,0
2.260000,-0.003079,0.036543,-0.000034,1,0,0,0,0,0,0,-0.027290,-0.012691,0.000111,1,0,0,0,0,0,0,0.073834,-0.042834,-0.001591,1,0,0,0,0,0,0
2.270000,-0.003210,0.039871,-0.000046,1,0,0,0,0,0,0,-0.029941,-0.013626,0.000141,1,0,0,0,0,0,0,0.079550,-0.046297,-0.001856,1,0,0,0,0,0,0
2.280000,-0.003342,0.043878,-0.000060,1,0,0,0,0,0,0,-0.033167,-0.014923,0.000186,1,0,0,0,0,0,0,0.085608,-0.049929,-0.002156,1,0,0,0,0,0,0
2.290000,-0.003504,0.048845,-0.000078,1,0,0,0,0,0,0,-0.037048,-0.016653,0.000250,1,0,0,0,0,0,0,0.091870,-0.053642,-0.002485,1,0,0,0,0,0,0
2.300000,-0.003714,0.054859,-0.000100,1,0,0,0,0,0,0,-0.041603,-0.018851,0.000340,1,0,0,0,0,0,0,0.098217,-0.057360,-0.002838,1,0,0,0,0,0,0
2.310000,-0.003960,0.061725,-0.000127,1,0,0,0,0,0,0,-0.046772,-0.021478,0.000459,1,0,0,0,0,0,0,0.104552,-0.061021,-0.003209,1,0,0,0,0,0,0
2.320000,-0.004217,0.069234,-0.000157,1,0,0,0,0,0,0,-0.052648,-0.024538,0.000613,1,0,0,0,0,0,0,0.110768,-0.064572,-0.003592,1,0,0,0,0,0,0
2.330000,-0.004460,0.077242,-0.000192,1,0,0,0,0,0,0,-0.059330,-0.028021,0.000810,1,0,0,0,0,0,0,0.116748,-0.067960,-0.003978,1,0,0,0,0,0,0
2.340000,-0.004680,0.085564,-0.000229,1,0,0,0,0,0,0,-0.066660,-0.031785,0.001048,1,0,0,0,0,0,0,0.122398,-0.071151,-0.004361,1,0,0,0,0,0,0
2.350000,-0.004894,0.094017,-0.000268,1,0,0,0,0,0,0,-0.074403,-0.035688,0.001324,1,0,0,0,0,0,0,0.127702,-0.074146,-0.004738,1,0,0,0,0,0,0
2.360000,-0.005132,0.102577,-0.000309,1,0,0,0,0,0,0,-0.082272,-0.039625,0.001633,1,0,0,0,0,0,0,0.132728,-0.076984,-0.005110,1,0,0,0,0,0,0
2.370000,-0.005411,0.111356,-0.000353,1,0,0,0,0,0,0,-0.089957,-0.043541,0.001970,1,0,0,0,0,0,0,0.137584,-0.079721,-0.005483,1,0,0,0,0,0,0
2.380000,-0.005708,0.120378,-0.000401,1,0,0,0,0,0,0,-0.097419,-0.047508,0.002342,1,0,0,0,0,0,0,0.142337,-0.082393,-0.005861,1,0,0,0,0,0,0
2.390000,-0.005968,0.129420,-0.000450,1,0,0,0,0,0,0,-0.104830,-0.051660,0.002761,1,0,0,0,0,0,0,0.146962,-0.084984,-0.006240,1,0,0,0,0,0,0
2.400000,-0.006146,0.138137,-0.000500,1,0,0,0,0,0,0,-0.112341,-0.056057,0.003238,1,0,0,0,0,0,0,0.151379,-0.087449,-0.006612,1,0,0,0,0,0,0
2.410000,-0.006234,0.146190,-0.000546,1,0,0,0,0,0,0,-0.119888,-0.060591,0.003762,1,0,0,0,0,0,0,0.155522,-0.089753,-0.006971,1,0,0,0,0,0,0
2.420000,-0.006253,0.153334,-0.000586,1,0,0,0,0,0,0,-0.127189,-0.065038,0.004308,1,0,0,0,0,0,0,0.159382,-0.091894,-0.007313,1,0,0,0,0,0,0
2.430000,-0.006216,0.159569,-0.000620,1,0,0,0,0,0,0,-0.133946,-0.069219,0.004848,1,0,0,0,0,0,0,0.162988,-0.093905,-0.007643,1,0,0,0,0,0,0
2.440000,-0.006102,0.165111,-0.000647,1,0,0,0,0,0,0,-0.139899,-0.072998,0.005358,1,0,0,0,0,0,0,0.166362,-0.095815,-0.007964,1,0,0,0,0,0,0
2.450000,-0.005885,0.170228,-0.000671,1,0,0,0,0,0,0,-0.144924,-0.076293,0.005817,1,0,0,0,0,0,0,0.169504,-0.097636,-0.008275,1,0,0,0,0,0,0
2.460000,-0.005570,0.175029,-0.000689,1,0,0,0,0,0,0,-0.149107,-0.079126,0.006222,1,0,0,0,0,0,0,0.172422,-0.099368,-0.008577,1,0,0,0,0,0,0
2.470000,-0.005198,0.179415,-0.000702,1,0,0,0,0,0,0,-0.152668,-0.081614,0.006583,1,0,0,0,0,0,0,0.175148,-0.101018,-0.008869,1,0,0,0,0,0,0
2.480000,-0.004809,0.183226,-0.000708,1,0,0,0,0,0,0,-0.155829,-0.083895,0.006919,1,0,0,0,0,0,0,0.177725,-0.102608,-0.009155,1,0,0,0,0,0,0
2.490000,-0.004424,0.186391,-0.000708,1,0,0,0,0,0,0,-0.158701,-0.086029,0.007238,1,0,0,0,0,0,0,0.180185,-0.104163,-0.009438,1,0,0,0,0,0,0
2.500000,-0.004049,0.188984,-0.000702,1,0,0,0,0,0,0,-0.161266,-0.087957,0.007527,1,0,0,0,0,0,0,0.182528,-0.105686,-0.009718,1,0,0,0,0,0,0
2.510000,-0.003697,0.191166,-0.000693,1,0,0,0,0,0,0,-0.163467,-0.089574,0.007768,1,0,0,0,0,0,0,0.184726,-0.107151,-0.009989,1,0,0,0,0,0,0
2.520000,-0.003392,0.193090,-0.000680,1,0,0,0,0,0,0,-0.165278,-0.090824,0.007951,1,0,0,0,0,0,0,0.186716,-0.108494,-0.010240,1,0,0,0,0,0,0
2.530000,-0.003153,0.194840,-0.000665,1,0,0,0,0,0,0,-0.166733,-0.091754,0.008082,1,0,0,0,0,0,0,0.188373,-0.109620,-0.010451,1,0,0,0,0,0,0
2.540000,-0.002981,0.196427,-0.000649,1,0,0,0,0,0,0,-0.167936,-0.092482,0.008181,1,0,0,0,0,0,0,0.189533,-0.110428,-0.010602,1,0,0,0,0,0,0
2.550000,-0.002865,0.197845,-0.000632,1,0,0,0,0,0,0,-0.169033,-0.093133,0.008268,1,0,0,0,0,0,0,0.190044,-0.110837,-0.010676,1,0,0,0,0,0,0
2.560000,-0.002803,0.199141,-0.000614,1,0,0,0,0,0,0,-0.170180,-0.093805,0.008360,1,0,0,0,0,0,0,0.189810,-0.110801,-0.010663,1,0,0,0,0,0,0
2.570000,-0.002799,0.200412,-0.000597,1,0,0,0,0,0,0,-0.171490,-0.094568,0.008470,1,0,0,0,0,0,0,0.188835,-0.110324,-0.010565,1,0,0,0,0,0,0
2.580000,-0.002840,0.201766,-0.000582,1,0,0,0,0,0,0,-0.172970,-0.095466,0.008606,1,0,0,0,0,0,0,0.187199,-0.109453,-0.010392,1,0,0,0,0,0,0
2.590000,-0.002890,0.203250,-0.000568,1,0,0,0,0,0,0,-0.174553,-0.096518,0.008772,1,0,0,0,0,0,0,0.185016,-0.108258,-0.010159,1,0,0,0,0,0,0
2.600000,-0.002906,0.204792,-0.000555,1,0,0,0,0,0,0,-0.176151,-0.097696,0.008962,1,0,0,0,0,0,0,0.182382,-0.106798,-0.009879,1,0,0,0,0,0,0
2.610000,-0.002862,0.206206,-0.000543,1,0,0,0,0,0,0,-0.177651,-0.098904,0.009159,1,0,0,0,0,0,0,0.179365,-0.105112,-0.009563,1,0,0,0,0,0,0
2.620000,-0.002757,0.207255,-0.000530,1,0,0,0,0,0,0,-0.178925,-0.100018,0.009340,1,0,0,0,0,0,0,0.176025,-0.103225,-0.009216,1,0,0,0,0,0,0
2.630000,-0.002594,0.207690,-0.000517,1,0,0,0,0,0,0,-0.179852,-0.100939,0.009486,1,0,0,0,0,0,0,0.172447,-0.101167,-0.008845,1,0,0,0,0,0,0
2.640000,-0.002378,0.207336,-0.000501,1,0,0,0,0,0,0,-0.180308,-0.101595,0.009584,1,0,0,0,0,0,0,0.168721,-0.098971,-0.008459,1,0,0,0,0,0,0
2.650000,-0.002116,0.206164,-0.000483,1,0,0,0,0,0,0,-0.180185,-0.101931,0.009622,1,0,0,0,0,0,0,0.164878,-0.096655,-0.008061,1,0,0,0,0,0,0
2.660000,-0.001836,0.204279,-0.000463,1,0,0,0,0,0,0,-0.179433,-0.101928,0.009598,1,0,0,0,0,0,0,0.160871,-0.094205,-0.007652,1,0,0,0,0,0,0
2.670000,-0.001580,0.201846,-0.000443,1,0,0,0,0,0,0,-0.178032,-0.101588,0.009511,1,0,0,0,0,0,0,0.156619,-0.091597,-0.007229,1,0,0,0,0,0,0
2.680000,-0.001382,0.198973,-0.000421,1,0,0,0,0,0,0,-0.175988,-0.100932,0.009367,1,0,0,0,0,0,0,0.152093,-0.088823,-0.006792,1,0,0,0,0,0,0
2.690000,-0.001247,0.195590,-0.000400,1,0,0,0,0,0,0,-0.173341,-0.099986,0.009172,1,0,0,0,0,0,0,0.147343,-0.085909,-0.006349,1,0,0,0,0,0,0
2.700000,-0.001160,0.191526,-0.000378,1,0,0,0,0,0,0,-0.170191,-0.098759,0.008930,1,0,0,0,0,0,0,0.142465,-0.082897,-0.005906,1,0,0,0,0,0,0
2.710000,-0.001105,0.186644,-0.000356,1,0,0,0,0,0,0,-0.166672,-0.097217,0.008637,1,0,0,0,0,0,0,0.137531,-0.079831,-0.005472,1,0,0,0,0,0,0
2.720000,-0.001098,0.180971,-0.000334,1,0,0,0,0,0,0,-0.162880,-0.095283,0.008283,1,0,0,0,0,0,0,0.132569,-0.076746,-0.005053,1,0,0,0,0,0,0
2.730000,-0.001185,0.174716,-0.000312,1,0,0,0,0,0,0,-0.158789,-0.092865,0.007859,1,0,0,0,0,0,0,0.127573,-0.073672,-0.004651,1,0,0,0,0,0,0
2.740000,-0.001420,0.168176,-0.000291,1,0,0,0,0,0,0,-0.154254,-0.089894,0.007359,1,0,0,0,0,0,0,0.122539,-0.070633,-0.004270,1,0,0,0,0,0,0
2.750000,-0.001841,0.161629,-0.000269,1,0,0,0,0,0,0,-0.149169,-0.086352,0.006789,1,0,0,0,0,0,0,0.117494,-0.067658,-0.003913,1,0,0,0,0,0,0
2.760000,-0.002454,0.155223,-0.000246,1,0,0,0,0,0,0,-0.143572,-0.082322,0.006170,1,0,0,0,0,0,0,0.112484,-0.064769,-0.003582,1,0,0,0,0,0,0
2.770000,-0.003241,0.148946,-0.000224,1,0,0,0,0,0,0,-0.137686,-0.077972,0.005534,1,0,0,0,0,0,0,0.107548,-0.061976,-0.003276,1,0,0,0,0,0,0
2.780000,-0.004179,0.142695,-0.000199,1,0,0,0,0,0,0,-0.131837,-0.073496,0.004913,1,0,0,0,0,0,0,0.102697,-0.059268,-0.002993,1,0,0,0,0,0,0
2.790000,-0.005255,0.136390,-0.000173,1,0,0,0,0,0,0,-0.126297,-0.069038,0.004325,1,0,0,0,0,0,0,0.097922,-0.056627,-0.002730,1,0,0,0,0,0,0
2.800000,-0.006468,0.130039,-0.000145,1,0,0,0,0,0,0,-0.121159,-0.064653,0.003777,1,0,0,0,0,0,0,0.093195,-0.054028,-0.002483,1,0,0,0,0,0,0
2.810000,-0.007809,0.123734,-0.000114,1,0,0,0,0,0,0,-0.116332,-0.060313,0.003263,1,0,0,0,0,0,0,0.088476,-0.051441,-0.002249,1,0,0,0,0,0,0
2.820000,-0.009252,0.117600,-0.000081,1,0,0,0,0,0,0,-0.111679,-0.055972,0.002776,1,0,0,0,0,0,0,0.083745,-0.048854,-0.002027,1,0,0,0,0,0,0
2.830000,-0.010753,0.111767,-0.000047,1,0,0,0,0,0,0,-0.107140,-0.051628,0.002315,1,0,0,0,0,0,0,0.079025,-0.046287,-0.001818,1,0,0,0,0,0,0
2.840000,-0.012264,0.106325,-0.000015,1,0,0,0,0,0,0,-0.102741,-0.047337,0.001886,1,0,0,0,0,0,0,0.074375,-0.043785,-0.001626,1,0,0,0,0,0,0
2.850000,-0.013735,0.101327,0.000014,1,0,0,0,0,0,0,-0.098534,-0.043196,0.001497,1,0,0,0,0,0,0,0.069869,-0.041400,-0.001454,1,0,0,0,0,0,0
2.860000,-0.015125,0.096796,0.000040,1,0,0,0,0,0,0,-0.094613,-0.039326,0.001156,1,0,0,0,0,0,0,0.065581,-0.039173,-0.001302,1,0,0,0,0,0,0
2.870000,-0.016396,0.092695,0.000060,1,0,0,0,0,0,0,-0.091069,-0.035839,0.000870,1,0,0,0,0,0,0,0.061594,-0.037141,-0.001171,1,0,0,0,0,0,0
2.880000,-0.017522,0.088995,0.000075,1,0,0,0,0,0,0,-0.087937,-0.032809,0.000641,1,0,0,0,0,0,0,0.058007,-0.035347,-0.001062,1,0,0,0,0,0,0
2.890000,-0.018480,0.085690,0.000085,1,0,0,0,0,0,0,-0.085199,-0.030269,0.000467,1,0,0,0,0,0,0,0.054902,-0.033822,-0.000974,1,0,0,0,0,0,0
2.900000,-0.019241,0.082786,0.000088,1,0,0,0,0,0,0,-0.082824,-0.028237,0.000344,1,0,0,0,0,0,0,0.052344,-0.032588,-0.000905,1,0,0,0,0,0,0
2.910000,-0.019772,0.080288,0.000084,1,0,0,0,0,0,0,-0.080768,-0.026711,0.000267,1,0,0,0,0,0,0,0.050348,-0.031651,-0.000854,1,0,0,0,0,0,0
2.920000,-0.020044,0.078176,0.000074,1,0,0,0,0,0,0,-0.078972,-0.025658,0.000232,1,0,0,0,0,0,0,0.048889,-0.030994,-0.000818,1,0,0,0,0,0,0
2.930000,-0.020045,0.076404,0.000058,1,0,0,0,0,0,0,-0.077371,-0.025017,0.000229,1,0,0,0,0,0,0,0.047930,-0.030591,-0.000795,1,0,0,0,0,0,0
2.940000,-0.019773,0.074921,0.000037,1,0,0,0,0,0,0,-0.075925,-0.024728,0.000252,1,0,0,0,0,0,0,0.047429,-0.030412,-0.000783,1,0,0,0,0,0,0
2.950000,-0.019236,0.073680,0.000014,1,0,0,0,0,0,0,-0.074602,-0.024743,0.000296,1,0,0,0,0,0,0,0.047336,-0.030419,-0.000779,1,0,0,0,0,0,0
2.960000,-0.018467,0.072565,-0.000010,1,0,0,0,0,0,0,-0.073336,-0.024982,0.000353,1,0,0,0,0,0,0,0.047599,-0.030579,-0.000783,1,0,0,0,0,0,0
2.970000,-0.017506,0.071457,-0.000032,1,0,0,0,0,0,0,-0.072081,-0.025393,0.000419,1,0,0,0,0,0,0,0.048187,-0.030875,-0.000794,1,0,0,0,0,0,0
2.980000,-0.016393,0.070284,-0.000049,1,0,0,0,0,0,0,-0.070804,-0.025933,0.000489,1,0,0,0,0,0,0,0.049055,-0.031289,-0.000811,1,0,0,0,0,0,0
2.990000,-0.015167,0.069057,-0.000063,1,0,0,0,0,0,0,-0.069506,-0.026570,0.000562,1,0,0,0,0,0,0,0.050144,-0.031800,-0.000834,1,0,0,0,0,0,0
3.000000,-0.013866,0.067858,-0.000076,1,0,0,0,0,0,0,-0.068204,-0.027269,0.000634,1,0,0,0,0,0,0,0.051411,-0.032393,-0.000861,1,0,0,0,0,0,0
3.010000,-0.012535,0.066794,-0.000087,1,0,0,0,0,0,0,-0.066915,-0.027989,0.000703,1,0,0,0,0,0,0,0.052845,-0.033066,-0.000895,1,0,0,0,0,0,0
3.020000,-0.011228,0.065935,-0.000099,1,0,0,0,0,0,0,-0.065663,-0.028706,0.000766,1,0,0,0,0,0,0,0.054459,-0.033827,-0.000934,1,0,0,0,0,0,0
3.030000,-0.009989,0.065276,-0.000110,1,0,0,0,0,0,0,-0.064480,-0.029415,0.000825,1,0,0,0,0,0,0,0.056267,-0.034690,-0.000981,1,0,0,0,0,0,0
3.040000,-0.008849,0.064765,-0.000120,1,0,0,0,0,0,0,-0.063403,-0.030111,0.000879,1,0,0,0,0,0,0,0.058262,-0.035662,-0.001036,1,0,0,0,0,0,0
3.050000,-0.007828,0.064351,-0.000129,1,0,0,0,0,0,0,-0.062481,-0.030778,0.000927,1,0,0,0,0,0,0,0.060408,-0.036740,-0.001100,1,0,0,0,0,0,0
3.060000,-0.006951,0.064025,-0.000135,1,0,0,0,0,0,0,-0.061779,-0.031378,0.000968,1,0,0,0,0,0,0,0.062645,-0.037910,-0.001172,1,0,0,0,0,0,0
3.070000,-0.006254,0.063828,-0.000140,1,0,0,0,0,0,0,-0.061351,-0.031842,0.000998,1,0,0,0,0,0,0,0.064916,-0.039153,-0.001252,1,0,0,0,0,0,0
3.080000,-0.005769,0.063820,-0.000145,1,0,0,0,0,0,0,-0.061209,-0.032092,0.001013,1,0,0,0,0,0,0,0.067176,-0.040447,-0.001339,1,0,0,0,0,0,0
3.090000,-0.005528,0.064086,-0.000150,1,0,0,0,0,0,0,-0.061322,-0.032067,0.001011,1,0,0,0,0,0,0,0.069409,-0.041775,-0.001431,1,0,0,0,0,0,0
3.100000,-0.005565,0.064753,-0.000156,1,0,0,0,0,0,0,-0.061643,-0.031776,0.000991,1,0,0,0,0,0,0,0.071613,-0.043131,-0.001528,1,0,0,0,0,0,0
3.110000,-0.005895,0.065947,-0.000164,1,0,0,0,0,0,0,-0.062163,-0.031299,0.000961,1,0,0,0,0,0,0,0.073775,-0.044501,-0.001629,1,0,0,0,0,0,0
3.120000,-0.006494,0.067688,-0.000177,1,0,0,0,0,0,0,-0.062947,-0.030767,0.000928,1,0,0,0,0,0,0,0.075860,-0.045866,-0.001732,1,0,0,0,0,0,0
3.130000,-0.007321,0.069895,-0.000194,1,0,0,0,0,0,0,-0.064102,-0.030313,0.000901,1,0,0,0,0,0,0,0.077826,-0.047202,-0.001835,1,0,0,0,0,0,0
3.140000,-0.008346,0.072473,-0.000218,1,0,0,0,0,0,0,-0.065734,-0.030045,0.000887,1,0,0,0,0,0,0,0.079657,-0.048496,-0.001938,1,0,0,0,0,0,0
3.150000,-0.009548,0.075341,-0.000248,1,0,0,0,0,0,0,-0.067941,-0.030029,0.000891,1,0,0,0,0,0,0,0.081389,-0.049761,-0.002040,1,0,0,0,0,0,0
3.160000,-0.010873,0.078396,-0.000285,1,0,0,0,0,0,0,-0.070725,-0.030278,0.000915,1,0,0,0,0,0,0,0.083118,-0.051041,-0.002145,1,0,0,0,0,0,0
3.170000,-0.012234,0.081572,-0.000329,1,0,0,0,0,0,0,-0.074008,-0.030763,0.000959,1,0,0,0,0,0,0,0.084973,-0.052404,-0.002259,1,0,0,0,0,0,0
3.180000,-0.013567,0.084961,-0.000382,1,0,0,0,0,0,0,-0.077722,-0.031463,0.001022,1,0,0,0,0,0,0,0.087072,-0.053912,-0.002387,1,0,0,0,0,0,0
3.190000,-0.014838,0.088770,-0.000447,1,0,0,0,0,0,0,-0.081807,-0.032382,0.001107,1,0,0,0,0,0,0,0.089471,-0.055595,-0.002534,1,0,0,0,0,0,0
3.200000,-0.016007,0.093111,-0.000527,1,0,0,0,0,0,0,-0.086113,-0.033514,0.001214,1,0,0,0,0,0,0,0.092168,-0.057441,-0.002700,1,0,0,0,0,0,0
3.210000,-0.017035,0.097875,-0.000618,1,0,0,0,0,0,0,-0.090452,-0.034862,0.001347,1,0,0,0,0,0,0,0.095115,-0.059403,-0.002882,1,0,0,0,0,0,0
3.220000,-0.017890,0.102889,-0.000719,1,0,0,0,0,0,0,-0.094764,-0.036477,0.001511,1,0,0,0,0,0,0,0.098248,-0.061417,-0.003074,1,0,0,0,0,0,0
3.230000,-0.018535,0.108019,-0.000825,1,0,0,0,0,0,0,-0.099150,-0.038464,0.001717,1,0,0,0,0,0,0,0.101498,-0.063419,-0.003272,1,0,0,0,0,0,0
3.240000,-0.018949,0.113144,-0.000933,1,0,0,0,0,0,0,-0.103772,-0.040919,0.001979,1,0,0,0,0,0,0,0.104786,-0.065353,-0.003469,1,0,0,0,0,0,0
3.250000,-0.019131,0.118190,-0.001039,1,0,0,0,0,0,0,-0.108623,-0.043778,0.002294,1,0,0,0,0,0,0,0.108020,-0.067171,-0.003661,1,0,0,0,0,0,0
3.260000,-0.019101,0.123162,-0.001142,1,0,0,0,0,0,0,-0.113545,-0.046874,0.002645,1,0,0,0,0,0,0,0.111103,-0.068836,-0.003842,1,0,0,0,0,0,0
3.270000,-0.018878,0.128076,-0.001240,1,0,0,0,0,0,0,-0.118334,-0.050034,0.003016,1,0,0,0,0,0,0,0.113952,-0.070316,-0.004008,1,0,0,0,0,0,0
3.280000,-0.018486,0.132873,-0.001330,1,0,0,0,0,0,0,-0.122815,-0.053129,0.003390,1,0,0,0,0,0,0,0.116511,-0.071588,-0.004155,1,0,0,0,0,0,0
3.290000,-0.017953,0.137409,-0.001410,1,0,0,0,0,0,0,-0.126846,-0.056054,0.003752,1,0,0,0,0,0,0,0.118749,-0.072640,-0.004281,1,0,0,0,0,0,0
3.300000,-0.017317,0.141521,-0.001475,1,0,0,0,0,0,0,-0.130422,-0.058776,0.004095,1,0,0,0,0,0,0,0.120656,-0.073474,-0.004383,1,0,0,0,0,0,0
3.310000,-0.016641,0.145091,-0.001524,1,0,0,0,0,0,0,-0.133625,-0.061296,0.004417,1,0,0,0,0,0,0,0.122228,-0.074107,-0.004463,1,0,0,0,0,0,0
3.320000,-0.016000,0.148082,-0.001556,1,0,0,0,0,0,0,-0.136515,-0.063579,0.004710,1,0,0,0,0,0,0,0.123474,-0.074563,-0.004523,1,0,0,0,0,0,0
3.330000,-0.015460,0.150554,-0.001576,1,0,0,0,0,0,0,-0.139075,-0.065565,0.004966,1,0,0,0,0,0,0,0.124417,-0.074874,-0.004567,1,0,0,0,0,0,0
3.340000,-0.015057,0.152617,-0.001584,1,0,0,0,0,0,0,-0.141252,-0.067203,0.005175,1,0,0,0,0,0,0,0.125084,-0.075066,-0.004597,1,0,0,0,0,0,0
3.350000,-0.014796,0.154384,-0.001586,1,0,0,0,0,0,0,-0.143023,-0.068490,0.005335,1,0,0,0,0,0,0,0.125491,-0.075157,-0.004614,1,0,0,0,0,0,0
3.360000,-0.014664,0.155922,-0.001583,1,0,0,0,0,0,0,-0.144421,-0.069457,0.005450,1,0,0,0,0,0,0,0.125634,-0.075155,-0.004620,1,0,0,0,0,0,0
3.370000,-0.014655,0.157227,-0.001576,1,0,0,0,0,0,0,-0.145519,-0.070135,0.005524,1,0,0,0,0,0,0,0.125498,-0.075063,-0.004615,1,0,0,0,0,0,0
3.380000,-0.014784,0.158252,-0.001566,1,0,0,0,0,0,0,-0.146411,-0.070530,0.005557,1,0,0,0,0,0,0,0.125078,-0.074885,-0.004599,1,0,0,0,0,0,0
3.390000,-0.015072,0.158965,-0.001552,1,0,0,0,0,0,0,-0.147145,-0.070624,0.005547,1,0,0,0,0,0,0,0.124399,-0.074629,-0.004573,1,0,0,0,0,0,0
3.400000,-0.015521,0.159364,-0.001536,1,0,0,0,0,0,0,-0.147714,-0.070399,0.005492,1,0,0,0,0,0,0,0.123525,-0.074314,-0.004538,1,0,0,0,0,0,0
3.410000,-0.016101,0.159492,-0.001519,1,0,0,0,0,0,0,-0.148070,-0.069861,0.005393,1,0,0,0,0,0,0,0.122532,-0.073970,-0.004500,1,0,0,0,0,0,0
3.420000,-0.016771,0.159444,-0.001502,1,0,0,0,0,0,0,-0.148166,-0.069044,0.005257,1,0,0,0,0,0,0,0.121497,-0.073632,-0.004461,1,0,0,0,0,0,0
3.430000,-0.017495,0.159326,-0.001488,1,0,0,0,0,0,0,-0.148014,-0.068021,0.005094,1,0,0,0,0,0,0,0.120496,-0.073351,-0.004429,1,0,0,0,0,0,0
3.440000,-0.018239,0.159209,-0.001479,1,0,0,0,0,0,0,-0.147680,-0.066902,0.004921,1,0,0,0,0,0,0,0.119592,-0.073167,-0.004407,1,0,0,0,0,0,0
3.450000,-0.018966,0.159086,-0.001473,1,0,0,0,0,0,0,-0.147252,-0.065820,0.004759,1,0,0,0,0,0,0,0.118858,-0.073114,-0.004400,1,0,0,0,0,0,0
3.460000,-0.019631,0.158888,-0.001469,1,0,0,0,0,0,0,-0.146781,-0.064906,0.004627,1,0,0,0,0,0,0,0.118382,-0.073213,-0.004409,1,0,0,0,0,0,0
3.470000,-0.020171,0.158527,-0.001465,1,0,0,0,0,0,0,-0.146274,-0.064248,0.004536,1,0,0,0,0,0,0,0.118260,-0.073477,-0.004437,1,0,0,0,0,0,0
3.480000,-0.020521,0.157928,-0.001460,1,0,0,0,0,0,0,-0.145727,-0.063878,0.004491,1,0,0,0,0,0,0,0.118543,-0.073893,-0.004483,1,0,0,0,0,0,0
3.490000,-0.020631,0.157074,-0.001450,1,0,0,0,0,0,0,-0.145158,-0.063770,0.004485,1,0,0,0,0,0,0,0.119198,-0.074419,-0.004540,1,0,0,0,0,0,0
3.500000,-0.020480,0.156044,-0.001439,1,0,0,0,0,0,0,-0.144588,-0.063855,0.004507,1,0,0,0,0,0,0,0.120117,-0.074985,-0.004603,1,0,0,0,0,0,0
3.510000,-0.020071,0.154986,-0.001427,1,0,0,0,0,0,0,-0.144001,-0.064058,0.004544,1,0,0,0,0,0,0,0.121131,-0.075501,-0.004660,1,0,0,0,0,0,0
3.520000,-0.019419,0.154037,-0.001416,1,0,0,0,0,0,0,-0.143330,-0.064332,0.004590,1,0,0,0,0,0,0,0.122089,-0.075885,-0.004702,1,0,0,0,0,0,0
3.530000,-0.018543,0.153252,-0.001407,1,0,0,0,0,0,0,-0.142454,-0.064662,0.004640,1,0,0,0,0,0,0,0.122886,-0.076083,-0.004722,1,0,0,0,0,0,0
3.540000,-0.017466,0.152577,-0.001397,1,0,0,0,0,0,0,-0.141297,-0.065074,0.004699,1,0,0,0,0,0,0,0.123468,-0.076066,-0.004717,1,0,0,0,0,0,0
3.550000,-0.016211,0.151895,-0.001384,1,0,0,0,0,0,0,-0.139893,-0.065624,0.004774,1,0,0,0,0,0,0,0.123799,-0.075826,-0.004686,1,0,0,0,0,0,0
3.560000,-0.014804,0.151068,-0.001365,1,0,0,0,0,0,0,-0.138357,-0.066344,0.004866,1,0,0,0,0,0,0,0.123831,-0.075352,-0.004627,1,0,0,0,0,0,0
3.570000,-0.013278,0.149993,-0.001337,1,0,0,0,0,0,0,-0.136820,-0.067227,0.004976,1,0,0,0,0,0,0,0.123516,-0.074639,-0.004540,1,0,0,0,0,0,0
3.580000,-0.011670,0.148629,-0.001303,1,0,0,0,0,0,0,-0.135335,-0.068200,0.005090,1,0,0,0,0,0,0,0.122835,-0.073694,-0.004426,1,0,0,0,0,0,0
3.590000,-0.010027,0.146982,-0.001261,1,0,0,0,0,0,0,-0.133845,-0.069114,0.005189,1,0,0,0,0,0,0,0.121804,-0.072541,-0.004289,1,0,0,0,0,0,0
3.600000,-0.008405,0.145103,-0.001215,1,0,0,0,0,0,0,-0.132234,-0.069813,0.005252,1,0,0,0,0,0,0,0.120464,-0.071223,-0.004136,1,0,0,0,0,0,0
3.610000,-0.006862,0.143062,-0.001166,1,0,0,0,0,0,0,-0.130371,-0.070162,0.005264,1,0,0,0,0,0,0,0.118859,-0.069789,-0.003972,1,0,0,0,0,0,0
3.620000,-0.005460,0.140890,-0.001114,1,0,0,0,0,0,0,-0.128200,-0.070104,0.005217,1,0,0,0,0,0,0,0.117018,-0.068282,-0.003803,1,0,0,0,0,0,0
3.630000,-0.004255,0.138553,-0.001061,1,0,0,0,0,0,0,-0.125729,-0.069644,0.005117,1,0,0,0,0,0,0,0.114965,-0.066737,-0.003634,1,0,0,0,0,0,0
3.640000,-0.003297,0.135990,-0.001006,1,0,0,0,0,0,0,-0.123013,-0.068822,0.004971,1,0,0,0,0,0,0,0.112727,-0.065179,-0.003467,1,0,0,0,0,0,0
3.650000,-0.002625,0.133159,-0.000952,1,0,0,0,0,0,0,-0.120143,-0.067681,0.004787,1,0,0,0,0,0,0,0.110339,-0.063625,-0.003305,1,0,0,0,0,0,0
3.660000,-0.002261,0.130096,-0.000898,1,0,0,0,0,0,0,-0.117250,-0.066260,0.004574,1,0,0,0,0,0,0,0.107845,-0.062097,-0.003150,1,0,0,0,0,0,0
3.670000,-0.002200,0.126925,-0.000845,1,0,0,0,0,0,0,-0.114447,-0.064602,0.004339,1,0,0,0,0,0,0,0.105303,-0.060623,-0.003004,1,0,0,0,0,0,0
3.680000,-0.002418,0.123819,-0.000795,1,0,0,0,0,0,0,-0.111791,-0.062743,0.004088,1,0,0,0,0,0,0,0.102777,-0.059239,-0.002871,1,0,0,0,0,0,0
3.690000,-0.002882,0.120923,-0.000747,1,0,0,0,0,0,0,-0.109271,-0.060702,0.003824,1,0,0,0,0,0,0,0.100343,-0.057987,-0.002754,1,0,0,0,0,0,0
3.700000,-0.003544,0.118262,-0.000702,1,0,0,0,0,0,0,-0.106821,-0.058487,0.003551,1,0,0,0,0,0,0,0.098079,-0.056906,-0.002656,1,0,0,0,0,0,0
3.710000,-0.004372,0.115761,-0.000660,1,0,0,0,0,0,0,-0.104391,-0.056107,0.003271,1,0,0,0,0,0,0,0.096091,-0.056042,-0.002580,1,0,0,0,0,0,0
3.720000,-0.005341,0.113321,-0.000621,1,0,0,0,0,0,0,-0.101995,-0.053603,0.002988,1,0,0,0,0,0,0,0.094480,-0.055433,-0.002530,1,0,0,0,0,0,0
3.730000,-0.006428,0.110897,-0.000585,1,0,0,0,0,0,0,-0.099712,-0.051049,0.002711,1,0,0,0,0,0,0,0.093318,-0.055100,-0.002504,1,0,0,0,0,0,0
3.740000,-0.007593,0.108518,-0.000552,1,0,0,0,0,0,0,-0.097624,-0.048533,0.002449,1,0,0,0,0,0,0,0.092631,-0.055044,-0.002504,1,0,0,0,0,0,0
3.750000,-0.008793,0.106294,-0.000522,1,0,0,0,0,0,0,-0.095790,-0.046133,0.002208,1,0,0,0,0,0,0,0.092406,-0.055241,-0.002526,1,0,0,0,0,0,0
3.760000,-0.009982,0.104342,-0.000498,1,0,0,0,0,0,0,-0.094186,-0.043899,0.001992,1,0,0,0,0,0,0,0.092621,-0.055656,-0.002567,1,0,0,0,0,0,0
3.770000,-0.011111,0.102720,-0.000480,1,0,0,0,0,0,0,-0.092751,-0.041869,0.001804,1,0,0,0,0,0,0,0.093227,-0.056231,-0.002622,1,0,0,0,0,0,0
3.780000,-0.012131,0.101432,-0.000468,1,0,0,0,0,0,0,-0.091446,-0.040096,0.001646,1,0,0,0,0,0,0,0.094144,-0.056886,-0.002684,1,0,0,0,0,0,0
3.790000,-0.012988,0.100413,-0.000462,1,0,0,0,0,0,0,-0.090292,-0.038669,0.001525,1,0,0,0,0,0,0,0.095259,-0.057539,-0.002746,1,0,0,0,0,0,0
3.800000,-0.013635,0.099578,-0.000460,1,0,0,0,0,0,0,-0.089377,-0.037690,0.001449,1,0,0,0,0,0,0,0.096451,-0.058122,-0.002802,1,0,0,0,0,0,0
3.810000,-0.014036,0.098877,-0.000463,1,0,0,0,0,0,0,-0.088784,-0.037219,0.001420,1,0,0,0,0,0,0,0.097597,-0.058586,-0.002848,1,0,0,0,0,0,0
3.820000,-0.014179,0.098318,-0.000468,1,0,0,0,0,0,0,-0.088521,-0.037223,0.001434,1,0,0,0,0,0,0,0.098579,-0.058892,-0.002878,1,0,0,0,0,0,0
3.830000,-0.014065,0.097940,-0.000476,1,0,0,0,0,0,0,-0.088518,-0.037589,0.001480,1,0,0,0,0,0,0,0.099342,-0.059036,-0.002894,1,0,0,0,0,0,0
3.840000,-0.013695,0.097793,-0.000487,1,0,0,0,0,0,0,-0.088675,-0.038202,0.001546,1,0,0,0,0,0,0,0.099906,-0.059042,-0.002897,1,0,0,0,0,0,0
3.850000,-0.013066,0.097925,-0.000500,1,0,0,0,0,0,0,-0.088891,-0.038987,0.001626,1,0,0,0,0,0,0,0.100327,-0.058953,-0.002891,1,0,0,0,0,0,0
3.860000,-0.012182,0.098351,-0.000515,1,0,0,0,0,0,0,-0.089071,-0.039913,0.001716,1,0,0,0,0,0,0,0.100648,-0.058807,-0.002880,1,0,0,0,0,0,0
3.870000,-0.011073,0.099028,-0.000530,1,0,0,0,0,0,0,-0.089178,-0.041002,0.001818,1,0,0,0,0,0,0,0.100877,-0.058633,-0.002867,1,0,0,0,0,0,0
3.880000,-0.009784,0.099869,-0.000541,1,0,0,0,0,0,0,-0.089232,-0.042290,0.001936,1,0,0,0,0,0,0,0.101009,-0.058445,-0.002853,1,0,0,0,0,0,0
3.890000,-0.008368,0.100745,-0.000548,1,0,0,0,0,0,0,-0.089263,-0.043783,0.002068,1,0,0,0,0,0,0,0.101043,-0.058251,-0.002839,1,0,0,0,0,0,0
3.900000,-0.006867,0.101512,-0.000549,1,0,0,0,0,0,0,-0.089294,-0.045449,0.002213,1,0,0,0,0,0,0,0.101009,-0.058065,-0.002826,1,0,0,0,0,0,0
3.910000,-0.005302,0.102061,-0.000543,1,0,0,0,0,0,0,-0.089339,-0.047240,0.002365,1,0,0,0,0,0,0,0.100957,-0.057907,-0.002817,1,0,0,0,0,0,0
3.920000,-0.003698,0.102350,-0.000530,1,0,0,0,0,0,0,-0.089375,-0.049065,0.002515,1,0,0,0,0,0,0,0.100944,-0.057811,-0.002814,1,0,0,0,0,0,0
3.930000,-0.002097,0.102430,-0.000512,1,0,0,0,0,0,0,-0.089365,-0.050799,0.002654,1,0,0,0,0,0,0,0.101001,-0.057807,-0.002820,1,0,0,0,0,0,0
3.940000,-0.000564,0.102407,-0.000490,1,0,0,0,0,0,0,-0.089282,-0.052318,0.002769,1,0,0,0,0,0,0,0.101129,-0.057906,-0.002836,1,0,0,0,0,0,0
3.950000,0.000819,0.102382,-0.000464,1,0,0,0,0,0,0,-0.089107,-0.053515,0.002852,1,0,0,0,0,0,0,0.101313,-0.058109,-0.002862,1,0,0,0,0,0,0
3.960000,0.001982,0.102378,-0.000435,1,0,0,0,0,0,0,-0.088789,-0.054319,0.002898,1,0,0,0,0,0,0,0.101564,-0.058416,-0.002899,1,0,0,0,0,0,0
3.970000,0.002886,0.102355,-0.000404,1,0,0,0,0,0,0,-0.088265,-0.054732,0.002906,1,0,0,0,0,0,0,0.101951,-0.058856,-0.002949,1,0,0,0,0,0,0
3.980000,0.003523,0.102257,-0.000372,1,0,0,0,0,0,0,-0.087528,-0.054823,0.002885,1,0,0,0,0,0,0,0.102561,-0.059463,-0.003015,1,0,0,0,0,0,0
3.990000,0.003905,0.102065,-0.000340,1,0,0,0,0,0,0,-0.086658,-0.054700,0.002846,1,0,0,0,0,0,0,0.103465,-0.060264,-0.003101,1,0,0,0,0,0,0
4.000000,0.004041,0.101827,-0.000309,1,0,0,0,0,0,0,-0.085823,-0.054465,0.002797,1,0,0,0,0,0,0,0.104693,-0.061263,-0.003207,1,0,0,0,0,0,0
4.010000,0.003949,0.101719,-0.000278,1,0,0,0,0,0,0,-0.085283,-0.054221,0.002748,1,0,0,0,0,0,0,0.106307,-0.062485,-0.003337,1,0,0,0,0,0,0
4.020000,0.003667,0.102068,-0.000247,1,0,0,0,0,0,0,-0.085333,-0.054090,0.002710,1,0,0,0,0,0,0,0.108519,-0.064036,-0.003505,1,0,0,0,0,0,0
4.030000,0.003232,0.102960,-0.000216,1,0,0,0,0,0,0,-0.085953,-0.054050,0.002682,1,0,0,0,0,0,0,0.111324,-0.065901,-0.003710,1,0,0,0,0,0,0
4.040000,0.002682,0.104357,-0.000188,1,0,0,0,0,0,0,-0.086967,-0.054041,0.002658,1,0,0,0,0,0,0,0.114628,-0.068011,-0.003948,1,0,0,0,0,0,0
4.050000,0.002044,0.106162,-0.000162,1,0,0,0,0,0,0,-0.088222,-0.054040,0.002638,1,0,0,0,0,0,0,0.118300,-0.070279,-0.004211,1,0,0,0,0,0,0
4.060000,0.001336,0.108263,-0.000140,1,0,0,0,0,0,0,-0.089659,-0.054069,0.002624,1,0,0,0,0,0,0,0.122192,-0.072606,-0.004490,1,0,0,0,0,0,0
4.070000,0.000559,0.110567,-0.000124,1,0,0,0,0,0,0,-0.091284,-0.054171,0.002620,1,0,0,0,0,0,0,0.126153,-0.074901,-0.004774,1,0,0,0,0,0,0
4.080000,-0.000278,0.113004,-0.000112,1,0,0,0,0,0,0,-0.093142,-0.054392,0.002630,1,0,0,0,0,0,0,0.130045,-0.077078,-0.005052,1,0,0,0,0,0,0
4.090000,-0.001154,0.115533,-0.000106,1,0,0,0,0,0,0,-0.095277,-0.054764,0.002658,1,0,0,0,0,0,0,0.133751,-0.079073,-0.005315,1,0,0,0,0,0,0
4.100000,-0.002032,0.118143,-0.000106,1,0,0,0,0,0,0,-0.097682,-0.055299,0.002705,1,0,0,0,0,0,0,0.137173,-0.080841,-0.005555,1,0,0,0,0,0,0
4.110000,-0.002871,0.120872,-0.000112,1,0,0,0,0,0,0,-0.100282,-0.055987,0.002772,1,0,0,0,0,0,0,0.140230,-0.082359,-0.005767,1,0,0,0,0,0,0
4.120000,-0.003626,0.123749,-0.000123,1,0,0,0,0,0,0,-0.103010,-0.056831,0.002859,1,0,0,0,0,0,0,0.142864,-0.083624,-0.005949,1,0,0,0,0,0,0
4.130000,-0.004261,0.126744,-0.000140,1,0,0,0,0,0,0,-0.105804,-0.057837,0.002968,1,0,0,0,0,0,0,0.145047,-0.084646,-0.006099,1,0,0,0,0,0,0
4.140000,-0.004753,0.129742,-0.000160,1,0,0,0,0,0,0,-0.108558,-0.058970,0.003095,1,0,0,0,0,0,0,0.146782,-0.085439,-0.006219,1,0,0,0,0,0,0
4.150000,-0.005100,0.132596,-0.000182,1,0,0,0,0,0,0,-0.111177,-0.060179,0.003234,1,0,0,0,0,0,0,0.148088,-0.086015,-0.006308,1,0,0,0,0,0,0
4.160000,-0.005307,0.135205,-0.000205,1,0,0,0,0,0,0,-0.113624,-0.061431,0.003382,1,0,0,0,0,0,0,0.148996,-0.086383,-0.006367,1,0,0,0,0,0,0
4.170000,-0.005379,0.137505,-0.000226,1,0,0,0,0,0,0,-0.115891,-0.062710,0.003536,1,0,0,0,0,0,0,0.149542,-0.086559,-0.006399,1,0,0,0,0,0,0
4.180000,-0.005323,0.139473,-0.000246,1,0,0,0,0,0,0,-0.117969,-0.063993,0.003694,1,0,0,0,0,0,0,0.149741,-0.086554,-0.006403,1,0,0,0,0,0,0
4.190000,-0.005140,0.141128,-0.000262,1,0,0,0,0,0,0,-0.119829,-0.065242,0.003848,1,0,0,0,0,0,0,0.149598,-0.086376,-0.006382,1,0,0,0,0,0,0
4.200000,-0.004836,0.142497,-0.000276,1,0,0,0,0,0,0,-0.121430,-0.066408,0.003995,1,0,0,0,0,0,0,0.149114,-0.086039,-0.006336,1,0,0,0,0,0,0
4.210000,-0.004429,0.143584,-0.000286,1,0,0,0,0,0,0,-0.122739,-0.067457,0.004127,1,0,0,0,0,0,0,0.148293,-0.085553,-0.006269,1,0,0,0,0,0,0
4.220000,-0.003935,0.144390,-0.000293,1,0,0,0,0,0,0,-0.123737,-0.068371,0.004242,1,0,0,0,0,0,0,0.147154,-0.084929,-0.006181,1,0,0,0,0,0,0
4.230000,-0.003357,0.144939,-0.000295,1,0,0,0,0,0,0,-0.124394,-0.069129,0.004337,1,0,0,0,0,0,0,0.145729,-0.084178,-0.006075,1,0,0,0,0,0,0
4.240000,-0.002708,0.145219,-0.000294,1,0,0,0,0,0,0,-0.124682,-0.069717,0.004410,1,0,0,0,0,0,0,0.144053,-0.083306,-0.005952,1,0,0,0,0,0,0
4.250000,-0.002006,0.145188,-0.000290,1,0,0,0,0,0,0,-0.124580,-0.070123,0.004458,1,0,0,0,0,0,0,0.142151,-0.082315,-0.005813,1,0,0,0,0,0,0
4.260000,-0.001270,0.144791,-0.000282,1,0,0,0,0,0,0,-0.124067,-0.070335,0.004481,1,0,0,0,0,0,0,0.140035,-0.081205,-0.005658,1,0,0,0,0,0,0
4.270000,-0.000524,0.143963,-0.000271,1,0,0,0,0,0,0,-0.123146,-0.070354,0.004477,1,0,0,0,0,0,0,0.137729,-0.079987,-0.005490,1,0,0,0,0,0,0
4.280000,0.000217,0.142678,-0.000259,1,0,0,0,0,0,0,-0.121843,-0.070200,0.004451,1,0,0,0,0,0,0,0.135301,-0.078704,-0.005315,1,0,0,0,0,0,0
4.290000,0.000944,0.140941,-0.000244,1,0,0,0,0,0,0,-0.120190,-0.069896,0.004405,1,0,0,0,0,0,0,0.132787,-0.077380,-0.005137,1,0,0,0,0,0,0
4.300000,0.001642,0.138757,-0.000230,1,0,0,0,0,0,0,-0.118227,-0.069460,0.004341,1,0,0,0,0,0,0,0.130210,-0.076033,-0.004959,1,0,0,0,0,0,0
4.310000,0.002295,0.136151,-0.000215,1,0,0,0,0,0,0,-0.116003,-0.068902,0.004263,1,0,0,0,0,0,0,0.127599,-0.074678,-0.004784,1,0,0,0,0,0,0
4.320000,0.002886,0.133164,-0.000202,1,0,0,0,0,0,0,-0.113560,-0.068212,0.004168,1,0,0,0,0,0,0,0.124988,-0.073331,-0.004612,1,0,0,0,0,0,0
