time,drone0_roll,drone0_pitch,drone0_yaw,drone0_des_qw,drone0_des_qx,drone0_des_qy,drone0_des_qz,drone0_err_x,drone0_err_y,drone0_err_z,drone1_roll,drone1_pitch,drone1_yaw,drone1_des_qw,drone1_des_qx,drone1_des_qy,drone1_des_qz,drone1_err_x,drone1_err_y,drone1_err_z,drone2_roll,drone2_pitch,drone2_yaw,drone2_des_qw,drone2_des_qx,drone2_des_qy,drone2_des_qz,drone2_err_x,drone2_err_y,drone2_err_z
0.000000,0.000000,0.000000,0.000000,1,0,0,0,0,0,0,0.000000,0.000000,0.000000,1,0,0,0,0,0,0,0.000000,0.000000,0.000000,1,0,0,0,0,0,0
0.010000,0.000001,-0.000001,-0.000000,1,0,0,0,0,0,0,0.000001,-0.000001,-0.000000,1,0,0,0,0,0,0,0.000001,-0.000001,-0.000000,1,0,0,0,0,0,0
0.020000,0.000003,-0.000006,-0.000000,1,0,0,0,0,0,0,0.000003,-0.000006,-0.000000,1,0,0,0,0,0,0,0.000003,-0.000006,-0.000000,1,0,0,0,0,0,0
0.030000,0.000008,0.000038,0.000000,1,0,0,0,0,0,0,0.000008,-0.000016,-0.000000,1,0,0,0,0,0,0,0.000057,-0.000042,-0.000000,1,0,0,0,0,0,0
0.040000,0.000015,0.000164,0.000000,1,0,0,0,0,0,0,0.000015,-0.000030,-0.000000,1,0,0,0,0,0,0,0.000188,-0.000127,-0.000000,1,0,0,0,0,0,0
0.050000,0.000025,0.000426,0.000000,1,0,0,0,0,0,0,0.000025,-0.000049,-0.000000,1,0,0,0,0,0,0,0.000444,-0.000287,-0.000000,1,0,0,0,0,0,0
0.060000,0.000037,0.000818,0.000000,1,0,0,0,0,0,0,0.000037,-0.000073,-0.000000,1,0,0,0,0,0,0,0.000820,-0.000518,-0.000000,1,0,0,0,0,0,0
0.070000,0.000050,0.001352,0.000000,1,0,0,0,0,0,0,-0.000046,-0.000369,-0.000000,1,0,0,0,0,0,0,0.001324,-0.000826,-0.000001,1,0,0,0,0,0,0
0.080000,0.000066,0.002035,0.000000,1,0,0,0,0,0,0,-0.000103,-0.000612,0.000000,1,0,0,0,0,0,0,0.001962,-0.001214,-0.000001,1,0,0,0,0,0,0
0.090000,0.000083,0.002870,0.000000,1,0,0,0,0,0,0,-0.000155,-0.000848,0.000000,1,0,0,0,0,0,0,0.002735,-0.001683,-0.000002,1,0,0,0,0,0,0
0.100000,0.000102,0.003860,0.000000,1,0,0,0,0,0,0,-0.000315,-0.001390,0.000000,1,0,0,0,0,0,0,0.003648,-0.002235,-0.000004,1,0,0,0,0,0,0
0.110000,0.000122,0.005006,0.000000,1,0,0,0,0,0,0,-0.000454,-0.001891,0.000000,1,0,0,0,0,0,0,0.004698,-0.002869,-0.000007,1,0,0,0,0,0,0
0.120000,0.000144,0.006275,0.000001,1,0,0,0,0,0,0,-0.000616,-0.002453,0.000001,1,0,0,0,0,0,0,0.005857,-0.003569,-0.000010,1,0,0,0,0,0,0
0.130000,0.000167,0.007633,0.000001,1,0,0,0,0,0,0,-0.000844,-0.003195,0.000001,1,0,0,0,0,0,0,0.007096,-0.004316,-0.000015,1,0,0,0,0,0,0
0.140000,0.000190,0.009058,0.000001,1,0,0,0,0,0,0,-0.001061,-0.003912,0.000002,1,0,0,0,0,0,0,0.008394,-0.005100,-0.000021,1,0,0,0,0,0,0
0.150000,0.000215,0.010530,0.000001,1,0,0,0,0,0,0,-0.001336,-0.004766,0.000003,1,0,0,0,0,0,0,0.009734,-0.005910,-0.000028,1,0,0,0,0,0,0
0.160000,0.000240,0.012038,0.000002,1,0,0,0,0,0,0,-0.001648,-0.005705,0.000004,1,0,0,0,0,0,0,0.011106,-0.006740,-0.000037,1,0,0,0,0,0,0
0.170000,0.000266,0.013570,0.000002,1,0,0,0,0,0,0,-0.001981,-0.006683,0.000006,1,0,0,0,0,0,0,0.012501,-0.007583,-0.000047,1,0,0,0,0,0,0
0.180000,0.000293,0.015110,0.000002,1,0,0,0,0,0,0,-0.002385,-0.007806,0.000009,1,0,0,0,0,0,0,0.013903,-0.008432,-0.000058,1,0,0,0,0,0,0
0.190000,0.000319,0.016637,0.000003,1,0,0,0,0,0,0,-0.002819,-0.008976,0.000012,1,0,0,0,0,0,0,0.015295,-0.009276,-0.000071,1,0,0,0,0,0,0
0.200000,0.000346,0.018142,0.000003,1,0,0,0,0,0,0,-0.003323,-0.010268,0.000016,1,0,0,0,0,0,0,0.016667,-0.010108,-0.000084,1,0,0,0,0,0,0
0.210000,0.000373,0.019647,0.000004,1,0,0,0,0,0,0,-0.003879,-0.011632,0.000021,1,0,0,0,0,0,0,0.018043,-0.010942,-0.000098,1,0,0,0,0,0,0
0.220000,0.000400,0.021144,0.000004,1,0,0,0,0,0,0,-0.004505,-0.013092,0.000027,1,0,0,0,0,0,0,0.019410,-0.011771,-0.000114,1,0,0,0,0,0,0
0.230000,0.000426,0.022623,0.000005,1,0,0,0,0,0,0,-0.005174,-0.014585,0.000034,1,0,0,0,0,0,0,0.020764,-0.012592,-0.000130,1,0,0,0,0,0,0
0.240000,0.000452,0.024080,0.000006,1,0,0,0,0,0,0,-0.005874,-0.016077,0.000043,1,0,0,0,0,0,0,0.022101,-0.013402,-0.000148,1,0,0,0,0,0,0
0.250000,0.000478,0.025516,0.000006,1,0,0,0,0,0,0,-0.006605,-0.017559,0.000052,1,0,0,0,0,0,0,0.023419,-0.014200,-0.000166,1,0,0,0,0,0,0
0.260000,0.000503,0.026924,0.000007,1,0,0,0,0,0,0,-0.007362,-0.019011,0.000062,1,0,0,0,0,0,0,0.024714,-0.014985,-0.000185,1,0,0,0,0,0,0
0.270000,0.000528,0.028295,0.000008,1,0,0,0,0,0,0,-0.008144,-0.020422,0.000074,1,0,0,0,0,0,0,0.025976,-0.015749,-0.000204,1,0,0,0,0,0,0
0.280000,0.000551,0.029610,0.000008,1,0,0,0,0,0,0,-0.008947,-0.021781,0.000086,1,0,0,0,0,0,0,0.027187,-0.016483,-0.000224,1,0,0,0,0,0,0
0.290000,0.000574,0.030847,0.000009,1,0,0,0,0,0,0,-0.009765,-0.023071,0.000098,1,0,0,0,0,0,0,0.028328,-0.017176,-0.000243,1,0,0,0,0,0,0
0.300000,0.000596,0.031991,0.000010,1,0,0,0,0,0,0,-0.010589,-0.024278,0.000111,1,0,0,0,0,0,0,0.029387,-0.017820,-0.000261,1,0,0,0,0,0,0
0.310000,0.000617,0.033035,0.000010,1,0,0,0,0,0,0,-0.011409,-0.025384,0.000125,1,0,0,0,0,0,0,0.030357,-0.018411,-0.000279,1,0,0,0,0,0,0
0.320000,0.000636,0.033975,0.000011,1,0,0,0,0,0,0,-0.012213,-0.026375,0.000137,1,0,0,0,0,0,0,0.031234,-0.018946,-0.000295,1,0,0,0,0,0,0
0.330000,0.000655,0.034798,0.000011,1,0,0,0,0,0,0,-0.012993,-0.027239,0.000149,1,0,0,0,0,0,0,0.032006,-0.019420,-0.000310,1,0,0,0,0,0,0
0.340000,0.000672,0.035484,0.000012,1,0,0,0,0,0,0,-0.013741,-0.027967,0.000161,1,0,0,0,0,0,0,0.032655,-0.019820,-0.000323,1,0,0,0,0,0,0
0.350000,0.000689,0.036021,0.000012,1,0,0,0,0,0,0,-0.014458,-0.028553,0.000171,1,0,0,0,0,0,0,0.033170,-0.020142,-0.000334,1,0,0,0,0,0,0
0.360000,0.000704,0.036402,0.000013,1,0,0,0,0,0,0,-0.015153,-0.028992,0.000179,1,0,0,0,0,0,0,0.033547,-0.020383,-0.000342,1,0,0,0,0,0,0
0.370000,0.000717,0.036630,0.000013,1,0,0,0,0,0,0,-0.015824,-0.029278,0.000186,1,0,0,0,0,0,0,0.033788,-0.020542,-0.000347,1,0,0,0,0,0,0
0.380000,0.000730,0.036705,0.000013,1,0,0,0,0,0,0,-0.016464,-0.029407,0.000191,1,0,0,0,0,0,0,0.033896,-0.020623,-0.000350,1,0,0,0,0,0,0
0.390000,0.000741,0.036632,0.000013,1,0,0,0,0,0,0,-0.017066,-0.029378,0.000193,1,0,0,0,0,0,0,0.033873,-0.020625,-0.000350,1,0,0,0,0,0,0
0.400000,0.000750,0.036419,0.000013,1,0,0,0,0,0,0,-0.017623,-0.029190,0.000193,1,0,0,0,0,0,0,0.033729,-0.020556,-0.000348,1,0,0,0,0,0,0
0.410000,0.000759,0.036076,0.000012,1,0,0,0,0,0,0,-0.018130,-0.028847,0.000191,1,0,0,0,0,0,0,0.033471,-0.020419,-0.000343,1,0,0,0,0,0,0
0.420000,0.000766,0.035606,0.000012,1,0,0,0,0,0,0,-0.018583,-0.028351,0.000185,1,0,0,0,0,0,0,0.033101,-0.020214,-0.000336,1,0,0,0,0,0,0
0.430000,0.000773,0.035016,0.000012,1,0,0,0,0,0,0,-0.018978,-0.027710,0.000178,1,0,0,0,0,0,0,0.032624,-0.019947,-0.000327,1,0,0,0,0,0,0
0.440000,0.000778,0.034311,0.000011,1,0,0,0,0,0,0,-0.019307,-0.026932,0.000168,1,0,0,0,0,0,0,0.032047,-0.019619,-0.000317,1,0,0,0,0,0,0
0.450000,0.000782,0.033502,0.000011,1,0,0,0,0,0,0,-0.019562,-0.026031,0.000156,1,0,0,0,0,0,0,0.031378,-0.019237,-0.000304,1,0,0,0,0,0,0
0.460000,0.000785,0.032599,0.000010,1,0,0,0,0,0,0,-0.019742,-0.025010,0.000141,1,0,0,0,0,0,0,0.030627,-0.018805,-0.000291,1,0,0,0,0,0,0
0.470000,0.000787,0.031618,0.000010,1,0,0,0,0,0,0,-0.019844,-0.023876,0.000125,1,0,0,0,0,0,0,0.029807,-0.018332,-0.000276,1,0,0,0,0,0,0
0.480000,0.000788,0.030576,0.000009,1,0,0,0,0,0,0,-0.019867,-0.022638,0.000107,1,0,0,0,0,0,0,0.028934,-0.017828,-0.000261,1,0,0,0,0,0,0
0.490000,0.000788,0.029493,0.000008,1,0,0,0,0,0,0,-0.019812,-0.021292,0.000087,1,0,0,0,0,0,0,0.028028,-0.017302,-0.000246,1,0,0,0,0,0,0
0.500000,0.000786,0.028389,0.000008,1,0,0,0,0,0,0,-0.019678,-0.019838,0.000066,1,0,0,0,0,0,0,0.027109,-0.016768,-0.000231,1,0,0,0,0,0,0
0.510000,0.000784,0.027292,0.000007,1,0,0,0,0,0,0,-0.019465,-0.018280,0.000043,1,0,0,0,0,0,0,0.026201,-0.016239,-0.000217,1,0,0,0,0,0,0
0.520000,0.000780,0.026230,0.000006,1,0,0,0,0,0,0,-0.019170,-0.016629,0.000019,1,0,0,0,0,0,0,0.025330,-0.015732,-0.000204,1,0,0,0,0,0,0
0.530000,0.000774,0.025239,0.000006,1,0,0,0,0,0,0,-0.018795,-0.014903,-0.000006,1,0,0,0,0,0,0,0.024531,-0.015267,-0.000192,1,0,0,0,0,0,0
0.540000,0.000766,0.024357,0.000005,1,0,0,0,0,0,0,-0.018341,-0.013120,-0.000030,1,0,0,0,0,0,0,0.023838,-0.014863,-0.000182,1,0,0,0,0,0,0
0.550000,0.000755,0.023623,0.000005,1,0,0,0,0,0,0,-0.017810,-0.011290,-0.000055,1,0,0,0,0,0,0,0.023283,-0.014543,-0.000174,1,0,0,0,0,0,0
0.560000,0.000740,0.023069,0.000005,1,0,0,0,0,0,0,-0.017206,-0.009423,-0.000078,1,0,0,0,0,0,0,0.022892,-0.014320,-0.000168,1,0,0,0,0,0,0
0.570000,0.000721,0.022706,0.000005,1,0,0,0,0,0,0,-0.016535,-0.007537,-0.000101,1,0,0,0,0,0,0,0.022665,-0.014197,-0.000165,1,0,0,0,0,0,0
0.580000,0.000698,0.022524,0.000005,1,0,0,0,0,0,0,-0.015809,-0.005657,-0.000122,1,0,0,0,0,0,0,0.022588,-0.014167,-0.000164,1,0,0,0,0,0,0
0.590000,0.000669,0.022515,0.000005,1,0,0,0,0,0,0,-0.015037,-0.003813,-0.000140,1,0,0,0,0,0,0,0.022654,-0.014226,-0.000165,1,0,0,0,0,0,0
0.600000,0.000633,0.022662,0.000005,1,0,0,0,0,0,0,-0.014224,-0.002013,-0.000157,1,0,0,0,0,0,0,0.022836,-0.014359,-0.000168,1,0,0,0,0,0,0
0.610000,0.000592,0.022913,0.000006,1,0,0,0,0,0,0,-0.013371,-0.000246,-0.000171,1,0,0,0,0,0,0,0.023084,-0.014537,-0.000172,1,0,0,0,0,0,0
0.620000,0.000546,0.023213,0.000006,1,0,0,0,0,0,0,-0.012482,0.001491,-0.000183,1,0,0,0,0,0,0,0.023349,-0.014732,-0.000176,1,0,0,0,0,0,0
0.630000,0.000495,0.023517,0.000006,1,0,0,0,0,0,0,-0.011567,0.003192,-0.000193,1,0,0,0,0,0,0,0.023601,-0.014924,-0.000181,1,0,0,0,0,0,0
0.640000,0.000440,0.023803,0.000006,1,0,0,0,0,0,0,-0.010636,0.004848,-0.000201,1,0,0,0,0,0,0,0.023824,-0.015104,-0.000185,1,0,0,0,0,0,0
0.650000,0.000380,0.024069,0.000006,1,0,0,0,0,0,0,-0.009701,0.006451,-0.000207,1,0,0,0,0,0,0,0.024032,-0.015280,-0.000188,1,0,0,0,0,0,0
0.660000,0.000313,0.024337,0.000006,1,0,0,0,0,0,0,-0.008771,0.007995,-0.000211,1,0,0,0,0,0,0,0.024241,-0.015465,-0.000193,1,0,0,0,0,0,0
0.670000,0.000237,0.024612,0.000006,1,0,0,0,0,0,0,-0.007861,0.009472,-0.000213,1,0,0,0,0,0,0,0.024451,-0.015661,-0.000197,1,0,0,0,0,0,0
0.680000,0.000151,0.024878,0.000006,1,0,0,0,0,0,0,-0.006986,0.010879,-0.000213,1,0,0,0,0,0,0,0.024640,-0.015858,-0.000202,1,0,0,0,0,0,0
0.690000,0.000056,0.025108,0.000006,1,0,0,0,0,0,0,-0.006164,0.012208,-0.000211,1,0,0,0,0,0,0,0.024784,-0.016038,-0.000206,1,0,0,0,0,0,0
0.700000,-0.000047,0.025274,0.000006,1,0,0,0,0,0,0,-0.005419,0.013455,-0.000208,1,0,0,0,0,0,0,0.024862,-0.016188,-0.000209,1,0,0,0,0,0,0
0.710000,-0.000154,0.025363,0.000005,1,0,0,0,0,0,0,-0.004785,0.014611,-0.000203,1,0,0,0,0,0,0,0.024866,-0.016301,-0.000211,1,0,0,0,0,0,0
0.720000,-0.000267,0.025375,0.000005,1,0,0,0,0,0,0,-0.004305,0.015667,-0.000198,1,0,0,0,0,0,0,0.024799,-0.016378,-0.000213,1,0,0,0,0,0,0
0.730000,-0.000384,0.025313,0.000004,1,0,0,0,0,0,0,-0.004034,0.016611,-0.000192,1,0,0,0,0,0,0,0.024667,-0.016422,-0.000213,1,0,0,0,0,0,0
0.740000,-0.000503,0.025190,0.000004,1,0,0,0,0,0,0,-0.004040,0.017427,-0.000186,1,0,0,0,0,0,0,0.024482,-0.016438,-0.000213,1,0,0,0,0,0,0
0.750000,-0.000626,0.025021,0.000003,1,0,0,0,0,0,0,-0.004386,0.018098,-0.000179,1,0,0,0,0,0,0,0.024260,-0.016437,-0.000212,1,0,0,0,0,0,0
0.760000,-0.000752,0.024830,0.000003,1,0,0,0,0,0,0,-0.005105,0.018615,-0.000173,1,0,0,0,0,0,0,0.024024,-0.016431,-0.000212,1,0,0,0,0,0,0
0.770000,-0.000879,0.024640,0.000002,1,0,0,0,0,0,0,-0.006174,0.018974,-0.000167,1,0,0,0,0,0,0,0.023795,-0.016431,-0.000211,1,0,0,0,0,0,0
0.780000,-0.001006,0.024475,0.000002,1,0,0,0,0,0,0,-0.007521,0.019183,-0.000161,1,0,0,0,0,0,0,0.023594,-0.016450,-0.000210,1,0,0,0,0,0,0
0.790000,-0.001132,0.024350,0.000001,1,0,0,0,0,0,0,-0.009129,0.019236,-0.000156,1,0,0,0,0,0,0,0.023433,-0.016492,-0.000210,1,0,0,0,0,0,0
0.800000,-0.001255,0.024277,0.000000,1,0,0,0,0,0,0,-0.010942,0.019137,-0.000150,1,0,0,0,0,0,0,0.023320,-0.016559,-0.000211,1,0,0,0,0,0,0
0.810000,-0.001373,0.024266,-0.000001,1,0,0,0,0,0,0,-0.012828,0.018907,-0.000144,1,0,0,0,0,0,0,0.023258,-0.016651,-0.000212,1,0,0,0,0,0,0
0.820000,-0.001484,0.024329,-0.000002,1,0,0,0,0,0,0,-0.014636,0.018581,-0.000138,1,0,0,0,0,0,0,0.023255,-0.016771,-0.000214,1,0,0,0,0,0,0
0.830000,-0.001587,0.024481,-0.000003,1,0,0,0,0,0,0,-0.016274,0.018187,-0.000131,1,0,0,0,0,0,0,0.023321,-0.016923,-0.000216,1,0,0,0,0,0,0
0.840000,-0.001681,0.024737,-0.000004,1,0,0,0,0,0,0,-0.017719,0.017742,-0.000124,1,0,0,0,0,0,0,0.023467,-0.017111,-0.000219,1,0,0,0,0,0,0
0.850000,-0.001763,0.025102,-0.000006,1,0,0,0,0,0,0,-0.019004,0.017241,-0.000116,1,0,0,0,0,0,0,0.023696,-0.017336,-0.000224,1,0,0,0,0,0,0
0.860000,-0.001831,0.025570,-0.000008,1,0,0,0,0,0,0,-0.020231,0.016643,-0.000106,1,0,0,0,0,0,0,0.024005,-0.017592,-0.000229,1,0,0,0,0,0,0
0.870000,-0.001883,0.026128,-0.000010,1,0,0,0,0,0,0,-0.021405,0.015949,-0.000095,1,0,0,0,0,0,0,0.024385,-0.017872,-0.000234,1,0,0,0,0,0,0
0.880000,-0.001919,0.026769,-0.000012,1,0,0,0,0,0,0,-0.022562,0.015135,-0.000081,1,0,0,0,0,0,0,0.024830,-0.018172,-0.000241,1,0,0,0,0,0,0
0.890000,-0.001938,0.027500,-0.000014,1,0,0,0,0,0,0,-0.023695,0.014198,-0.000065,1,0,0,0,0,0,0,0.025347,-0.018494,-0.000248,1,0,0,0,0,0,0
0.900000,-0.001940,0.028351,-0.000016,1,0,0,0,0,0,0,-0.024815,0.013124,-0.000044,1,0,0,0,0,0,0,0.025962,-0.018853,-0.000256,1,0,0,0,0,0,0
0.910000,-0.001925,0.029368,-0.000019,1,0,0,0,0,0,0,-0.025944,0.011880,-0.000020,1,0,0,0,0,0,0,0.026713,-0.019271,-0.000266,1,0,0,0,0,0,0
0.920000,-0.001895,0.030593,-0.000022,1,0,0,0,0,0,0,-0.027037,0.010491,0.000010,1,0,0,0,0,0,0,0.027637,-0.019772,-0.000279,1,0,0,0,0,0,0
0.930000,-0.001855,0.032036,-0.000025,1,0,0,0,0,0,0,-0.028076,0.008965,0.000043,1,0,0,0,0,0,0,0.028743,-0.020365,-0.000296,1,0,0,0,0,0,0
0.940000,-0.001809,0.033666,-0.000029,1,0,0,0,0,0,0,-0.029046,0.007309,0.000081,1,0,0,0,0,0,0,0.030010,-0.021043,-0.000315,1,0,0,0,0,0,0
0.950000,-0.001761,0.035434,-0.000032,1,0,0,0,0,0,0,-0.029929,0.005553,0.000122,1,0,0,0,0,0,0,0.031397,-0.021788,-0.000338,1,0,0,0,0,0,0
0.960000,-0.001715,0.037305,-0.000035,1,0,0,0,0,0,0,-0.030699,0.003755,0.000165,1,0,0,0,0,0,0,0.032875,-0.022589,-0.000364,1,0,0,0,0,0,0
0.970000,-0.001676,0.039250,-0.000038,1,0,0,0,0,0,0,-0.031341,0.001967,0.000207,1,0,0,0,0,0,0,0.034418,-0.023434,-0.000393,1,0,0,0,0,0,0
0.980000,-0.001646,0.041237,-0.000041,1,0,0,0,0,0,0,-0.031849,0.000223,0.000249,1,0,0,0,0,0,0,0.035996,-0.024312,-0.000424,1,0,0,0,0,0,0
0.990000,-0.001627,0.043228,-0.000044,1,0,0,0,0,0,0,-0.032225,-0.001464,0.000288,1,0,0,0,0,0,0,0.037569,-0.025201,-0.000457,1,0,0,0,0,0,0
1.000000,-0.001620,0.045179,-0.000047,1,0,0,0,0,0,0,-0.032473,-0.003085,0.000325,1,0,0,0,0,0,0,0.039094,-0.026076,-0.000492,1,0,0,0,0,0,0
1.010000,-0.001625,0.047109,-0.000050,1,0,0,0,0,0,0,-0.032595,-0.004638,0.000359,1,0,0,0,0,0,0,0.040598,-0.026957,-0.000528,1,0,0,0,0,0,0
1.020000,-0.001649,0.049079,-0.000052,1,0,0,0,0,0,0,-0.032596,-0.006130,0.000391,1,0,0,0,0,0,0,0.042125,-0.027873,-0.000567,1,0,0,0,0,0,0
1.030000,-0.001689,0.051118,-0.000055,1,0,0,0,0,0,0,-0.032482,-0.007572,0.000421,1,0,0,0,0,0,0,0.043685,-0.028830,-0.000609,1,0,0,0,0,0,0
1.040000,-0.001743,0.053253,-0.000058,1,0,0,0,0,0,0,-0.032260,-0.008978,0.000449,1,0,0,0,0,0,0,0.045302,-0.029839,-0.000655,1,0,0,0,0,0,0
1.050000,-0.001807,0.055497,-0.000061,1,0,0,0,0,0,0,-0.031936,-0.010369,0.000476,1,0,0,0,0,0,0,0.046997,-0.030909,-0.000706,1,0,0,0,0,0,0
1.060000,-0.001877,0.057820,-0.000065,1,0,0,0,0,0,0,-0.031524,-0.011787,0.000502,1,0,0,0,0,0,0,0.048755,-0.032026,-0.000761,1,0,0,0,0,0,0
1.070000,-0.001950,0.060192,-0.000069,1,0,0,0,0,0,0,-0.031044,-0.013271,0.000530,1,0,0,0,0,0,0,0.050558,-0.033174,-0.000819,1,0,0,0,0,0,0
1.080000,-0.002023,0.062579,-0.000073,1,0,0,0,0,0,0,-0.030531,-0.014832,0.000559,1,0,0,0,0,0,0,0.052382,-0.034337,-0.000880,1,0,0,0,0,0,0
1.090000,-0.002096,0.064932,-0.000077,1,0,0,0,0,0,0,-0.029984,-0.016459,0.000588,1,0,0,0,0,0,0,0.054196,-0.035495,-0.000943,1,0,0,0,0,0,0
1.100000,-0.002169,0.067222,-0.000081,1,0,0,0,0,0,0,-0.029390,-0.018142,0.000618,1,0,0,0,0,0,0,0.055974,-0.036632,-0.001007,1,0,0,0,0,0,0
1.110000,-0.002242,0.069437,-0.000086,1,0,0,0,0,0,0,-0.028734,-0.019853,0.000647,1,0,0,0,0,0,0,0.057700,-0.037740,-0.001071,1,0,0,0,0,0,0
1.120000,-0.002317,0.071569,-0.000090,1,0,0,0,0,0,0,-0.028005,-0.021564,0.000674,1,0,0,0,0,0,0,0.059364,-0.038814,-0.001135,1,0,0,0,0,0,0
1.130000,-0.002397,0.073625,-0.000095,1,0,0,0,0,0,0,-0.027197,-0.023248,0.000699,1,0,0,0,0,0,0,0.060962,-0.039856,-0.001199,1,0,0,0,0,0,0
1.140000,-0.002486,0.075617,-0.000099,1,0,0,0,0,0,0,-0.026308,-0.024883,0.000720,1,0,0,0,0,0,0,0.062499,-0.040872,-0.001262,1,0,0,0,0,0,0
1.150000,-0.002588,0.077573,-0.000104,1,0,0,0,0,0,0,-0.025322,-0.026483,0.000738,1,0,0,0,0,0,0,0.063990,-0.041875,-0.001327,1,0,0,0,0,0,0
1.160000,-0.002706,0.079512,-0.000109,1,0,0,0,0,0,0,-0.024231,-0.028042,0.000753,1,0,0,0,0,0,0,0.065453,-0.042879,-0.001393,1,0,0,0,0,0,0
1.170000,-0.002845,0.081433,-0.000114,1,0,0,0,0,0,0,-0.023049,-0.029531,0.000764,1,0,0,0,0,0,0,0.066893,-0.043891,-0.001461,1,0,0,0,0,0,0
1.180000,-0.003007,0.083325,-0.000119,1,0,0,0,0,0,0,-0.021785,-0.030935,0.000770,1,0,0,0,0,0,0,0.068308,-0.044912,-0.001530,1,0,0,0,0,0,0
1.190000,-0.003195,0.085165,-0.000125,1,0,0,0,0,0,0,-0.020454,-0.032244,0.000773,1,0,0,0,0,0,0,0.069687,-0.045939,-0.001602,1,0,0,0,0,0,0
1.200000,-0.003407,0.086918,-0.000132,1,0,0,0,0,0,0,-0.019081,-0.033433,0.000770,1,0,0,0,0,0,0,0.071009,-0.046961,-0.001674,1,0,0,0,0,0,0
1.210000,-0.003646,0.088552,-0.000138,1,0,0,0,0,0,0,-0.017693,-0.034481,0.000762,1,0,0,0,0,0,0,0.072238,-0.047955,-0.001745,1,0,0,0,0,0,0
1.220000,-0.003908,0.090030,-0.000145,1,0,0,0,0,0,0,-0.016297,-0.035379,0.000751,1,0,0,0,0,0,0,0.073340,-0.048900,-0.001813,1,0,0,0,0,0,0
1.230000,-0.004191,0.091312,-0.000152,1,0,0,0,0,0,0,-0.014880,-0.036155,0.000735,1,0,0,0,0,0,0,0.074280,-0.049774,-0.001877,1,0,0,0,0,0,0
1.240000,-0.004488,0.092357,-0.000159,1,0,0,0,0,0,0,-0.013439,-0.036823,0.000717,1,0,0,0,0,0,0,0.075024,-0.050550,-0.001934,1,0,0,0,0,0,0
1.250000,-0.004795,0.093136,-0.000165,1,0,0,0,0,0,0,-0.011992,-0.037385,0.000696,1,0,0,0,0,0,0,0.075543,-0.051209,-0.001982,1,0,0,0,0,0,0
1.260000,-0.005111,0.093640,-0.000171,1,0,0,0,0,0,0,-0.010555,-0.037832,0.000673,1,0,0,0,0,0,0,0.075823,-0.051737,-0.002019,1,0,0,0,0,0,0
1.270000,-0.005433,0.093851,-0.000175,1,0,0,0,0,0,0,-0.009145,-0.038159,0.000648,1,0,0,0,0,0,0,0.075847,-0.052123,-0.002046,1,0,0,0,0,0,0
1.280000,-0.005750,0.093739,-0.000179,1,0,0,0,0,0,0,-0.007773,-0.038365,0.000621,1,0,0,0,0,0,0,0.075596,-0.052343,-0.002059,1,0,0,0,0,0,0
1.290000,-0.006053,0.093285,-0.000182,1,0,0,0,0,0,0,-0.006453,-0.038448,0.000594,1,0,0,0,0,0,0,0.075064,-0.052382,-0.002057,1,0,0,0,0,0,0
1.300000,-0.006334,0.092485,-0.000182,1,0,0,0,0,0,0,-0.005201,-0.038413,0.000565,1,0,0,0,0,0,0,0.074256,-0.052234,-0.002041,1,0,0,0,0,0,0
1.310000,-0.006586,0.091350,-0.000181,1,0,0,0,0,0,0,-0.004036,-0.038260,0.000536,1,0,0,0,0,0,0,0.073190,-0.051901,-0.002011,1,0,0,0,0,0,0
1.320000,-0.006803,0.089899,-0.000179,1,0,0,0,0,0,0,-0.002975,-0.037994,0.000508,1,0,0,0,0,0,0,0.071890,-0.051389,-0.001967,1,0,0,0,0,0,0
1.330000,-0.006981,0.088163,-0.000174,1,0,0,0,0,0,0,-0.002027,-0.037619,0.000480,1,0,0,0,0,0,0,0.070385,-0.050712,-0.001912,1,0,0,0,0,0,0
1.340000,-0.007119,0.086175,-0.000168,1,0,0,0,0,0,0,-0.001195,-0.037144,0.000452,1,0,0,0,0,0,0,0.068704,-0.049885,-0.001847,1,0,0,0,0,0,0
1.350000,-0.007215,0.083974,-0.000160,1,0,0,0,0,0,0,-0.000483,-0.036581,0.000425,1,0,0,0,0,0,0,0.066883,-0.048927,-0.001774,1,0,0,0,0,0,0
1.360000,-0.007268,0.081607,-0.000151,1,0,0,0,0,0,0,0.000096,-0.035942,0.000400,1,0,0,0,0,0,0,0.064964,-0.047860,-0.001695,1,0,0,0,0,0,0
1.370000,-0.007276,0.079122,-0.000142,1,0,0,0,0,0,0,0.000516,-0.035245,0.000376,1,0,0,0,0,0,0,0.062984,-0.046706,-0.001613,1,0,0,0,0,0,0
1.380000,-0.007239,0.076555,-0.000132,1,0,0,0,0,0,0,0.000742,-0.034508,0.000352,1,0,0,0,0,0,0,0.060972,-0.045481,-0.001529,1,0,0,0,0,0,0
1.390000,-0.007159,0.073928,-0.000121,1,0,0,0,0,0,0,0.000748,-0.033743,0.000331,1,0,0,0,0,0,0,0.058942,-0.044196,-0.001443,1,0,0,0,0,0,0
1.400000,-0.007037,0.071252,-0.000111,1,0,0,0,0,0,0,0.000539,-0.032945,0.000310,1,0,0,0,0,0,0,0.056898,-0.042856,-0.001356,1,0,0,0,0,0,0
1.410000,-0.006876,0.068535,-0.000101,1,0,0,0,0,0,0,0.000135,-0.032102,0.000290,1,0,0,0,0,0,0,0.054850,-0.041468,-0.001270,1,0,0,0,0,0,0
1.420000,-0.006677,0.065785,-0.000090,1,0,0,0,0,0,0,-0.000463,-0.031208,0.000272,1,0,0,0,0,0,0,0.052799,-0.040036,-0.001185,1,0,0,0,0,0,0
1.430000,-0.006442,0.063001,-0.000080,1,0,0,0,0,0,0,-0.001255,-0.030257,0.000254,1,0,0,0,0,0,0,0.050732,-0.038554,-0.001100,1,0,0,0,0,0,0
1.440000,-0.006175,0.060171,-0.000069,1,0,0,0,0,0,0,-0.002213,-0.029243,0.000238,1,0,0,0,0,0,0,0.048633,-0.037020,-0.001016,1,0,0,0,0,0,0
1.450000,-0.005878,0.057303,-0.000059,1,0,0,0,0,0,0,-0.003285,-0.028163,0.000221,1,0,0,0,0,0,0,0.046524,-0.035443,-0.000934,1,0,0,0,0,0,0
1.460000,-0.005550,0.054426,-0.000049,1,0,0,0,0,0,0,-0.004399,-0.027015,0.000206,1,0,0,0,0,0,0,0.044430,-0.033839,-0.000854,1,0,0,0,0,0,0
1.470000,-0.005193,0.051553,-0.000040,1,0,0,0,0,0,0,-0.005516,-0.025807,0.000190,1,0,0,0,0,0,0,0.042362,-0.032217,-0.000777,1,0,0,0,0,0,0
1.480000,-0.004810,0.048694,-0.000032,1,0,0,0,0,0,0,-0.006628,-0.024548,0.000174,1,0,0,0,0,0,0,0.040325,-0.030581,-0.000703,1,0,0,0,0,0,0
1.490000,-0.004405,0.045853,-0.000024,1,0,0,0,0,0,0,-0.007737,-0.023245,0.000159,1,0,0,0,0,0,0,0.038321,-0.028938,-0.000633,1,0,0,0,0,0,0
1.500000,-0.003981,0.043041,-0.000017,1,0,0,0,0,0,0,-0.008847,-0.021907,0.000143,1,0,0,0,0,0,0,0.036353,-0.027294,-0.000567,1,0,0,0,0,0,0
1.510000,-0.003544,0.040270,-0.000011,1,0,0,0,0,0,0,-0.009962,-0.020542,0.000126,1,0,0,0,0,0,0,0.034429,-0.025658,-0.000504,1,0,0,0,0,0,0
1.520000,-0.003096,0.037556,-0.000006,1,0,0,0,0,0,0,-0.011093,-0.019158,0.000110,1,0,0,0,0,0,0,0.032561,-0.024040,-0.000446,1,0,0,0,0,0,0
1.530000,-0.002642,0.034910,-0.000002,1,0,0,0,0,0,0,-0.012262,-0.017767,0.000093,1,0,0,0,0,0,0,0.030756,-0.022452,-0.000392,1,0,0,0,0,0,0
1.540000,-0.002187,0.032338,0.000002,1,0,0,0,0,0,0,-0.013467,-0.016376,0.000075,1,0,0,0,0,0,0,0.029022,-0.020901,-0.000342,1,0,0,0,0,0,0
1.550000,-0.001736,0.029843,0.000004,1,0,0,0,0,0,0,-0.014698,-0.014990,0.000057,1,0,0,0,0,0,0,0.027359,-0.019395,-0.000297,1,0,0,0,0,0,0
1.560000,-0.001293,0.027433,0.000006,1,0,0,0,0,0,0,-0.015943,-0.013612,0.000039,1,0,0,0,0,0,0,0.025764,-0.017937,-0.000256,1,0,0,0,0,0,0
1.570000,-0.000861,0.025111,0.000007,1,0,0,0,0,0,0,-0.017188,-0.012240,0.000020,1,0,0,0,0,0,0,0.024234,-0.016530,-0.000219,1,0,0,0,0,0,0
1.580000,-0.000446,0.022878,0.000007,1,0,0,0,0,0,0,-0.018419,-0.010873,-0.000000,1,0,0,0,0,0,0,0.022763,-0.015175,-0.000186,1,0,0,0,0,0,0
1.590000,-0.000049,0.020735,0.000007,1,0,0,0,0,0,0,-0.019623,-0.009505,-0.000020,1,0,0,0,0,0,0,0.021349,-0.013873,-0.000156,1,0,0,0,0,0,0
1.600000,0.000327,0.018680,0.000006,1,0,0,0,0,0,0,-0.020783,-0.008129,-0.000042,1,0,0,0,0,0,0,0.019991,-0.012630,-0.000130,1,0,0,0,0,0,0
1.610000,0.000680,0.016705,0.000005,1,0,0,0,0,0,0,-0.021881,-0.006734,-0.000064,1,0,0,0,0,0,0,0.018685,-0.011442,-0.000106,1,0,0,0,0,0,0
1.620000,0.001009,0.014804,0.000003,1,0,0,0,0,0,0,-0.022897,-0.005313,-0.000088,1,0,0,0,0,0,0,0.017424,-0.010310,-0.000086,1,0,0,0,0,0,0
1.630000,0.001316,0.012966,0.000001,1,0,0,0,0,0,0,-0.023811,-0.003864,-0.000114,1,0,0,0,0,0,0,0.016201,-0.009229,-0.000067,1,0,0,0,0,0,0
1.640000,0.001600,0.011181,-0.000001,1,0,0,0,0,0,0,-0.024607,-0.002390,-0.000140,1,0,0,0,0,0,0,0.015005,-0.008192,-0.000052,1,0,0,0,0,0,0
1.650000,0.001862,0.009445,-0.000004,1,0,0,0,0,0,0,-0.025280,-0.000892,-0.000167,1,0,0,0,0,0,0,0.013826,-0.007192,-0.000038,1,0,0,0,0,0,0
1.660000,0.002103,0.007755,-0.000006,1,0,0,0,0,0,0,-0.025825,0.000620,-0.000196,1,0,0,0,0,0,0,0.012662,-0.006226,-0.000025,1,0,0,0,0,0,0
1.670000,0.002324,0.006114,-0.000009,1,0,0,0,0,0,0,-0.026243,0.002135,-0.000224,1,0,0,0,0,0,0,0.011516,-0.005297,-0.000015,1,0,0,0,0,0,0
1.680000,0.002522,0.004535,-0.000012,1,0,0,0,0,0,0,-0.026536,0.003644,-0.000252,1,0,0,0,0,0,0,0.010402,-0.004414,-0.000006,1,0,0,0,0,0,0
1.690000,0.002696,0.003032,-0.000015,1,0,0,0,0,0,0,-0.026712,0.005159,-0.000281,1,0,0,0,0,0,0,0.009333,-0.003585,0.000001,1,0,0,0,0,0,0
1.700000,0.002847,0.001614,-0.000018,1,0,0,0,0,0,0,-0.026776,0.006691,-0.000309,1,0,0,0,0,0,0,0.008318,-0.002816,0.000007,1,0,0,0,0,0,0
1.710000,0.002975,0.000293,-0.000021,1,0,0,0,0,0,0,-0.026743,0.008239,-0.000338,1,0,0,0,0,0,0,0.007366,-0.002112,0.000011,1,0,0,0,0,0,0
1.720000,0.003079,-0.000921,-0.000023,1,0,0,0,0,0,0,-0.026628,0.009784,-0.000366,1,0,0,0,0,0,0,0.006485,-0.001475,0.000015,1,0,0,0,0,0,0
1.730000,0.003161,-0.002017,-0.000025,1,0,0,0,0,0,0,-0.026446,0.011299,-0.000392,1,0,0,0,0,0,0,0.005680,-0.000906,0.000017,1,0,0,0,0,0,0
1.740000,0.003222,-0.002989,-0.000027,1,0,0,0,0,0,0,-0.026206,0.012760,-0.000416,1,0,0,0,0,0,0,0.004954,-0.000406,0.000019,1,0,0,0,0,0,0
1.750000,0.003264,-0.003832,-0.000028,1,0,0,0,0,0,0,-0.025912,0.014147,-0.000438,1,0,0,0,0,0,0,0.004310,0.000027,0.000019,1,0,0,0,0,0,0
1.760000,0.003287,-0.004543,-0.000029,1,0,0,0,0,0,0,-0.025568,0.015444,-0.000456,1,0,0,0,0,0,0,0.003750,0.000392,0.000020,1,0,0,0,0,0,0
1.770000,0.003294,-0.005120,-0.000030,1,0,0,0,0,0,0,-0.025176,0.016636,-0.000471,1,0,0,0,0,0,0,0.003282,0.000687,0.000020,1,0,0,0,0,0,0
1.780000,0.003284,-0.005556,-0.000030,1,0,0,0,0,0,0,-0.024728,0.017710,-0.000482,1,0,0,0,0,0,0,0.002913,0.000907,0.000019,1,0,0,0,0,0,0
1.790000,0.003258,-0.005845,-0.000030,1,0,0,0,0,0,0,-0.024208,0.018662,-0.000490,1,0,0,0,0,0,0,0.002653,0.001049,0.000019,1,0,0,0,0,0,0
1.800000,0.003218,-0.005983,-0.000029,1,0,0,0,0,0,0,-0.023605,0.019499,-0.000494,1,0,0,0,0,0,0,0.002506,0.001110,0.000018,1,0,0,0,0,0,0
1.810000,0.003164,-0.005972,-0.000028,1,0,0,0,0,0,0,-0.022928,0.020224,-0.000495,1,0,0,0,0,0,0,0.002468,0.001095,0.000017,1,0,0,0,0,0,0
1.820000,0.003097,-0.005822,-0.000026,1,0,0,0,0,0,0,-0.022183,0.020835,-0.000493,1,0,0,0,0,0,0,0.002531,0.001007,0.000015,1,0,0,0,0,0,0
1.830000,0.003017,-0.005542,-0.000024,1,0,0,0,0,0,0,-0.021383,0.021319,-0.000488,1,0,0,0,0,0,0,0.002690,0.000848,0.000014,1,0,0,0,0,0,0
1.840000,0.002927,-0.005141,-0.000022,1,0,0,0,0,0,0,-0.020534,0.021657,-0.000479,1,0,0,0,0,0,0,0.002942,0.000622,0.000013,1,0,0,0,0,0,0
1.850000,0.002824,-0.004625,-0.000020,1,0,0,0,0,0,0,-0.019643,0.021832,-0.000468,1,0,0,0,0,0,0,0.003284,0.000327,0.000011,1,0,0,0,0,0,0
1.860000,0.002709,-0.003994,-0.000017,1,0,0,0,0,0,0,-0.018714,0.021837,-0.000452,1,0,0,0,0,0,0,0.003717,-0.000037,0.000009,1,0,0,0,0,0,0
1.870000,0.002582,-0.003253,-0.000014,1,0,0,0,0,0,0,-0.017751,0.021675,-0.000434,1,0,0,0,0,0,0,0.004233,-0.000468,0.000007,1,0,0,0,0,0,0
1.880000,0.002443,-0.002413,-0.000012,1,0,0,0,0,0,0,-0.016759,0.021351,-0.000414,1,0,0,0,0,0,0,0.004813,-0.000955,0.000004,1,0,0,0,0,0,0
1.890000,0.002292,-0.001499,-0.000009,1,0,0,0,0,0,0,-0.015744,0.020876,-0.000392,1,0,0,0,0,0,0,0.005432,-0.001483,0.000001,1,0,0,0,0,0,0
1.900000,0.002133,-0.000537,-0.000006,1,0,0,0,0,0,0,-0.014710,0.020264,-0.000369,1,0,0,0,0,0,0,0.006087,-0.002047,-0.000003,1,0,0,0,0,0,0
1.910000,0.001965,0.000462,-0.000004,1,0,0,0,0,0,0,-0.013662,0.019526,-0.000345,1,0,0,0,0,0,0,0.006781,-0.002652,-0.000007,1,0,0,0,0,0,0
1.920000,0.001788,0.001501,-0.000002,1,0,0,0,0,0,0,-0.012602,0.018672,-0.000321,1,0,0,0,0,0,0,0.007509,-0.003294,-0.000011,1,0,0,0,0,0,0
1.930000,0.001603,0.002575,0.000001,1,0,0,0,0,0,0,-0.011535,0.017707,-0.000297,1,0,0,0,0,0,0,0.008266,-0.003970,-0.000017,1,0,0,0,0,0,0
1.940000,0.001410,0.003681,0.000002,1,0,0,0,0,0,0,-0.010465,0.016631,-0.000273,1,0,0,0,0,0,0,0.009040,-0.004673,-0.000023,1,0,0,0,0,0,0
1.950000,0.001210,0.004808,0.000004,1,0,0,0,0,0,0,-0.009394,0.015443,-0.000250,1,0,0,0,0,0,0,0.009823,-0.005394,-0.000030,1,0,0,0,0,0,0
1.960000,0.001003,0.005950,0.000005,1,0,0,0,0,0,0,-0.008327,0.014137,-0.000227,1,0,0,0,0,0,0,0.010609,-0.006128,-0.000037,1,0,0,0,0,0,0
1.970000,0.000790,0.007101,0.000006,1,0,0,0,0,0,0,-0.007267,0.012710,-0.000206,1,0,0,0,0,0,0,0.011390,-0.006871,-0.000045,1,0,0,0,0,0,0
1.980000,0.000573,0.008252,0.000007,1,0,0,0,0,0,0,-0.006217,0.011159,-0.000185,1,0,0,0,0,0,0,0.012163,-0.007618,-0.000053,1,0,0,0,0,0,0
1.990000,0.000351,0.009396,0.000007,1,0,0,0,0,0,0,-0.005182,0.009490,-0.000166,1,0,0,0,0,0,0,0.012918,-0.008361,-0.000062,1,0,0,0,0,0,0
2.000000,0.000128,0.010523,0.000007,1,0,0,0,0,0,0,-0.004165,0.007713,-0.000149,1,0,0,0,0,0,0,0.013664,-0.009107,-0.000072,1,0,0,0,0,0,0
2.010000,-0.000103,0.011656,0.000007,1,0,0,0,0,0,0,-0.003171,0.005812,-0.000134,1,0,0,0,0,0,0,0.014419,-0.009870,-0.000082,1,0,0,0,0,0,0
2.020000,-0.000351,0.012829,0.000006,1,0,0,0,0,0,0,-0.002203,0.003735,-0.000120,1,0,0,0,0,0,0,0.015184,-0.010656,-0.000093,1,0,0,0,0,0,0
2.030000,-0.000615,0.014037,0.000005,1,0,0,0,0,0,0,-0.001273,0.001509,-0.000109,1,0,0,0,0,0,0,0.015951,-0.011459,-0.000105,1,0,0,0,0,0,0
2.040000,-0.000893,0.015280,0.000004,1,0,0,0,0,0,0,-0.000389,-0.000817,-0.000101,1,0,0,0,0,0,0,0.016716,-0.012270,-0.000117,1,0,0,0,0,0,0
2.050000,-0.001182,0.016551,0.000002,1,0,0,0,0,0,0,0.000435,-0.003184,-0.000094,1,0,0,0,0,0,0,0.017479,-0.013083,-0.000130,1,0,0,0,0,0,0
2.060000,-0.001477,0.017843,-0.000001,1,0,0,0,0,0,0,0.001192,-0.005528,-0.000090,1,0,0,0,0,0,0,0.018236,-0.013887,-0.000144,1,0,0,0,0,0,0
2.070000,-0.001771,0.019146,-0.000004,1,0,0,0,0,0,0,0.001873,-0.007788,-0.000088,1,0,0,0,0,0,0,0.018986,-0.014672,-0.000157,1,0,0,0,0,0,0
2.080000,-0.002059,0.020451,-0.000007,1,0,0,0,0,0,0,0.002469,-0.009914,-0.000088,1,0,0,0,0,0,0,0.019727,-0.015427,-0.000171,1,0,0,0,0,0,0
2.090000,-0.002333,0.021750,-0.000010,1,0,0,0,0,0,0,0.002971,-0.011878,-0.000088,1,0,0,0,0,0,0,0.020465,-0.016142,-0.000184,1,0,0,0,0,0,0
2.100000,-0.002583,0.023042,-0.000014,1,0,0,0,0,0,0,0.003365,-0.013670,-0.000090,1,0,0,0,0,0,0,0.021207,-0.016811,-0.000197,1,0,0,0,0,0,0
2.110000,-0.002800,0.024332,-0.000019,1,0,0,0,0,0,0,0.003637,-0.015295,-0.000091,1,0,0,0,0,0,0,0.021968,-0.017431,-0.000209,1,0,0,0,0,0,0
2.120000,-0.002975,0.025633,-0.000024,1,0,0,0,0,0,0,0.003782,-0.016767,-0.000093,1,0,0,0,0,0,0,0.022769,-0.018004,-0.000221,1,0,0,0,0,0,0
2.130000,-0.003097,0.026962,-0.000028,1,0,0,0,0,0,0,0.003803,-0.018103,-0.000094,1,0,0,0,0,0,0,0.023637,-0.018538,-0.000232,1,0,0,0,0,0,0
2.140000,-0.003159,0.028353,-0.000034,1,0,0,0,0,0,0,0.003713,-0.019321,-0.000095,1,0,0,0,0,0,0,0.024608,-0.019051,-0.000244,1,0,0,0,0,0,0
2.150000,-0.003159,0.029846,-0.000039,1,0,0,0,0,0,0,0.003522,-0.020432,-0.000095,1,0,0,0,0,0,0,0.025721,-0.019569,-0.000256,1,0,0,0,0,0,0
2.160000,-0.003096,0.031482,-0.000045,1,0,0,0,0,0,0,0.003240,-0.021449,-0.000095,1,0,0,0,0,0,0,0.027007,-0.020119,-0.000270,1,0,0,0,0,0,0
2.170000,-0.002976,0.033284,-0.000051,1,0,0,0,0,0,0,0.002876,-0.022380,-0.000094,1,0,0,0,0,0,0,0.028476,-0.020725,-0.000287,1,0,0,0,0,0,0
2.180000,-0.002812,0.035257,-0.000056,1,0,0,0,0,0,0,0.002437,-0.023235,-0.000093,1,0,0,0,0,0,0,0.030120,-0.021403,-0.000307,1,0,0,0,0,0,0
2.190000,-0.002619,0.037401,-0.000062,1,0,0,0,0,0,0,0.001937,-0.024023,-0.000091,1,0,0,0,0,0,0,0.031932,-0.022170,-0.000332,1,0,0,0,0,0,0
2.200000,-0.002416,0.039718,-0.000067,1,0,0,0,0,0,0,0.001363,-0.024768,-0.000088,1,0,0,0,0,0,0,0.033905,-0.023043,-0.000361,1,0,0,0,0,0,0
2.210000,-0.002220,0.042216,-0.000072,1,0,0,0,0,0,0,0.000711,-0.025494,-0.000085,1,0,0,0,0,0,0,0.036042,-0.024039,-0.000398,1,0,0,0,0,0,0
2.220000,-0.002047,0.044924,-0.000077,1,0,0,0,0,0,0,0.000007,-0.026208,-0.000081,1,0,0,0,0,0,0,0.038361,-0.025176,-0.000442,1,0,0,0,0,0,0
2.230000,-0.001904,0.047881,-0.000081,1,0,0,0,0,0,0,-0.000724,-0.026907,-0.000076,1,0,0,0,0,0,0,0.040891,-0.026471,-0.000495,1,0,0,0,0,0,0
2.240000,-0.001791,0.051145,-0.000085,1,0,0,0,0,0,0,-0.001460,-0.027583,-0.000070,1,0,0,0,0,0,0,0.043693,-0.027952,-0.000561,1,0,0,0,0,0,0
2.250000,-0.001706,0.054829,-0.000089,1,0,0,0,0,0,0,-0.002187,-0.028226,-0.000064,1,0,0,0,0,0,0,0.046898,-0.029693,-0.000642,1,0,0,0,0,0,0
2.260000,-0.001657,0.059129,-0.000094,1,0,0,0,0,0,0,-0.002895,-0.028830,-0.000057,1,0,0,0,0,0,0,0.050705,-0.031827,-0.000749,1,0,0,0,0,0,0
2.270000,-0.001664,0.064263,-0.000100,1,0,0,0,0,0,0,-0.003582,-0.029390,-0.000049,1,0,0,0,0,0,0,0.055281,-0.034485,-0.000893,1,0,0,0,0,0,0
2.280000,-0.001747,0.070290,-0.000107,1,0,0,0,0,0,0,-0.004252,-0.029904,-0.000041,1,0,0,0,0,0,0,0.060595,-0.037682,-0.001082,1,0,0,0,0,0,0
2.290000,-0.001916,0.077058,-0.000117,1,0,0,0,0,0,0,-0.004914,-0.030374,-0.000033,1,0,0,0,0,0,0,0.066467,-0.041314,-0.001316,1,0,0,0,0,0,0
2.300000,-0.002158,0.084363,-0.000129,1,0,0,0,0,0,0,-0.005583,-0.030795,-0.000024,1,0,0,0,0,0,0,0.072745,-0.045269,-0.001595,1,0,0,0,0,0,0
2.310000,-0.002442,0.092008,-0.000144,1,0,0,0,0,0,0,-0.006285,-0.031162,-0.000016,1,0,0,0,0,0,0,0.079282,-0.049408,-0.001913,1,0,0,0,0,0,0
2.320000,-0.002713,0.099720,-0.000162,1,0,0,0,0,0,0,-0.007053,-0.031465,-0.000007,1,0,0,0,0,0,0,0.085864,-0.053542,-0.002257,1,0,0,0,0,0,0
2.330000,-0.002941,0.107310,-0.000182,1,0,0,0,0,0,0,-0.007933,-0.031692,0.000002,1,0,0,0,0,0,0,0.092414,-0.057605,-0.002623,1,0,0,0,0,0,0
2.340000,-0.003150,0.114872,-0.000203,1,0,0,0,0,0,0,-0.008974,-0.031837,0.000010,1,0,0,0,0,0,0,0.099049,-0.061714,-0.003019,1,0,0,0,0,0,0
2.350000,-0.003411,0.122568,-0.000227,1,0,0,0,0,0,0,-0.010221,-0.031906,0.000019,1,0,0,0,0,0,0,0.105828,-0.065995,-0.003462,1,0,0,0,0,0,0
2.360000,-0.003794,0.130325,-0.000254,1,0,0,0,0,0,0,-0.011701,-0.031918,0.000027,1,0,0,0,0,0,0,0.112590,-0.070436,-0.003951,1,0,0,0,0,0,0
2.370000,-0.004328,0.137915,-0.000284,1,0,0,0,0,0,0,-0.013421,-0.031909,0.000036,1,0,0,0,0,0,0,0.119121,-0.074929,-0.004476,1,0,0,0,0,0,0
2.380000,-0.004980,0.145114,-0.000318,1,0,0,0,0,0,0,-0.015384,-0.031919,0.000047,1,0,0,0,0,0,0,0.125248,-0.079325,-0.005016,1,0,0,0,0,0,0
2.390000,-0.005677,0.151816,-0.000356,1,0,0,0,0,0,0,-0.017600,-0.031987,0.000059,1,0,0,0,0,0,0,0.130941,-0.083512,-0.005555,1,0,0,0,0,0,0
2.400000,-0.006364,0.158107,-0.000398,1,0,0,0,0,0,0,-0.020050,-0.032132,0.000074,1,0,0,0,0,0,0,0.136293,-0.087478,-0.006085,1,0,0,0,0,0,0
2.410000,-0.007011,0.164064,-0.000444,1,0,0,0,0,0,0,-0.022694,-0.032353,0.000093,1,0,0,0,0,0,0,0.141340,-0.091186,-0.006599,1,0,0,0,0,0,0
2.420000,-0.007579,0.169592,-0.000492,1,0,0,0,0,0,0,-0.025553,-0.032663,0.000116,1,0,0,0,0,0,0,0.146001,-0.094523,-0.007076,1,0,0,0,0,0,0
2.430000,-0.008001,0.174547,-0.000539,1,0,0,0,0,0,0,-0.028739,-0.033112,0.000146,1,0,0,0,0,0,0,0.150212,-0.097372,-0.007493,1,0,0,0,0,0,0
2.440000,-0.008201,0.178901,-0.000584,1,0,0,0,0,0,0,-0.032346,-0.033712,0.000183,1,0,0,0,0,0,0,0.154042,-0.099706,-0.007843,1,0,0,0,0,0,0
2.450000,-0.008134,0.182804,-0.000626,1,0,0,0,0,0,0,-0.036374,-0.034405,0.000228,1,0,0,0,0,0,0,0.157664,-0.101609,-0.008134,1,0,0,0,0,0,0
2.460000,-0.007804,0.186422,-0.000663,1,0,0,0,0,0,0,-0.040835,-0.035128,0.000278,1,0,0,0,0,0,0,0.161189,-0.103174,-0.008380,1,0,0,0,0,0,0
2.470000,-0.007249,0.189784,-0.000694,1,0,0,0,0,0,0,-0.045818,-0.035860,0.000335,1,0,0,0,0,0,0,0.164583,-0.104434,-0.008584,1,0,0,0,0,0,0
2.480000,-0.006508,0.192855,-0.000717,1,0,0,0,0,0,0,-0.051382,-0.036611,0.000399,1,0,0,0,0,0,0,0.167768,-0.105392,-0.008746,1,0,0,0,0,0,0
2.490000,-0.005633,0.195656,-0.000732,1,0,0,0,0,0,0,-0.057533,-0.037446,0.000476,1,0,0,0,0,0,0,0.170722,-0.106087,-0.008870,1,0,0,0,0,0,0
2.500000,-0.004681,0.198299,-0.000737,1,0,0,0,0,0,0,-0.064287,-0.038476,0.000573,1,0,0,0,0,0,0,0.173494,-0.106590,-0.008968,1,0,0,0,0,0,0
2.510000,-0.003705,0.200868,-0.000735,1,0,0,0,0,0,0,-0.071611,-0.039819,0.000702,1,0,0,0,0,0,0,0.176098,-0.106943,-0.009047,1,0,0,0,0,0,0
2.520000,-0.002732,0.203364,-0.000724,1,0,0,0,0,0,0,-0.079288,-0.041544,0.000874,1,0,0,0,0,0,0,0.178542,-0.107154,-0.009106,1,0,0,0,0,0,0
2.530000,-0.001771,0.205852,-0.000706,1,0,0,0,0,0,0,-0.086985,-0.043716,0.001100,1,0,0,0,0,0,0,0.180925,-0.107293,-0.009158,1,0,0,0,0,0,0
2.540000,-0.000852,0.208494,-0.000680,1,0,0,0,0,0,0,-0.094302,-0.046410,0.001392,1,0,0,0,0,0,0,0.183406,-0.107513,-0.009232,1,0,0,0,0,0,0
2.550000,-0.000042,0.211399,-0.000648,1,0,0,0,0,0,0,-0.100795,-0.049465,0.001738,1,0,0,0,0,0,0,0.186017,-0.107941,-0.009350,1,0,0,0,0,0,0
2.560000,0.000589,0.214407,-0.000610,1,0,0,0,0,0,0,-0.106426,-0.052579,0.002108,1,0,0,0,0,0,0,0.188536,-0.108548,-0.009507,1,0,0,0,0,0,0
2.570000,0.001004,0.217123,-0.000569,1,0,0,0,0,0,0,-0.111517,-0.055600,0.002481,1,0,0,0,0,0,0,0.190602,-0.109172,-0.009672,1,0,0,0,0,0,0
2.580000,0.001211,0.219141,-0.000526,1,0,0,0,0,0,0,-0.116479,-0.058440,0.002846,1,0,0,0,0,0,0,0.191908,-0.109626,-0.009807,1,0,0,0,0,0,0
2.590000,0.001241,0.220211,-0.000485,1,0,0,0,0,0,0,-0.121455,-0.060910,0.003177,1,0,0,0,0,0,0,0.192311,-0.109794,-0.009885,1,0,0,0,0,0,0
2.600000,0.001119,0.220267,-0.000446,1,0,0,0,0,0,0,-0.126272,-0.062900,0.003458,1,0,0,0,0,0,0,0.191813,-0.109657,-0.009903,1,0,0,0,0,0,0
2.610000,0.000832,0.219386,-0.000411,1,0,0,0,0,0,0,-0.130763,-0.064454,0.003691,1,0,0,0,0,0,0,0.190500,-0.109292,-0.009873,1,0,0,0,0,0,0
2.620000,0.000335,0.217722,-0.000380,1,0,0,0,0,0,0,-0.134838,-0.065766,0.003898,1,0,0,0,0,0,0,0.188485,-0.108822,-0.009819,1,0,0,0,0,0,0
2.630000,-0.000431,0.215436,-0.000352,1,0,0,0,0,0,0,-0.138593,-0.067085,0.004112,1,0,0,0,0,0,0,0.185833,-0.108353,-0.009761,1,0,0,0,0,0,0
2.640000,-0.001489,0.212575,-0.000328,1,0,0,0,0,0,0,-0.142226,-0.068638,0.004365,1,0,0,0,0,0,0,0.182501,-0.107863,-0.009694,1,0,0,0,0,0,0
2.650000,-0.002778,0.208999,-0.000306,1,0,0,0,0,0,0,-0.145748,-0.070486,0.004666,1,0,0,0,0,0,0,0.178356,-0.107180,-0.009584,1,0,0,0,0,0,0
2.660000,-0.004163,0.204509,-0.000285,1,0,0,0,0,0,0,-0.148893,-0.072476,0.004991,1,0,0,0,0,0,0,0.173336,-0.106095,-0.009396,1,0,0,0,0,0,0
2.670000,-0.005505,0.199070,-0.000262,1,0,0,0,0,0,0,-0.151384,-0.074407,0.005311,1,0,0,0,0,0,0,0.167576,-0.104530,-0.009120,1,0,0,0,0,0,0
2.680000,-0.006728,0.192898,-0.000236,1,0,0,0,0,0,0,-0.153113,-0.076105,0.005595,1,0,0,0,0,0,0,0.161369,-0.102579,-0.008780,1,0,0,0,0,0,0
2.690000,-0.007830,0.186308,-0.000208,1,0,0,0,0,0,0,-0.154202,-0.077439,0.005819,1,0,0,0,0,0,0,0.154976,-0.100400,-0.008406,1,0,0,0,0,0,0
2.700000,-0.008834,0.179492,-0.000179,1,0,0,0,0,0,0,-0.154929,-0.078372,0.005978,1,0,0,0,0,0,0,0.148503,-0.098084,-0.008018,1,0,0,0,0,0,0
2.710000,-0.009743,0.172461,-0.000146,1,0,0,0,0,0,0,-0.155549,-0.078948,0.006077,1,0,0,0,0,0,0,0.141937,-0.095625,-0.007617,1,0,0,0,0,0,0
2.720000,-0.010537,0.165199,-0.000111,1,0,0,0,0,0,0,-0.156125,-0.079252,0.006131,1,0,0,0,0,0,0,0.135287,-0.093009,-0.007204,1,0,0,0,0,0,0
2.730000,-0.011211,0.157800,-0.000073,1,0,0,0,0,0,0,-0.156523,-0.079383,0.006157,1,0,0,0,0,0,0,0.128651,-0.090292,-0.006790,1,0,0,0,0,0,0
2.740000,-0.011801,0.150463,-0.000035,1,0,0,0,0,0,0,-0.156646,-0.079453,0.006173,1,0,0,0,0,0,0,0.122160,-0.087584,-0.006391,1,0,0,0,0,0,0
2.750000,-0.012376,0.143381,0.000002,1,0,0,0,0,0,0,-0.156480,-0.079558,0.006193,1,0,0,0,0,0,0,0.115901,-0.084991,-0.006019,1,0,0,0,0,0,0
2.760000,-0.012994,0.136639,0.000035,1,0,0,0,0,0,0,-0.156045,-0.079714,0.006221,1,0,0,0,0,0,0,0.109887,-0.082559,-0.005678,1,0,0,0,0,0,0
2.770000,-0.013677,0.130232,0.000067,1,0,0,0,0,0,0,-0.155432,-0.079879,0.006249,1,0,0,0,0,0,0,0.104116,-0.080285,-0.005365,1,0,0,0,0,0,0
2.780000,-0.014413,0.124156,0.000096,1,0,0,0,0,0,0,-0.154708,-0.079948,0.006259,1,0,0,0,0,0,0,0.098608,-0.078149,-0.005078,1,0,0,0,0,0,0
2.790000,-0.015172,0.118453,0.000122,1,0,0,0,0,0,0,-0.153917,-0.079827,0.006238,1,0,0,0,0,0,0,0.093451,-0.076169,-0.004814,1,0,0,0,0,0,0
2.800000,-0.015938,0.113242,0.000143,1,0,0,0,0,0,0,-0.153092,-0.079486,0.006181,1,0,0,0,0,0,0,0.088770,-0.074406,-0.004578,1,0,0,0,0,0,0
2.810000,-0.016719,0.108611,0.000157,1,0,0,0,0,0,0,-0.152273,-0.078976,0.006098,1,0,0,0,0,0,0,0.084632,-0.072924,-0.004373,1,0,0,0,0,0,0
2.820000,-0.017545,0.104568,0.000163,1,0,0,0,0,0,0,-0.151517,-0.078401,0.006005,1,0,0,0,0,0,0,0.081011,-0.071753,-0.004198,1,0,0,0,0,0,0
2.830000,-0.018442,0.101004,0.000163,1,0,0,0,0,0,0,-0.150839,-0.077851,0.005918,1,0,0,0,0,0,0,0.077766,-0.070841,-0.004048,1,0,0,0,0,0,0
2.840000,-0.019410,0.097713,0.000160,1,0,0,0,0,0,0,-0.150169,-0.077358,0.005840,1,0,0,0,0,0,0,0.074699,-0.070071,-0.003912,1,0,0,0,0,0,0
2.850000,-0.020433,0.094524,0.000157,1,0,0,0,0,0,0,-0.149347,-0.076892,0.005768,1,0,0,0,0,0,0,0.071665,-0.069337,-0.003780,1,0,0,0,0,0,0
2.860000,-0.021482,0.091323,0.000158,1,0,0,0,0,0,0,-0.148267,-0.076448,0.005700,1,0,0,0,0,0,0,0.068571,-0.068546,-0.003646,1,0,0,0,0,0,0
2.870000,-0.022529,0.088061,0.000162,1,0,0,0,0,0,0,-0.146897,-0.076077,0.005644,1,0,0,0,0,0,0,0.065381,-0.067642,-0.003508,1,0,0,0,0,0,0
2.880000,-0.023563,0.084751,0.000169,1,0,0,0,0,0,0,-0.145150,-0.075790,0.005599,1,0,0,0,0,0,0,0.062116,-0.066623,-0.003365,1,0,0,0,0,0,0
2.890000,-0.024581,0.081423,0.000180,1,0,0,0,0,0,0,-0.142990,-0.075611,0.005569,1,0,0,0,0,0,0,0.058800,-0.065492,-0.003218,1,0,0,0,0,0,0
2.900000,-0.025570,0.078115,0.000192,1,0,0,0,0,0,0,-0.140399,-0.075539,0.005551,1,0,0,0,0,0,0,0.055485,-0.064278,-0.003071,1,0,0,0,0,0,0
2.910000,-0.026529,0.074922,0.000204,1,0,0,0,0,0,0,-0.137331,-0.075447,0.005526,1,0,0,0,0,0,0,0.052274,-0.063053,-0.002927,1,0,0,0,0,0,0
2.920000,-0.027463,0.071983,0.000212,1,0,0,0,0,0,0,-0.133760,-0.075190,0.005473,1,0,0,0,0,0,0,0.049282,-0.061900,-0.002791,1,0,0,0,0,0,0
2.930000,-0.028366,0.069377,0.000213,1,0,0,0,0,0,0,-0.129703,-0.074621,0.005374,1,0,0,0,0,0,0,0.046562,-0.060856,-0.002665,1,0,0,0,0,0,0
2.940000,-0.029214,0.067058,0.000208,1,0,0,0,0,0,0,-0.125241,-0.073645,0.005220,1,0,0,0,0,0,0,0.044066,-0.059857,-0.002544,1,0,0,0,0,0,0
2.950000,-0.029949,0.064871,0.000201,1,0,0,0,0,0,0,-0.120517,-0.072250,0.005014,1,0,0,0,0,0,0,0.041693,-0.058779,-0.002423,1,0,0,0,0,0,0
2.960000,-0.030504,0.062701,0.000196,1,0,0,0,0,0,0,-0.115713,-0.070479,0.004766,1,0,0,0,0,0,0,0.039412,-0.057520,-0.002299,1,0,0,0,0,0,0
2.970000,-0.030814,0.060505,0.000194,1,0,0,0,0,0,0,-0.111014,-0.068416,0.004491,1,0,0,0,0,0,0,0.037260,-0.056037,-0.002171,1,0,0,0,0,0,0
2.980000,-0.030845,0.058351,0.000192,1,0,0,0,0,0,0,-0.106506,-0.066163,0.004203,1,0,0,0,0,0,0,0.035355,-0.054381,-0.002042,1,0,0,0,0,0,0
2.990000,-0.030614,0.056409,0.000185,1,0,0,0,0,0,0,-0.102193,-0.063806,0.003915,1,0,0,0,0,0,0,0.033838,-0.052669,-0.001917,1,0,0,0,0,0,0
3.000000,-0.030174,0.054831,0.000169,1,0,0,0,0,0,0,-0.097999,-0.061410,0.003634,1,0,0,0,0,0,0,0.032779,-0.051026,-0.001799,1,0,0,0,0,0,0
3.010000,-0.029599,0.053680,0.000143,1,0,0,0,0,0,0,-0.093871,-0.059052,0.003368,1,0,0,0,0,0,0,0.032158,-0.049530,-0.001690,1,0,0,0,0,0,0
3.020000,-0.028952,0.052928,0.000107,1,0,0,0,0,0,0,-0.089751,-0.056823,0.003126,1,0,0,0,0,0,0,0.031901,-0.048212,-0.001593,1,0,0,0,0,0,0
3.030000,-0.028273,0.052537,0.000064,1,0,0,0,0,0,0,-0.085571,-0.054783,0.002910,1,0,0,0,0,0,0,0.031951,-0.047084,-0.001505,1,0,0,0,0,0,0
3.040000,-0.027591,0.052486,0.000015,1,0,0,0,0,0,0,-0.081321,-0.052941,0.002721,1,0,0,0,0,0,0,0.032267,-0.046154,-0.001428,1,0,0,0,0,0,0
3.050000,-0.026930,0.052801,-0.000041,1,0,0,0,0,0,0,-0.077067,-0.051275,0.002554,1,0,0,0,0,0,0,0.032867,-0.045457,-0.001362,1,0,0,0,0,0,0
3.060000,-0.026319,0.053502,-0.000102,1,0,0,0,0,0,0,-0.072893,-0.049711,0.002402,1,0,0,0,0,0,0,0.033763,-0.045031,-0.001308,1,0,0,0,0,0,0
3.070000,-0.025787,0.054590,-0.000168,1,0,0,0,0,0,0,-0.068867,-0.048151,0.002255,1,0,0,0,0,0,0,0.034962,-0.044910,-0.001269,1,0,0,0,0,0,0
3.080000,-0.025371,0.056089,-0.000241,1,0,0,0,0,0,0,-0.065093,-0.046547,0.002112,1,0,0,0,0,0,0,0.036486,-0.045145,-0.001246,1,0,0,0,0,0,0
3.090000,-0.025108,0.058031,-0.000321,1,0,0,0,0,0,0,-0.061644,-0.044872,0.001970,1,0,0,0,0,0,0,0.038351,-0.045776,-0.001243,1,0,0,0,0,0,0
3.100000,-0.025012,0.060404,-0.000407,1,0,0,0,0,0,0,-0.058549,-0.043134,0.001830,1,0,0,0,0,0,0,0.040535,-0.046805,-0.001260,1,0,0,0,0,0,0
3.110000,-0.025075,0.063158,-0.000499,1,0,0,0,0,0,0,-0.055864,-0.041391,0.001695,1,0,0,0,0,0,0,0.043005,-0.048206,-0.001298,1,0,0,0,0,0,0
3.120000,-0.025285,0.066240,-0.000596,1,0,0,0,0,0,0,-0.053622,-0.039729,0.001571,1,0,0,0,0,0,0,0.045723,-0.049950,-0.001358,1,0,0,0,0,0,0
3.130000,-0.025624,0.069575,-0.000697,1,0,0,0,0,0,0,-0.051841,-0.038235,0.001460,1,0,0,0,0,0,0,0.048634,-0.051989,-0.001439,1,0,0,0,0,0,0
3.140000,-0.026074,0.073075,-0.000801,1,0,0,0,0,0,0,-0.050590,-0.037010,0.001368,1,0,0,0,0,0,0,0.051676,-0.054275,-0.001542,1,0,0,0,0,0,0
3.150000,-0.026636,0.076689,-0.000907,1,0,0,0,0,0,0,-0.049960,-0.036160,0.001298,1,0,0,0,0,0,0,0.054804,-0.056790,-0.001667,1,0,0,0,0,0,0
3.160000,-0.027325,0.080387,-0.001015,1,0,0,0,0,0,0,-0.049959,-0.035742,0.001253,1,0,0,0,0,0,0,0.057968,-0.059528,-0.001813,1,0,0,0,0,0,0
3.170000,-0.028152,0.084098,-0.001125,1,0,0,0,0,0,0,-0.050488,-0.035727,0.001229,1,0,0,0,0,0,0,0.061070,-0.062440,-0.001981,1,0,0,0,0,0,0
3.180000,-0.029095,0.087675,-0.001232,1,0,0,0,0,0,0,-0.051437,-0.036031,0.001224,1,0,0,0,0,0,0,0.063974,-0.065419,-0.002162,1,0,0,0,0,0,0
3.190000,-0.030098,0.090940,-0.001332,1,0,0,0,0,0,0,-0.052770,-0.036582,0.001234,1,0,0,0,0,0,0,0.066553,-0.068318,-0.002348,1,0,0,0,0,0,0
3.200000,-0.031075,0.093767,-0.001422,1,0,0,0,0,0,0,-0.054489,-0.037297,0.001255,1,0,0,0,0,0,0,0.068756,-0.070999,-0.002525,1,0,0,0,0,0,0
3.210000,-0.031950,0.096173,-0.001500,1,0,0,0,0,0,0,-0.056535,-0.038070,0.001283,1,0,0,0,0,0,0,0.070656,-0.073411,-0.002689,1,0,0,0,0,0,0
3.220000,-0.032698,0.098331,-0.001572,1,0,0,0,0,0,0,-0.058866,-0.038863,0.001315,1,0,0,0,0,0,0,0.072411,-0.075616,-0.002842,1,0,0,0,0,0,0
3.230000,-0.033337,0.100481,-0.001646,1,0,0,0,0,0,0,-0.061518,-0.039749,0.001357,1,0,0,0,0,0,0,0.074195,-0.077734,-0.002992,1,0,0,0,0,0,0
3.240000,-0.033898,0.102766,-0.001725,1,0,0,0,0,0,0,-0.064587,-0.040888,0.001420,1,0,0,0,0,0,0,0.076074,-0.079830,-0.003144,1,0,0,0,0,0,0
3.250000,-0.034382,0.105137,-0.001808,1,0,0,0,0,0,0,-0.068022,-0.042395,0.001513,1,0,0,0,0,0,0,0.077989,-0.081867,-0.003295,1,0,0,0,0,0,0
3.260000,-0.034755,0.107459,-0.001889,1,0,0,0,0,0,0,-0.071597,-0.044267,0.001639,1,0,0,0,0,0,0,0.079844,-0.083746,-0.003438,1,0,0,0,0,0,0
3.270000,-0.034958,0.109603,-0.001964,1,0,0,0,0,0,0,-0.075137,-0.046484,0.001798,1,0,0,0,0,0,0,0.081570,-0.085362,-0.003563,1,0,0,0,0,0,0
3.280000,-0.034948,0.111525,-0.002029,1,0,0,0,0,0,0,-0.078465,-0.048966,0.001985,1,0,0,0,0,0,0,0.083171,-0.086661,-0.003666,1,0,0,0,0,0,0
3.290000,-0.034714,0.113267,-0.002087,1,0,0,0,0,0,0,-0.081410,-0.051518,0.002186,1,0,0,0,0,0,0,0.084694,-0.087654,-0.003746,1,0,0,0,0,0,0
3.300000,-0.034289,0.114877,-0.002136,1,0,0,0,0,0,0,-0.083958,-0.053984,0.002385,1,0,0,0,0,0,0,0.086160,-0.088387,-0.003806,1,0,0,0,0,0,0
3.310000,-0.033728,0.116380,-0.002179,1,0,0,0,0,0,0,-0.086229,-0.056295,0.002576,1,0,0,0,0,0,0,0.087574,-0.088922,-0.003852,1,0,0,0,0,0,0
3.320000,-0.033098,0.117829,-0.002217,1,0,0,0,0,0,0,-0.088356,-0.058364,0.002750,1,0,0,0,0,0,0,0.088966,-0.089363,-0.003893,1,0,0,0,0,0,0
3.330000,-0.032485,0.119328,-0.002252,1,0,0,0,0,0,0,-0.090410,-0.060088,0.002895,1,0,0,0,0,0,0,0.090387,-0.089850,-0.003941,1,0,0,0,0,0,0
3.340000,-0.031984,0.120984,-0.002289,1,0,0,0,0,0,0,-0.092431,-0.061403,0.003005,1,0,0,0,0,0,0,0.091872,-0.090518,-0.004009,1,0,0,0,0,0,0
3.350000,-0.031670,0.122829,-0.002328,1,0,0,0,0,0,0,-0.094469,-0.062316,0.003081,1,0,0,0,0,0,0,0.093390,-0.091427,-0.004102,1,0,0,0,0,0,0
3.360000,-0.031575,0.124789,-0.002369,1,0,0,0,0,0,0,-0.096582,-0.062924,0.003131,1,0,0,0,0,0,0,0.094852,-0.092545,-0.004217,1,0,0,0,0,0,0
3.370000,-0.031684,0.126738,-0.002408,1,0,0,0,0,0,0,-0.098856,-0.063383,0.003169,1,0,0,0,0,0,0,0.096169,-0.093778,-0.004346,1,0,0,0,0,0,0
3.380000,-0.031946,0.128583,-0.002443,1,0,0,0,0,0,0,-0.101397,-0.063855,0.003213,1,0,0,0,0,0,0,0.097316,-0.095039,-0.004479,1,0,0,0,0,0,0
3.390000,-0.032317,0.130343,-0.002477,1,0,0,0,0,0,0,-0.104219,-0.064459,0.003276,1,0,0,0,0,0,0,0.098368,-0.096322,-0.004615,1,0,0,0,0,0,0
3.400000,-0.032804,0.132154,-0.002514,1,0,0,0,0,0,0,-0.107176,-0.065241,0.003362,1,0,0,0,0,0,0,0.099450,-0.097714,-0.004762,1,0,0,0,0,0,0
3.410000,-0.033443,0.134124,-0.002559,1,0,0,0,0,0,0,-0.110063,-0.066201,0.003474,1,0,0,0,0,0,0,0.100615,-0.099287,-0.004928,1,0,0,0,0,0,0
3.420000,-0.034239,0.136199,-0.002610,1,0,0,0,0,0,0,-0.112704,-0.067314,0.003607,1,0,0,0,0,0,0,0.101790,-0.101008,-0.005109,1,0,0,0,0,0,0
3.430000,-0.035160,0.138209,-0.002663,1,0,0,0,0,0,0,-0.114997,-0.068488,0.003752,1,0,0,0,0,0,0,0.102844,-0.102773,-0.005294,1,0,0,0,0,0,0
3.440000,-0.036141,0.139984,-0.002711,1,0,0,0,0,0,0,-0.116995,-0.069596,0.003893,1,0,0,0,0,0,0,0.103674,-0.104456,-0.005471,1,0,0,0,0,0,0
3.450000,-0.037101,0.141412,-0.002752,1,0,0,0,0,0,0,-0.118874,-0.070514,0.004013,1,0,0,0,0,0,0,0.104242,-0.105957,-0.005627,1,0,0,0,0,0,0
3.460000,-0.037971,0.142458,-0.002782,1,0,0,0,0,0,0,-0.120865,-0.071172,0.004103,1,0,0,0,0,0,0,0.104562,-0.107223,-0.005756,1,0,0,0,0,0,0
3.470000,-0.038717,0.143136,-0.002803,1,0,0,0,0,0,0,-0.123056,-0.071551,0.004162,1,0,0,0,0,0,0,0.104658,-0.108232,-0.005856,1,0,0,0,0,0,0
3.480000,-0.039313,0.143442,-0.002811,1,0,0,0,0,0,0,-0.125417,-0.071727,0.004198,1,0,0,0,0,0,0,0.104518,-0.108945,-0.005921,1,0,0,0,0,0,0
3.490000,-0.039721,0.143333,-0.002806,1,0,0,0,0,0,0,-0.127897,-0.071838,0.004229,1,0,0,0,0,0,0,0.104112,-0.109283,-0.005945,1,0,0,0,0,0,0
3.500000,-0.039877,0.142777,-0.002786,1,0,0,0,0,0,0,-0.130417,-0.072020,0.004274,1,0,0,0,0,0,0,0.103443,-0.109166,-0.005919,1,0,0,0,0,0,0
3.510000,-0.039706,0.141808,-0.002750,1,0,0,0,0,0,0,-0.132891,-0.072345,0.004341,1,0,0,0,0,0,0,0.102588,-0.108550,-0.005840,1,0,0,0,0,0,0
3.520000,-0.039158,0.140558,-0.002703,1,0,0,0,0,0,0,-0.135238,-0.072805,0.004430,1,0,0,0,0,0,0,0.101695,-0.107470,-0.005713,1,0,0,0,0,0,0
3.530000,-0.038235,0.139213,-0.002654,1,0,0,0,0,0,0,-0.137418,-0.073374,0.004537,1,0,0,0,0,0,0,0.100928,-0.106031,-0.005552,1,0,0,0,0,0,0
3.540000,-0.036998,0.137923,-0.002606,1,0,0,0,0,0,0,-0.139380,-0.074011,0.004657,1,0,0,0,0,0,0,0.100380,-0.104364,-0.005370,1,0,0,0,0,0,0
3.550000,-0.035534,0.136720,-0.002561,1,0,0,0,0,0,0,-0.141063,-0.074662,0.004779,1,0,0,0,0,0,0,0.100020,-0.102551,-0.005178,1,0,0,0,0,0,0
3.560000,-0.033904,0.135527,-0.002513,1,0,0,0,0,0,0,-0.142411,-0.075253,0.004894,1,0,0,0,0,0,0,0.099738,-0.100598,-0.004976,1,0,0,0,0,0,0
3.570000,-0.032133,0.134207,-0.002459,1,0,0,0,0,0,0,-0.143453,-0.075753,0.004995,1,0,0,0,0,0,0,0.099409,-0.098458,-0.004762,1,0,0,0,0,0,0
3.580000,-0.030220,0.132659,-0.002395,1,0,0,0,0,0,0,-0.144246,-0.076143,0.005080,1,0,0,0,0,0,0,0.098958,-0.096088,-0.004530,1,0,0,0,0,0,0
3.590000,-0.028182,0.130864,-0.002321,1,0,0,0,0,0,0,-0.144781,-0.076393,0.005143,1,0,0,0,0,0,0,0.098382,-0.093506,-0.004285,1,0,0,0,0,0,0
3.600000,-0.026077,0.128904,-0.002241,1,0,0,0,0,0,0,-0.145016,-0.076513,0.005185,1,0,0,0,0,0,0,0.097729,-0.090810,-0.004035,1,0,0,0,0,0,0
3.610000,-0.024017,0.126925,-0.002160,1,0,0,0,0,0,0,-0.144892,-0.076568,0.005217,1,0,0,0,0,0,0,0.097064,-0.088165,-0.003797,1,0,0,0,0,0,0
3.620000,-0.022146,0.125095,-0.002082,1,0,0,0,0,0,0,-0.144360,-0.076656,0.005251,1,0,0,0,0,0,0,0.096437,-0.085768,-0.003590,1,0,0,0,0,0,0
3.630000,-0.020607,0.123539,-0.002009,1,0,0,0,0,0,0,-0.143394,-0.076844,0.005297,1,0,0,0,0,0,0,0.095854,-0.083784,-0.003429,1,0,0,0,0,0,0
3.640000,-0.019488,0.122251,-0.001940,1,0,0,0,0,0,0,-0.142001,-0.077136,0.005355,1,0,0,0,0,0,0,0.095257,-0.082280,-0.003318,1,0,0,0,0,0,0
3.650000,-0.018806,0.121122,-0.001875,1,0,0,0,0,0,0,-0.140198,-0.077458,0.005411,1,0,0,0,0,0,0,0.094557,-0.081218,-0.003252,1,0,0,0,0,0,0
3.660000,-0.018520,0.120017,-0.001810,1,0,0,0,0,0,0,-0.137976,-0.077662,0.005445,1,0,0,0,0,0,0,0.093692,-0.080500,-0.003219,1,0,0,0,0,0,0
3.670000,-0.018551,0.118861,-0.001746,1,0,0,0,0,0,0,-0.135314,-0.077582,0.005432,1,0,0,0,0,0,0,0.092679,-0.080038,-0.003210,1,0,0,0,0,0,0
3.680000,-0.018826,0.117686,-0.001684,1,0,0,0,0,0,0,-0.132218,-0.077095,0.005360,1,0,0,0,0,0,0,0.091613,-0.079796,-0.003219,1,0,0,0,0,0,0
3.690000,-0.019297,0.116584,-0.001626,1,0,0,0,0,0,0,-0.128766,-0.076149,0.005223,1,0,0,0,0,0,0,0.090603,-0.079784,-0.003246,1,0,0,0,0,0,0
3.700000,-0.019943,0.115617,-0.001575,1,0,0,0,0,0,0,-0.125119,-0.074783,0.005032,1,0,0,0,0,0,0,0.089699,-0.080005,-0.003290,1,0,0,0,0,0,0
3.710000,-0.020732,0.114755,-0.001530,1,0,0,0,0,0,0,-0.121495,-0.073093,0.004802,1,0,0,0,0,0,0,0.088877,-0.080413,-0.003347,1,0,0,0,0,0,0
3.720000,-0.021611,0.113915,-0.001489,1,0,0,0,0,0,0,-0.118114,-0.071201,0.004553,1,0,0,0,0,0,0,0.088084,-0.080928,-0.003409,1,0,0,0,0,0,0
3.730000,-0.022524,0.113053,-0.001452,1,0,0,0,0,0,0,-0.115050,-0.069229,0.004301,1,0,0,0,0,0,0,0.087298,-0.081482,-0.003470,1,0,0,0,0,0,0
3.740000,-0.023414,0.112154,-0.001418,1,0,0,0,0,0,0,-0.112254,-0.067269,0.004057,1,0,0,0,0,0,0,0.086511,-0.082004,-0.003523,1,0,0,0,0,0,0
3.750000,-0.024212,0.111181,-0.001386,1,0,0,0,0,0,0,-0.109626,-0.065386,0.003829,1,0,0,0,0,0,0,0.085692,-0.082390,-0.003561,1,0,0,0,0,0,0
3.760000,-0.024840,0.110047,-0.001353,1,0,0,0,0,0,0,-0.107082,-0.063642,0.003624,1,0,0,0,0,0,0,0.084790,-0.082503,-0.003571,1,0,0,0,0,0,0
3.770000,-0.025209,0.108677,-0.001318,1,0,0,0,0,0,0,-0.104528,-0.062068,0.003442,1,0,0,0,0,0,0,0.083791,-0.082224,-0.003545,1,0,0,0,0,0,0
3.780000,-0.025255,0.107105,-0.001279,1,0,0,0,0,0,0,-0.101929,-0.060668,0.003284,1,0,0,0,0,0,0,0.082777,-0.081524,-0.003482,1,0,0,0,0,0,0
3.790000,-0.024961,0.105489,-0.001242,1,0,0,0,0,0,0,-0.099291,-0.059418,0.003146,1,0,0,0,0,0,0,0.081904,-0.080478,-0.003389,1,0,0,0,0,0,0
3.800000,-0.024349,0.104022,-0.001209,1,0,0,0,0,0,0,-0.096653,-0.058282,0.003022,1,0,0,0,0,0,0,0.081304,-0.079188,-0.003278,1,0,0,0,0,0,0
3.810000,-0.023455,0.102786,-0.001183,1,0,0,0,0,0,0,-0.094023,-0.057190,0.002905,1,0,0,0,0,0,0,0.081001,-0.077704,-0.003153,1,0,0,0,0,0,0
3.820000,-0.022286,0.101738,-0.001161,1,0,0,0,0,0,0,-0.091401,-0.056063,0.002788,1,0,0,0,0,0,0,0.080963,-0.076008,-0.003014,1,0,0,0,0,0,0
3.830000,-0.020828,0.100828,-0.001141,1,0,0,0,0,0,0,-0.088793,-0.054840,0.002664,1,0,0,0,0,0,0,0.081182,-0.074092,-0.002860,1,0,0,0,0,0,0
3.840000,-0.019100,0.100076,-0.001122,1,0,0,0,0,0,0,-0.086221,-0.053475,0.002530,1,0,0,0,0,0,0,0.081699,-0.072025,-0.002698,1,0,0,0,0,0,0
3.850000,-0.017174,0.099586,-0.001105,1,0,0,0,0,0,0,-0.083764,-0.051969,0.002388,1,0,0,0,0,0,0,0.082561,-0.069938,-0.002538,1,0,0,0,0,0,0
3.860000,-0.015163,0.099419,-0.001090,1,0,0,0,0,0,0,-0.081529,-0.050359,0.002242,1,0,0,0,0,0,0,0.083718,-0.067942,-0.002389,1,0,0,0,0,0,0
3.870000,-0.013171,0.099499,-0.001073,1,0,0,0,0,0,0,-0.079590,-0.048706,0.002096,1,0,0,0,0,0,0,0.085006,-0.066047,-0.002253,1,0,0,0,0,0,0
3.880000,-0.011247,0.099665,-0.001053,1,0,0,0,0,0,0,-0.077983,-0.047088,0.001958,1,0,0,0,0,0,0,0.086249,-0.064192,-0.002124,1,0,0,0,0,0,0
3.890000,-0.009395,0.099818,-0.001027,1,0,0,0,0,0,0,-0.076685,-0.045595,0.001834,1,0,0,0,0,0,0,0.087383,-0.062342,-0.001998,1,0,0,0,0,0,0
3.900000,-0.007622,0.099971,-0.000997,1,0,0,0,0,0,0,-0.075617,-0.044311,0.001730,1,0,0,0,0,0,0,0.088455,-0.060546,-0.001881,1,0,0,0,0,0,0
3.910000,-0.005976,0.100292,-0.000965,1,0,0,0,0,0,0,-0.074690,-0.043304,0.001649,1,0,0,0,0,0,0,0.089600,-0.058966,-0.001785,1,0,0,0,0,0,0
3.920000,-0.004565,0.101000,-0.000930,1,0,0,0,0,0,0,-0.073793,-0.042588,0.001593,1,0,0,0,0,0,0,0.090928,-0.057803,-0.001729,1,0,0,0,0,0,0
3.930000,-0.003507,0.102196,-0.000894,1,0,0,0,0,0,0,-0.072839,-0.042121,0.001557,1,0,0,0,0,0,0,0.092424,-0.057182,-0.001725,1,0,0,0,0,0,0
3.940000,-0.002864,0.103792,-0.000857,1,0,0,0,0,0,0,-0.071781,-0.041813,0.001533,1,0,0,0,0,0,0,0.093973,-0.057093,-0.001771,1,0,0,0,0,0,0
3.950000,-0.002623,0.105626,-0.000820,1,0,0,0,0,0,0,-0.070615,-0.041558,0.001513,1,0,0,0,0,0,0,0.095468,-0.057444,-0.001859,1,0,0,0,0,0,0
3.960000,-0.002707,0.107553,-0.000784,1,0,0,0,0,0,0,-0.069383,-0.041270,0.001490,1,0,0,0,0,0,0,0.096859,-0.058102,-0.001976,1,0,0,0,0,0,0
3.970000,-0.003005,0.109487,-0.000750,1,0,0,0,0,0,0,-0.068166,-0.040929,0.001464,1,0,0,0,0,0,0,0.098156,-0.058938,-0.002110,1,0,0,0,0,0,0
3.980000,-0.003408,0.111398,-0.000720,1,0,0,0,0,0,0,-0.067024,-0.040559,0.001435,1,0,0,0,0,0,0,0.099417,-0.059869,-0.002251,1,0,0,0,0,0,0
3.990000,-0.003842,0.113297,-0.000693,1,0,0,0,0,0,0,-0.065969,-0.040216,0.001408,1,0,0,0,0,0,0,0.100703,-0.060859,-0.002396,1,0,0,0,0,0,0
4.000000,-0.004285,0.115222,-0.000670,1,0,0,0,0,0,0,-0.064959,-0.039951,0.001386,1,0,0,0,0,0,0,0.102043,-0.061914,-0.002546,1,0,0,0,0,0,0
4.010000,-0.004746,0.117282,-0.000653,1,0,0,0,0,0,0,-0.063969,-0.039815,0.001372,1,0,0,0,0,0,0,0.103503,-0.063091,-0.002706,1,0,0,0,0,0,0
4.020000,-0.005241,0.119713,-0.000641,1,0,0,0,0,0,0,-0.063055,-0.039868,0.001370,1,0,0,0,0,0,0,0.105258,-0.064508,-0.002890,1,0,0,0,0,0,0
4.030000,-0.005755,0.122466,-0.000635,1,0,0,0,0,0,0,-0.062174,-0.040079,0.001377,1,0,0,0,0,0,0,0.107254,-0.066123,-0.003095,1,0,0,0,0,0,0
4.040000,-0.006240,0.125382,-0.000634,1,0,0,0,0,0,0,-0.061306,-0.040408,0.001390,1,0,0,0,0,0,0,0.109382,-0.067820,-0.003309,1,0,0,0,0,0,0
4.050000,-0.006626,0.128298,-0.000637,1,0,0,0,0,0,0,-0.060461,-0.040819,0.001406,1,0,0,0,0,0,0,0.111558,-0.069471,-0.003519,1,0,0,0,0,0,0
4.060000,-0.006843,0.131099,-0.000642,1,0,0,0,0,0,0,-0.059666,-0.041268,0.001424,1,0,0,0,0,0,0,0.113745,-0.070973,-0.003712,1,0,0,0,0,0,0
4.070000,-0.006842,0.133739,-0.000648,1,0,0,0,0,0,0,-0.058953,-0.041721,0.001440,1,0,0,0,0,0,0,0.115949,-0.072272,-0.003884,1,0,0,0,0,0,0
4.080000,-0.006603,0.136235,-0.000653,1,0,0,0,0,0,0,-0.058349,-0.042136,0.001452,1,0,0,0,0,0,0,0.118204,-0.073370,-0.004033,1,0,0,0,0,0,0
4.090000,-0.006139,0.138640,-0.000656,1,0,0,0,0,0,0,-0.057864,-0.042459,0.001458,1,0,0,0,0,0,0,0.120547,-0.074303,-0.004164,1,0,0,0,0,0,0
4.100000,-0.005480,0.141005,-0.000657,1,0,0,0,0,0,0,-0.057484,-0.042638,0.001455,1,0,0,0,0,0,0,0.123003,-0.075119,-0.004283,1,0,0,0,0,0,0
4.110000,-0.004665,0.143349,-0.000653,1,0,0,0,0,0,0,-0.057217,-0.042646,0.001442,1,0,0,0,0,0,0,0.125559,-0.075859,-0.004396,1,0,0,0,0,0,0
4.120000,-0.003739,0.145661,-0.000645,1,0,0,0,0,0,0,-0.057099,-0.042490,0.001420,1,0,0,0,0,0,0,0.128174,-0.076548,-0.004506,1,0,0,0,0,0,0
4.130000,-0.002745,0.147906,-0.000632,1,0,0,0,0,0,0,-0.057147,-0.042210,0.001391,1,0,0,0,0,0,0,0.130784,-0.077198,-0.004615,1,0,0,0,0,0,0
4.140000,-0.001730,0.150037,-0.000613,1,0,0,0,0,0,0,-0.057310,-0.041868,0.001360,1,0,0,0,0,0,0,0.133309,-0.077812,-0.004722,1,0,0,0,0,0,0
4.150000,-0.000738,0.151986,-0.000588,1,0,0,0,0,0,0,-0.057500,-0.041501,0.001328,1,0,0,0,0,0,0,0.135644,-0.078376,-0.004826,1,0,0,0,0,0,0
4.160000,0.000190,0.153664,-0.000558,1,0,0,0,0,0,0,-0.057693,-0.041129,0.001298,1,0,0,0,0,0,0,0.137681,-0.078866,-0.004923,1,0,0,0,0,0,0
4.170000,0.001026,0.155024,-0.000524,1,0,0,0,0,0,0,-0.057935,-0.040786,0.001271,1,0,0,0,0,0,0,0.139369,-0.079279,-0.005011,1,0,0,0,0,0,0
4.180000,0.001744,0.156053,-0.000487,1,0,0,0,0,0,0,-0.058221,-0.040489,0.001247,1,0,0,0,0,0,0,0.140678,-0.079624,-0.005091,1,0,0,0,0,0,0
4.190000,0.002323,0.156743,-0.000449,1,0,0,0,0,0,0,-0.058501,-0.040231,0.001228,1,0,0,0,0,0,0,0.141592,-0.079911,-0.005164,1,0,0,0,0,0,0
4.200000,0.002746,0.157111,-0.000411,1,0,0,0,0,0,0,-0.058715,-0.039987,0.001210,1,0,0,0,0,0,0,0.142119,-0.080161,-0.005230,1,0,0,0,0,0,0
4.210000,0.003003,0.157186,-0.000373,1,0,0,0,0,0,0,-0.058853,-0.039757,0.001193,1,0,0,0,0,0,0,0.142283,-0.080398,-0.005294,1,0,0,0,0,0,0
4.220000,0.003086,0.157013,-0.000337,1,0,0,0,0,0,0,-0.058933,-0.039563,0.001180,1,0,0,0,0,0,0,0.142114,-0.080637,-0.005355,1,0,0,0,0,0,0
4.230000,0.003000,0.156617,-0.000302,1,0,0,0,0,0,0,-0.058936,-0.039398,0.001169,1,0,0,0,0,0,0,0.141641,-0.080885,-0.005416,1,0,0,0,0,0,0
4.240000,0.002757,0.156017,-0.000270,1,0,0,0,0,0,0,-0.058837,-0.039247,0.001159,1,0,0,0,0,0,0,0.140898,-0.081145,-0.005474,1,0,0,0,0,0,0
4.250000,0.002371,0.155226,-0.000242,1,0,0,0,0,0,0,-0.058618,-0.039091,0.001150,1,0,0,0,0,0,0,0.139926,-0.081431,-0.005532,1,0,0,0,0,0,0
4.260000,0.001847,0.154279,-0.000216,1,0,0,0,0,0,0,-0.058258,-0.038904,0.001139,1,0,0,0,0,0,0,0.138768,-0.081758,-0.005591,1,0,0,0,0,0,0
4.270000,0.001193,0.153204,-0.000194,1,0,0,0,0,0,0,-0.057727,-0.038646,0.001123,1,0,0,0,0,0,0,0.137448,-0.082129,-0.005651,1,0,0,0,0,0,0
4.280000,0.000428,0.151991,-0.000176,1,0,0,0,0,0,0,-0.057044,-0.038325,0.001104,1,0,0,0,0,0,0,0.135951,-0.082501,-0.005705,1,0,0,0,0,0,0
4.290000,-0.000422,0.150608,-0.000161,1,0,0,0,0,0,0,-0.056246,-0.037966,0.001083,1,0,0,0,0,0,0,0.134261,-0.082827,-0.005748,1,0,0,0,0,0,0
4.300000,-0.001338,0.149058,-0.000150,1,0,0,0,0,0,0,-0.055345,-0.037565,0.001060,1,0,0,0,0,0,0,0.132389,-0.083077,-0.005774,1,0,0,0,0,0,0
4.310000,-0.002280,0.147323,-0.000141,1,0,0,0,0,0,0,-0.054346,-0.037100,0.001034,1,0,0,0,0,0,0,0.130339,-0.083189,-0.005775,1,0,0,0,0,0,0
4.320000,-0.003182,0.145363,-0.000135,1,0,0,0,0,0,0,-0.053255,-0.036556,0.001003,1,0,0,0,0,0,0,0.128115,-0.083076,-0.005743,1,0,0,0,0,0,0
