time,drone0_roll,drone0_pitch,drone0_yaw,drone0_des_qw,drone0_des_qx,drone0_des_qy,drone0_des_qz,drone0_err_x,drone0_err_y,drone0_err_z,drone1_roll,drone1_pitch,drone1_yaw,drone1_des_qw,drone1_des_qx,drone1_des_qy,drone1_des_qz,drone1_err_x,drone1_err_y,drone1_err_z,drone2_roll,drone2_pitch,drone2_yaw,drone2_des_qw,drone2_des_qx,drone2_des_qy,drone2_des_qz,drone2_err_x,drone2_err_y,drone2_err_z
0.000000,0.000000,0.000000,0.000000,1,0,0,0,0,0,0,0.000000,0.000000,0.000000,1,0,0,0,0,0,0,0.000000,0.000000,0.000000,1,0,0,0,0,0,0
0.010000,0.000001,-0.000001,-0.000000,1,0,0,0,0,0,0,0.000001,-0.000001,-0.000000,1,0,0,0,0,0,0,0.000001,-0.000001,-0.000000,1,0,0,0,0,0,0
0.020000,0.000003,-0.000006,-0.000000,1,0,0,0,0,0,0,0.000003,-0.000006,-0.000000,1,0,0,0,0,0,0,0.000003,-0.000006,-0.000000,1,0,0,0,0,0,0
0.030000,0.000008,-0.000016,-0.000000,1,0,0,0,0,0,0,0.000008,-0.000016,-0.000000,1,0,0,0,0,0,0,0.000008,-0.000016,-0.000000,1,0,0,0,0,0,0
0.040000,0.000015,-0.000030,-0.000000,1,0,0,0,0,0,0,0.000015,-0.000030,-0.000000,1,0,0,0,0,0,0,0.000015,-0.000030,-0.000000,1,0,0,0,0,0,0
0.050000,0.000025,-0.000049,-0.000000,1,0,0,0,0,0,0,0.000019,-0.000172,-0.000000,1,0,0,0,0,0,0,0.000169,-0.000130,-0.000000,1,0,0,0,0,0,0
0.060000,0.000037,-0.000073,-0.000000,1,0,0,0,0,0,0,0.000021,-0.000411,-0.000000,1,0,0,0,0,0,0,0.000316,-0.000232,-0.000000,1,0,0,0,0,0,0
0.070000,0.000050,0.000105,0.000000,1,0,0,0,0,0,0,0.000026,-0.000626,-0.000000,1,0,0,0,0,0,0,0.000630,-0.000429,-0.000000,1,0,0,0,0,0,0
0.080000,0.000066,0.000283,0.000000,1,0,0,0,0,0,0,0.000030,-0.000916,-0.000000,1,0,0,0,0,0,0,0.000985,-0.000656,-0.000000,1,0,0,0,0,0,0
0.090000,0.000084,0.000433,0.000000,1,0,0,0,0,0,0,0.000021,-0.001510,-0.000000,1,0,0,0,0,0,0,0.001480,-0.000964,-0.000001,1,0,0,0,0,0,0
0.100000,0.000103,0.000838,0.000000,1,0,0,0,0,0,0,0.000016,-0.002057,-0.000000,1,0,0,0,0,0,0,0.002074,-0.001332,-0.000001,1,0,0,0,0,0,0
0.110000,0.000123,0.001202,0.000000,1,0,0,0,0,0,0,0.000012,-0.002604,-0.000000,1,0,0,0,0,0,0,0.002770,-0.001762,-0.000002,1,0,0,0,0,0,0
0.120000,0.000145,0.001712,0.000000,1,0,0,0,0,0,0,-0.000002,-0.003341,-0.000000,1,0,0,0,0,0,0,0.003583,-0.002262,-0.000004,1,0,0,0,0,0,0
0.130000,0.000168,0.002269,0.000000,1,0,0,0,0,0,0,-0.000028,-0.004255,-0.000000,1,0,0,0,0,0,0,0.004517,-0.002832,-0.000006,1,0,0,0,0,0,0
0.140000,0.000192,0.002938,0.000000,1,0,0,0,0,0,0,-0.000052,-0.005139,0.000000,1,0,0,0,0,0,0,0.005577,-0.003477,-0.000009,1,0,0,0,0,0,0
0.150000,0.000217,0.003688,0.000001,1,0,0,0,0,0,0,-0.000078,-0.006027,0.000000,1,0,0,0,0,0,0,0.006767,-0.004197,-0.000014,1,0,0,0,0,0,0
0.160000,0.000242,0.004566,0.000001,1,0,0,0,0,0,0,-0.000126,-0.007111,0.000000,1,0,0,0,0,0,0,0.008079,-0.004991,-0.000020,1,0,0,0,0,0,0
0.170000,0.000268,0.005538,0.000001,1,0,0,0,0,0,0,-0.000186,-0.008276,0.000000,1,0,0,0,0,0,0,0.009471,-0.005831,-0.000027,1,0,0,0,0,0,0
0.180000,0.000295,0.006650,0.000001,1,0,0,0,0,0,0,-0.000249,-0.009435,0.000001,1,0,0,0,0,0,0,0.010911,-0.006701,-0.000036,1,0,0,0,0,0,0
0.190000,0.000322,0.007876,0.000002,1,0,0,0,0,0,0,-0.000330,-0.010660,0.000001,1,0,0,0,0,0,0,0.012381,-0.007588,-0.000046,1,0,0,0,0,0,0
0.200000,0.000349,0.009235,0.000002,1,0,0,0,0,0,0,-0.000440,-0.012037,0.000002,1,0,0,0,0,0,0,0.013874,-0.008490,-0.000058,1,0,0,0,0,0,0
0.210000,0.000376,0.010722,0.000003,1,0,0,0,0,0,0,-0.000564,-0.013436,0.000002,1,0,0,0,0,0,0,0.015377,-0.009398,-0.000071,1,0,0,0,0,0,0
0.220000,0.000403,0.012311,0.000003,1,0,0,0,0,0,0,-0.000713,-0.014900,0.000003,1,0,0,0,0,0,0,0.016869,-0.010300,-0.000086,1,0,0,0,0,0,0
0.230000,0.000430,0.013945,0.000004,1,0,0,0,0,0,0,-0.000897,-0.016457,0.000005,1,0,0,0,0,0,0,0.018319,-0.011177,-0.000101,1,0,0,0,0,0,0
0.240000,0.000457,0.015599,0.000004,1,0,0,0,0,0,0,-0.001113,-0.018065,0.000006,1,0,0,0,0,0,0,0.019710,-0.012021,-0.000117,1,0,0,0,0,0,0
0.250000,0.000483,0.017268,0.000005,1,0,0,0,0,0,0,-0.001370,-0.019737,0.000009,1,0,0,0,0,0,0,0.021053,-0.012835,-0.000134,1,0,0,0,0,0,0
0.260000,0.000509,0.018938,0.000006,1,0,0,0,0,0,0,-0.001666,-0.021433,0.000011,1,0,0,0,0,0,0,0.022351,-0.013622,-0.000151,1,0,0,0,0,0,0
0.270000,0.000534,0.020565,0.000007,1,0,0,0,0,0,0,-0.002001,-0.023128,0.000015,1,0,0,0,0,0,0,0.023606,-0.014383,-0.000169,1,0,0,0,0,0,0
0.280000,0.000559,0.022085,0.000008,1,0,0,0,0,0,0,-0.002372,-0.024795,0.000019,1,0,0,0,0,0,0,0.024816,-0.015117,-0.000186,1,0,0,0,0,0,0
0.290000,0.000582,0.023491,0.000008,1,0,0,0,0,0,0,-0.002778,-0.026416,0.000024,1,0,0,0,0,0,0,0.025978,-0.015821,-0.000204,1,0,0,0,0,0,0
0.300000,0.000604,0.024804,0.000009,1,0,0,0,0,0,0,-0.003220,-0.027975,0.000029,1,0,0,0,0,0,0,0.027081,-0.016490,-0.000222,1,0,0,0,0,0,0
0.310000,0.000625,0.026025,0.000010,1,0,0,0,0,0,0,-0.003698,-0.029458,0.000035,1,0,0,0,0,0,0,0.028107,-0.017114,-0.000239,1,0,0,0,0,0,0
0.320000,0.000645,0.027155,0.000010,1,0,0,0,0,0,0,-0.004211,-0.030854,0.000042,1,0,0,0,0,0,0,0.029039,-0.017681,-0.000256,1,0,0,0,0,0,0
0.330000,0.000664,0.028200,0.000011,1,0,0,0,0,0,0,-0.004760,-0.032149,0.000049,1,0,0,0,0,0,0,0.029863,-0.018186,-0.000271,1,0,0,0,0,0,0
0.340000,0.000681,0.029162,0.000011,1,0,0,0,0,0,0,-0.005335,-0.033321,0.000056,1,0,0,0,0,0,0,0.030573,-0.018622,-0.000284,1,0,0,0,0,0,0
0.350000,0.000698,0.030036,0.000012,1,0,0,0,0,0,0,-0.005923,-0.034347,0.000064,1,0,0,0,0,0,0,0.031165,-0.018989,-0.000295,1,0,0,0,0,0,0
0.360000,0.000713,0.030805,0.000012,1,0,0,0,0,0,0,-0.006515,-0.035211,0.000071,1,0,0,0,0,0,0,0.031632,-0.019281,-0.000304,1,0,0,0,0,0,0
0.370000,0.000727,0.031459,0.000013,1,0,0,0,0,0,0,-0.007103,-0.035900,0.000078,1,0,0,0,0,0,0,0.031962,-0.019493,-0.000311,1,0,0,0,0,0,0
0.380000,0.000739,0.031989,0.000013,1,0,0,0,0,0,0,-0.007683,-0.036411,0.000085,1,0,0,0,0,0,0,0.032148,-0.019620,-0.000315,1,0,0,0,0,0,0
0.390000,0.000751,0.032387,0.000013,1,0,0,0,0,0,0,-0.008258,-0.036739,0.000090,1,0,0,0,0,0,0,0.032191,-0.019662,-0.000317,1,0,0,0,0,0,0
0.400000,0.000761,0.032649,0.000013,1,0,0,0,0,0,0,-0.008829,-0.036882,0.000095,1,0,0,0,0,0,0,0.032091,-0.019619,-0.000315,1,0,0,0,0,0,0
0.410000,0.000770,0.032773,0.000013,1,0,0,0,0,0,0,-0.009403,-0.036837,0.000099,1,0,0,0,0,0,0,0.031854,-0.019495,-0.000311,1,0,0,0,0,0,0
0.420000,0.000778,0.032754,0.000013,1,0,0,0,0,0,0,-0.009983,-0.036600,0.000101,1,0,0,0,0,0,0,0.031487,-0.019293,-0.000305,1,0,0,0,0,0,0
0.430000,0.000785,0.032587,0.000013,1,0,0,0,0,0,0,-0.010564,-0.036172,0.000101,1,0,0,0,0,0,0,0.030995,-0.019018,-0.000296,1,0,0,0,0,0,0
0.440000,0.000791,0.032272,0.000013,1,0,0,0,0,0,0,-0.011144,-0.035554,0.000099,1,0,0,0,0,0,0,0.030385,-0.018671,-0.000285,1,0,0,0,0,0,0
0.450000,0.000796,0.031810,0.000013,1,0,0,0,0,0,0,-0.011719,-0.034749,0.000096,1,0,0,0,0,0,0,0.029665,-0.018259,-0.000273,1,0,0,0,0,0,0
0.460000,0.000799,0.031207,0.000012,1,0,0,0,0,0,0,-0.012280,-0.033763,0.000090,1,0,0,0,0,0,0,0.028840,-0.017785,-0.000259,1,0,0,0,0,0,0
0.470000,0.000802,0.030466,0.000011,1,0,0,0,0,0,0,-0.012823,-0.032604,0.000082,1,0,0,0,0,0,0,0.027920,-0.017255,-0.000244,1,0,0,0,0,0,0
0.480000,0.000803,0.029591,0.000011,1,0,0,0,0,0,0,-0.013343,-0.031274,0.000072,1,0,0,0,0,0,0,0.026912,-0.016671,-0.000228,1,0,0,0,0,0,0
0.490000,0.000803,0.028581,0.000010,1,0,0,0,0,0,0,-0.013836,-0.029783,0.000060,1,0,0,0,0,0,0,0.025825,-0.016041,-0.000211,1,0,0,0,0,0,0
0.500000,0.000802,0.027441,0.000009,1,0,0,0,0,0,0,-0.014295,-0.028142,0.000045,1,0,0,0,0,0,0,0.024669,-0.015369,-0.000194,1,0,0,0,0,0,0
0.510000,0.000801,0.026177,0.000008,1,0,0,0,0,0,0,-0.014710,-0.026365,0.000029,1,0,0,0,0,0,0,0.023454,-0.014661,-0.000176,1,0,0,0,0,0,0
0.520000,0.000798,0.024796,0.000007,1,0,0,0,0,0,0,-0.015082,-0.024456,0.000010,1,0,0,0,0,0,0,0.022190,-0.013924,-0.000159,1,0,0,0,0,0,0
0.530000,0.000795,0.023305,0.000006,1,0,0,0,0,0,0,-0.015421,-0.022391,-0.000012,1,0,0,0,0,0,0,0.020888,-0.013163,-0.000142,1,0,0,0,0,0,0
0.540000,0.000792,0.021714,0.000005,1,0,0,0,0,0,0,-0.015729,-0.020162,-0.000035,1,0,0,0,0,0,0,0.019564,-0.012389,-0.000126,1,0,0,0,0,0,0
0.550000,0.000787,0.020033,0.000004,1,0,0,0,0,0,0,-0.016002,-0.017779,-0.000062,1,0,0,0,0,0,0,0.018234,-0.011610,-0.000111,1,0,0,0,0,0,0
0.560000,0.000782,0.018274,0.000003,1,0,0,0,0,0,0,-0.016232,-0.015269,-0.000090,1,0,0,0,0,0,0,0.016919,-0.010838,-0.000097,1,0,0,0,0,0,0
0.570000,0.000777,0.016451,0.000002,1,0,0,0,0,0,0,-0.016408,-0.012668,-0.000120,1,0,0,0,0,0,0,0.015641,-0.010087,-0.000085,1,0,0,0,0,0,0
0.580000,0.000771,0.014575,0.000001,1,0,0,0,0,0,0,-0.016526,-0.009996,-0.000151,1,0,0,0,0,0,0,0.014429,-0.009373,-0.000074,1,0,0,0,0,0,0
0.590000,0.000765,0.012659,-0.000001,1,0,0,0,0,0,0,-0.016587,-0.007263,-0.000183,1,0,0,0,0,0,0,0.013317,-0.008717,-0.000064,1,0,0,0,0,0,0
0.600000,0.000758,0.010716,-0.000002,1,0,0,0,0,0,0,-0.016588,-0.004493,-0.000214,1,0,0,0,0,0,0,0.012347,-0.008141,-0.000056,1,0,0,0,0,0,0
0.610000,0.000751,0.008758,-0.000003,1,0,0,0,0,0,0,-0.016523,-0.001744,-0.000245,1,0,0,0,0,0,0,0.011559,-0.007669,-0.000050,1,0,0,0,0,0,0
0.620000,0.000744,0.006801,-0.000004,1,0,0,0,0,0,0,-0.016388,0.000913,-0.000274,1,0,0,0,0,0,0,0.010990,-0.007325,-0.000046,1,0,0,0,0,0,0
0.630000,0.000736,0.004858,-0.000005,1,0,0,0,0,0,0,-0.016182,0.003472,-0.000300,1,0,0,0,0,0,0,0.010661,-0.007119,-0.000044,1,0,0,0,0,0,0
0.640000,0.000727,0.002946,-0.000006,1,0,0,0,0,0,0,-0.015913,0.005959,-0.000323,1,0,0,0,0,0,0,0.010560,-0.007046,-0.000042,1,0,0,0,0,0,0
0.650000,0.000718,0.001084,-0.000007,1,0,0,0,0,0,0,-0.015586,0.008383,-0.000345,1,0,0,0,0,0,0,0.010677,-0.007101,-0.000043,1,0,0,0,0,0,0
0.660000,0.000709,-0.000706,-0.000008,1,0,0,0,0,0,0,-0.015206,0.010753,-0.000365,1,0,0,0,0,0,0,0.010998,-0.007275,-0.000044,1,0,0,0,0,0,0
0.670000,0.000699,-0.002398,-0.000009,1,0,0,0,0,0,0,-0.014779,0.013063,-0.000383,1,0,0,0,0,0,0,0.011460,-0.007535,-0.000047,1,0,0,0,0,0,0
0.680000,0.000687,-0.003961,-0.000009,1,0,0,0,0,0,0,-0.014308,0.015302,-0.000398,1,0,0,0,0,0,0,0.011985,-0.007833,-0.000050,1,0,0,0,0,0,0
0.690000,0.000675,-0.005363,-0.000010,1,0,0,0,0,0,0,-0.013800,0.017456,-0.000412,1,0,0,0,0,0,0,0.012503,-0.008130,-0.000054,1,0,0,0,0,0,0
0.700000,0.000660,-0.006566,-0.000010,1,0,0,0,0,0,0,-0.013259,0.019516,-0.000422,1,0,0,0,0,0,0,0.012981,-0.008405,-0.000057,1,0,0,0,0,0,0
0.710000,0.000642,-0.007537,-0.000010,1,0,0,0,0,0,0,-0.012692,0.021474,-0.000430,1,0,0,0,0,0,0,0.013414,-0.008655,-0.000060,1,0,0,0,0,0,0
0.720000,0.000619,-0.008246,-0.000010,1,0,0,0,0,0,0,-0.012104,0.023326,-0.000436,1,0,0,0,0,0,0,0.013812,-0.008885,-0.000063,1,0,0,0,0,0,0
0.730000,0.000591,-0.008674,-0.000010,1,0,0,0,0,0,0,-0.011504,0.025065,-0.000438,1,0,0,0,0,0,0,0.014210,-0.009116,-0.000066,1,0,0,0,0,0,0
0.740000,0.000556,-0.008817,-0.000010,1,0,0,0,0,0,0,-0.010900,0.026686,-0.000439,1,0,0,0,0,0,0,0.014638,-0.009366,-0.000070,1,0,0,0,0,0,0
0.750000,0.000513,-0.008680,-0.000009,1,0,0,0,0,0,0,-0.010301,0.028186,-0.000437,1,0,0,0,0,0,0,0.015102,-0.009640,-0.000074,1,0,0,0,0,0,0
0.760000,0.000461,-0.008254,-0.000008,1,0,0,0,0,0,0,-0.009717,0.029558,-0.000434,1,0,0,0,0,0,0,0.015587,-0.009932,-0.000078,1,0,0,0,0,0,0
0.770000,0.000398,-0.007563,-0.000008,1,0,0,0,0,0,0,-0.009163,0.030799,-0.000428,1,0,0,0,0,0,0,0.016072,-0.010229,-0.000083,1,0,0,0,0,0,0
0.780000,0.000328,-0.006667,-0.000007,1,0,0,0,0,0,0,-0.008653,0.031904,-0.000420,1,0,0,0,0,0,0,0.016534,-0.010519,-0.000087,1,0,0,0,0,0,0
0.790000,0.000253,-0.005644,-0.000006,1,0,0,0,0,0,0,-0.008209,0.032867,-0.000412,1,0,0,0,0,0,0,0.016948,-0.010788,-0.000092,1,0,0,0,0,0,0
0.800000,0.000176,-0.004563,-0.000006,1,0,0,0,0,0,0,-0.007860,0.033681,-0.000401,1,0,0,0,0,0,0,0.017302,-0.011026,-0.000096,1,0,0,0,0,0,0
0.810000,0.000100,-0.003466,-0.000005,1,0,0,0,0,0,0,-0.007641,0.034338,-0.000390,1,0,0,0,0,0,0,0.017593,-0.011230,-0.000099,1,0,0,0,0,0,0
0.820000,0.000026,-0.002371,-0.000005,1,0,0,0,0,0,0,-0.007601,0.034825,-0.000378,1,0,0,0,0,0,0,0.017823,-0.011402,-0.000102,1,0,0,0,0,0,0
0.830000,-0.000047,-0.001280,-0.000005,1,0,0,0,0,0,0,-0.007788,0.035131,-0.000365,1,0,0,0,0,0,0,0.017999,-0.011546,-0.000105,1,0,0,0,0,0,0
0.840000,-0.000119,-0.000177,-0.000004,1,0,0,0,0,0,0,-0.008248,0.035243,-0.000352,1,0,0,0,0,0,0,0.018131,-0.011667,-0.000107,1,0,0,0,0,0,0
0.850000,-0.000195,0.000991,-0.000004,1,0,0,0,0,0,0,-0.009009,0.035157,-0.000338,1,0,0,0,0,0,0,0.018229,-0.011772,-0.000109,1,0,0,0,0,0,0
0.860000,-0.000279,0.002261,-0.000004,1,0,0,0,0,0,0,-0.010070,0.034872,-0.000324,1,0,0,0,0,0,0,0.018309,-0.011869,-0.000111,1,0,0,0,0,0,0
0.870000,-0.000373,0.003657,-0.000005,1,0,0,0,0,0,0,-0.011405,0.034392,-0.000309,1,0,0,0,0,0,0,0.018387,-0.011968,-0.000112,1,0,0,0,0,0,0
0.880000,-0.000479,0.005186,-0.000005,1,0,0,0,0,0,0,-0.012965,0.033723,-0.000293,1,0,0,0,0,0,0,0.018481,-0.012077,-0.000114,1,0,0,0,0,0,0
0.890000,-0.000596,0.006823,-0.000006,1,0,0,0,0,0,0,-0.014744,0.032857,-0.000276,1,0,0,0,0,0,0,0.018604,-0.012203,-0.000116,1,0,0,0,0,0,0
0.900000,-0.000720,0.008526,-0.000007,1,0,0,0,0,0,0,-0.016696,0.031797,-0.000256,1,0,0,0,0,0,0,0.018770,-0.012354,-0.000119,1,0,0,0,0,0,0
0.910000,-0.000844,0.010244,-0.000008,1,0,0,0,0,0,0,-0.018717,0.030564,-0.000233,1,0,0,0,0,0,0,0.018992,-0.012534,-0.000122,1,0,0,0,0,0,0
0.920000,-0.000962,0.011928,-0.000009,1,0,0,0,0,0,0,-0.020697,0.029192,-0.000208,1,0,0,0,0,0,0,0.019279,-0.012747,-0.000126,1,0,0,0,0,0,0
0.930000,-0.001068,0.013542,-0.000010,1,0,0,0,0,0,0,-0.022554,0.027713,-0.000180,1,0,0,0,0,0,0,0.019641,-0.012998,-0.000131,1,0,0,0,0,0,0
0.940000,-0.001159,0.015075,-0.000012,1,0,0,0,0,0,0,-0.024246,0.026153,-0.000151,1,0,0,0,0,0,0,0.020079,-0.013283,-0.000136,1,0,0,0,0,0,0
0.950000,-0.001234,0.016527,-0.000013,1,0,0,0,0,0,0,-0.025777,0.024519,-0.000119,1,0,0,0,0,0,0,0.020581,-0.013593,-0.000142,1,0,0,0,0,0,0
0.960000,-0.001290,0.017891,-0.000015,1,0,0,0,0,0,0,-0.027188,0.022800,-0.000084,1,0,0,0,0,0,0,0.021125,-0.013912,-0.000149,1,0,0,0,0,0,0
0.970000,-0.001330,0.019165,-0.000016,1,0,0,0,0,0,0,-0.028527,0.020970,-0.000046,1,0,0,0,0,0,0,0.021685,-0.014222,-0.000155,1,0,0,0,0,0,0
0.980000,-0.001352,0.020349,-0.000018,1,0,0,0,0,0,0,-0.029843,0.018995,-0.000002,1,0,0,0,0,0,0,0.022237,-0.014509,-0.000162,1,0,0,0,0,0,0
0.990000,-0.001356,0.021450,-0.000019,1,0,0,0,0,0,0,-0.031152,0.016861,0.000047,1,0,0,0,0,0,0,0.022771,-0.014767,-0.000167,1,0,0,0,0,0,0
1.000000,-0.001343,0.022479,-0.000020,1,0,0,0,0,0,0,-0.032444,0.014577,0.000102,1,0,0,0,0,0,0,0.023294,-0.014998,-0.000173,1,0,0,0,0,0,0
1.010000,-0.001310,0.023452,-0.000021,1,0,0,0,0,0,0,-0.033702,0.012158,0.000162,1,0,0,0,0,0,0,0.023813,-0.015209,-0.000178,1,0,0,0,0,0,0
1.020000,-0.001256,0.024389,-0.000022,1,0,0,0,0,0,0,-0.034912,0.009621,0.000228,1,0,0,0,0,0,0,0.024353,-0.015412,-0.000183,1,0,0,0,0,0,0
1.030000,-0.001182,0.025309,-0.000023,1,0,0,0,0,0,0,-0.036057,0.006996,0.000298,1,0,0,0,0,0,0,0.024968,-0.015637,-0.000189,1,0,0,0,0,0,0
1.040000,-0.001089,0.026217,-0.000023,1,0,0,0,0,0,0,-0.037115,0.004319,0.000372,1,0,0,0,0,0,0,0.025684,-0.015901,-0.000196,1,0,0,0,0,0,0
1.050000,-0.000980,0.027109,-0.000024,1,0,0,0,0,0,0,-0.038058,0.001641,0.000446,1,0,0,0,0,0,0,0.026501,-0.016214,-0.000204,1,0,0,0,0,0,0
1.060000,-0.000859,0.027974,-0.000024,1,0,0,0,0,0,0,-0.038894,-0.000983,0.000519,1,0,0,0,0,0,0,0.027415,-0.016583,-0.000215,1,0,0,0,0,0,0
1.070000,-0.000728,0.028802,-0.000024,1,0,0,0,0,0,0,-0.039648,-0.003536,0.000590,1,0,0,0,0,0,0,0.028429,-0.017016,-0.000228,1,0,0,0,0,0,0
1.080000,-0.000592,0.029614,-0.000024,1,0,0,0,0,0,0,-0.040313,-0.006015,0.000659,1,0,0,0,0,0,0,0.029534,-0.017511,-0.000243,1,0,0,0,0,0,0
1.090000,-0.000454,0.030410,-0.000023,1,0,0,0,0,0,0,-0.040877,-0.008416,0.000725,1,0,0,0,0,0,0,0.030706,-0.018062,-0.000260,1,0,0,0,0,0,0
1.100000,-0.000313,0.031178,-0.000023,1,0,0,0,0,0,0,-0.041332,-0.010736,0.000787,1,0,0,0,0,0,0,0.031909,-0.018650,-0.000280,1,0,0,0,0,0,0
1.110000,-0.000169,0.031931,-0.000022,1,0,0,0,0,0,0,-0.041673,-0.012975,0.000847,1,0,0,0,0,0,0,0.033090,-0.019245,-0.000300,1,0,0,0,0,0,0
1.120000,-0.000021,0.032684,-0.000021,1,0,0,0,0,0,0,-0.041896,-0.015131,0.000903,1,0,0,0,0,0,0,0.034197,-0.019813,-0.000320,1,0,0,0,0,0,0
1.130000,0.000132,0.033428,-0.000020,1,0,0,0,0,0,0,-0.041995,-0.017203,0.000955,1,0,0,0,0,0,0,0.035257,-0.020373,-0.000341,1,0,0,0,0,0,0
1.140000,0.000285,0.034136,-0.000018,1,0,0,0,0,0,0,-0.041961,-0.019201,0.001004,1,0,0,0,0,0,0,0.036321,-0.020957,-0.000363,1,0,0,0,0,0,0
1.150000,0.000435,0.034788,-0.000017,1,0,0,0,0,0,0,-0.041779,-0.021146,0.001049,1,0,0,0,0,0,0,0.037387,-0.021568,-0.000386,1,0,0,0,0,0,0
1.160000,0.000581,0.035371,-0.000015,1,0,0,0,0,0,0,-0.041434,-0.023057,0.001093,1,0,0,0,0,0,0,0.038454,-0.022205,-0.000411,1,0,0,0,0,0,0
1.170000,0.000719,0.035878,-0.000013,1,0,0,0,0,0,0,-0.040915,-0.024944,0.001134,1,0,0,0,0,0,0,0.039520,-0.022863,-0.000438,1,0,0,0,0,0,0
1.180000,0.000847,0.036308,-0.000011,1,0,0,0,0,0,0,-0.040213,-0.026814,0.001173,1,0,0,0,0,0,0,0.040585,-0.023542,-0.000466,1,0,0,0,0,0,0
1.190000,0.000965,0.036665,-0.000009,1,0,0,0,0,0,0,-0.039317,-0.028675,0.001209,1,0,0,0,0,0,0,0.041644,-0.024235,-0.000495,1,0,0,0,0,0,0
1.200000,0.001071,0.036941,-0.000007,1,0,0,0,0,0,0,-0.038213,-0.030532,0.001243,1,0,0,0,0,0,0,0.042681,-0.024928,-0.000525,1,0,0,0,0,0,0
1.210000,0.001169,0.037104,-0.000006,1,0,0,0,0,0,0,-0.036897,-0.032374,0.001273,1,0,0,0,0,0,0,0.043684,-0.025610,-0.000555,1,0,0,0,0,0,0
1.220000,0.001262,0.037135,-0.000004,1,0,0,0,0,0,0,-0.035385,-0.034168,0.001298,1,0,0,0,0,0,0,0.044642,-0.026273,-0.000585,1,0,0,0,0,0,0
1.230000,0.001348,0.037053,-0.000002,1,0,0,0,0,0,0,-0.033695,-0.035876,0.001316,1,0,0,0,0,0,0,0.045511,-0.026886,-0.000613,1,0,0,0,0,0,0
1.240000,0.001424,0.036875,-0.000001,1,0,0,0,0,0,0,-0.031828,-0.037494,0.001327,1,0,0,0,0,0,0,0.046233,-0.027412,-0.000637,1,0,0,0,0,0,0
1.250000,0.001487,0.036614,0.000000,1,0,0,0,0,0,0,-0.029789,-0.039011,0.001331,1,0,0,0,0,0,0,0.046797,-0.027844,-0.000657,1,0,0,0,0,0,0
1.260000,0.001536,0.036282,0.000001,1,0,0,0,0,0,0,-0.027617,-0.040395,0.001326,1,0,0,0,0,0,0,0.047229,-0.028195,-0.000673,1,0,0,0,0,0,0
1.270000,0.001570,0.035893,0.000002,1,0,0,0,0,0,0,-0.025383,-0.041608,0.001313,1,0,0,0,0,0,0,0.047540,-0.028471,-0.000686,1,0,0,0,0,0,0
1.280000,0.001588,0.035456,0.000003,1,0,0,0,0,0,0,-0.023158,-0.042616,0.001291,1,0,0,0,0,0,0,0.047726,-0.028670,-0.000695,1,0,0,0,0,0,0
1.290000,0.001592,0.034978,0.000004,1,0,0,0,0,0,0,-0.020961,-0.043421,0.001262,1,0,0,0,0,0,0,0.047780,-0.028786,-0.000700,1,0,0,0,0,0,0
1.300000,0.001582,0.034465,0.000005,1,0,0,0,0,0,0,-0.018764,-0.044044,0.001226,1,0,0,0,0,0,0,0.047699,-0.028816,-0.000701,1,0,0,0,0,0,0
1.310000,0.001560,0.033920,0.000005,1,0,0,0,0,0,0,-0.016524,-0.044509,0.001186,1,0,0,0,0,0,0,0.047480,-0.028759,-0.000697,1,0,0,0,0,0,0
1.320000,0.001529,0.033347,0.000006,1,0,0,0,0,0,0,-0.014241,-0.044817,0.001142,1,0,0,0,0,0,0,0.047125,-0.028616,-0.000690,1,0,0,0,0,0,0
1.330000,0.001490,0.032749,0.000006,1,0,0,0,0,0,0,-0.011897,-0.044976,0.001095,1,0,0,0,0,0,0,0.046639,-0.028391,-0.000678,1,0,0,0,0,0,0
1.340000,0.001444,0.032129,0.000006,1,0,0,0,0,0,0,-0.009478,-0.044989,0.001045,1,0,0,0,0,0,0,0.046034,-0.028089,-0.000663,1,0,0,0,0,0,0
1.350000,0.001392,0.031495,0.000006,1,0,0,0,0,0,0,-0.007037,-0.044850,0.000994,1,0,0,0,0,0,0,0.045325,-0.027720,-0.000645,1,0,0,0,0,0,0
1.360000,0.001336,0.030850,0.000006,1,0,0,0,0,0,0,-0.004602,-0.044560,0.000943,1,0,0,0,0,0,0,0.044526,-0.027293,-0.000625,1,0,0,0,0,0,0
1.370000,0.001276,0.030197,0.000006,1,0,0,0,0,0,0,-0.002187,-0.044125,0.000891,1,0,0,0,0,0,0,0.043652,-0.026819,-0.000603,1,0,0,0,0,0,0
1.380000,0.001212,0.029554,0.000006,1,0,0,0,0,0,0,0.000192,-0.043553,0.000840,1,0,0,0,0,0,0,0.042720,-0.026309,-0.000580,1,0,0,0,0,0,0
1.390000,0.001145,0.028939,0.000006,1,0,0,0,0,0,0,0.002524,-0.042849,0.000790,1,0,0,0,0,0,0,0.041745,-0.025771,-0.000556,1,0,0,0,0,0,0
1.400000,0.001074,0.028359,0.000006,1,0,0,0,0,0,0,0.004792,-0.042025,0.000743,1,0,0,0,0,0,0,0.040740,-0.025217,-0.000532,1,0,0,0,0,0,0
1.410000,0.000998,0.027816,0.000006,1,0,0,0,0,0,0,0.006984,-0.041091,0.000697,1,0,0,0,0,0,0,0.039720,-0.024656,-0.000508,1,0,0,0,0,0,0
1.420000,0.000918,0.027304,0.000006,1,0,0,0,0,0,0,0.009083,-0.040058,0.000655,1,0,0,0,0,0,0,0.038696,-0.024095,-0.000485,1,0,0,0,0,0,0
1.430000,0.000831,0.026816,0.000006,1,0,0,0,0,0,0,0.011077,-0.038939,0.000616,1,0,0,0,0,0,0,0.037679,-0.023543,-0.000463,1,0,0,0,0,0,0
1.440000,0.000737,0.026353,0.000006,1,0,0,0,0,0,0,0.012952,-0.037748,0.000580,1,0,0,0,0,0,0,0.036672,-0.023001,-0.000442,1,0,0,0,0,0,0
1.450000,0.000632,0.025921,0.000006,1,0,0,0,0,0,0,0.014696,-0.036501,0.000548,1,0,0,0,0,0,0,0.035674,-0.022468,-0.000421,1,0,0,0,0,0,0
1.460000,0.000515,0.025522,0.000006,1,0,0,0,0,0,0,0.016296,-0.035214,0.000518,1,0,0,0,0,0,0,0.034685,-0.021943,-0.000402,1,0,0,0,0,0,0
1.470000,0.000385,0.025148,0.000006,1,0,0,0,0,0,0,0.017738,-0.033902,0.000492,1,0,0,0,0,0,0,0.033710,-0.021426,-0.000383,1,0,0,0,0,0,0
1.480000,0.000243,0.024777,0.000006,1,0,0,0,0,0,0,0.019010,-0.032573,0.000469,1,0,0,0,0,0,0,0.032752,-0.020917,-0.000364,1,0,0,0,0,0,0
1.490000,0.000092,0.024392,0.000006,1,0,0,0,0,0,0,0.020106,-0.031224,0.000448,1,0,0,0,0,0,0,0.031808,-0.020414,-0.000347,1,0,0,0,0,0,0
1.500000,-0.000071,0.024003,0.000006,1,0,0,0,0,0,0,0.021024,-0.029844,0.000430,1,0,0,0,0,0,0,0.030866,-0.019907,-0.000330,1,0,0,0,0,0,0
1.510000,-0.000251,0.023630,0.000005,1,0,0,0,0,0,0,0.021759,-0.028424,0.000415,1,0,0,0,0,0,0,0.029907,-0.019383,-0.000312,1,0,0,0,0,0,0
1.520000,-0.000451,0.023285,0.000005,1,0,0,0,0,0,0,0.022305,-0.026957,0.000403,1,0,0,0,0,0,0,0.028914,-0.018833,-0.000295,1,0,0,0,0,0,0
1.530000,-0.000672,0.022969,0.000005,1,0,0,0,0,0,0,0.022652,-0.025438,0.000395,1,0,0,0,0,0,0,0.027878,-0.018250,-0.000277,1,0,0,0,0,0,0
1.540000,-0.000917,0.022681,0.000004,1,0,0,0,0,0,0,0.022786,-0.023865,0.000389,1,0,0,0,0,0,0,0.026785,-0.017630,-0.000258,1,0,0,0,0,0,0
1.550000,-0.001184,0.022415,0.000004,1,0,0,0,0,0,0,0.022697,-0.022236,0.000386,1,0,0,0,0,0,0,0.025624,-0.016965,-0.000240,1,0,0,0,0,0,0
1.560000,-0.001471,0.022160,0.000003,1,0,0,0,0,0,0,0.022391,-0.020556,0.000385,1,0,0,0,0,0,0,0.024389,-0.016254,-0.000221,1,0,0,0,0,0,0
1.570000,-0.001773,0.021906,0.000002,1,0,0,0,0,0,0,0.021888,-0.018833,0.000385,1,0,0,0,0,0,0,0.023087,-0.015502,-0.000201,1,0,0,0,0,0,0
1.580000,-0.002088,0.021643,0.000002,1,0,0,0,0,0,0,0.021192,-0.017081,0.000387,1,0,0,0,0,0,0,0.021725,-0.014713,-0.000182,1,0,0,0,0,0,0
1.590000,-0.002410,0.021363,0.000001,1,0,0,0,0,0,0,0.020307,-0.015311,0.000389,1,0,0,0,0,0,0,0.020315,-0.013895,-0.000164,1,0,0,0,0,0,0
1.600000,-0.002735,0.021060,0.000000,1,0,0,0,0,0,0,0.019253,-0.013537,0.000390,1,0,0,0,0,0,0,0.018864,-0.013053,-0.000146,1,0,0,0,0,0,0
1.610000,-0.003057,0.020729,-0.000001,1,0,0,0,0,0,0,0.018079,-0.011769,0.000392,1,0,0,0,0,0,0,0.017383,-0.012196,-0.000129,1,0,0,0,0,0,0
1.620000,-0.003371,0.020364,-0.000001,1,0,0,0,0,0,0,0.016844,-0.010018,0.000392,1,0,0,0,0,0,0,0.015884,-0.011330,-0.000113,1,0,0,0,0,0,0
1.630000,-0.003670,0.019958,-0.000002,1,0,0,0,0,0,0,0.015600,-0.008288,0.000390,1,0,0,0,0,0,0,0.014377,-0.010460,-0.000098,1,0,0,0,0,0,0
1.640000,-0.003948,0.019506,-0.000002,1,0,0,0,0,0,0,0.014357,-0.006585,0.000388,1,0,0,0,0,0,0,0.012869,-0.009592,-0.000085,1,0,0,0,0,0,0
1.650000,-0.004197,0.018998,-0.000002,1,0,0,0,0,0,0,0.013059,-0.004912,0.000384,1,0,0,0,0,0,0,0.011369,-0.008727,-0.000073,1,0,0,0,0,0,0
1.660000,-0.004412,0.018428,-0.000002,1,0,0,0,0,0,0,0.011665,-0.003270,0.000379,1,0,0,0,0,0,0,0.009882,-0.007870,-0.000063,1,0,0,0,0,0,0
1.670000,-0.004588,0.017791,-0.000001,1,0,0,0,0,0,0,0.010148,-0.001663,0.000372,1,0,0,0,0,0,0,0.008413,-0.007021,-0.000053,1,0,0,0,0,0,0
1.680000,-0.004720,0.017084,-0.000000,1,0,0,0,0,0,0,0.008503,-0.000090,0.000364,1,0,0,0,0,0,0,0.006962,-0.006179,-0.000045,1,0,0,0,0,0,0
1.690000,-0.004809,0.016307,0.000001,1,0,0,0,0,0,0,0.006738,0.001450,0.000353,1,0,0,0,0,0,0,0.005530,-0.005342,-0.000039,1,0,0,0,0,0,0
1.700000,-0.004852,0.015464,0.000003,1,0,0,0,0,0,0,0.004867,0.002955,0.000341,1,0,0,0,0,0,0,0.004123,-0.004515,-0.000033,1,0,0,0,0,0,0
1.710000,-0.004853,0.014561,0.000005,1,0,0,0,0,0,0,0.002900,0.004428,0.000326,1,0,0,0,0,0,0,0.002747,-0.003702,-0.000029,1,0,0,0,0,0,0
1.720000,-0.004812,0.013606,0.000007,1,0,0,0,0,0,0,0.000854,0.005869,0.000309,1,0,0,0,0,0,0,0.001416,-0.002909,-0.000026,1,0,0,0,0,0,0
1.730000,-0.004734,0.012611,0.000009,1,0,0,0,0,0,0,-0.001255,0.007277,0.000290,1,0,0,0,0,0,0,0.000141,-0.002145,-0.000024,1,0,0,0,0,0,0
1.740000,-0.004622,0.011586,0.000012,1,0,0,0,0,0,0,-0.003402,0.008649,0.000269,1,0,0,0,0,0,0,-0.001063,-0.001416,-0.000023,1,0,0,0,0,0,0
1.750000,-0.004480,0.010542,0.000014,1,0,0,0,0,0,0,-0.005572,0.009983,0.000246,1,0,0,0,0,0,0,-0.002181,-0.000730,-0.000022,1,0,0,0,0,0,0
1.760000,-0.004311,0.009491,0.000016,1,0,0,0,0,0,0,-0.007752,0.011278,0.000220,1,0,0,0,0,0,0,-0.003190,-0.000101,-0.000023,1,0,0,0,0,0,0
1.770000,-0.004119,0.008441,0.000019,1,0,0,0,0,0,0,-0.009925,0.012531,0.000193,1,0,0,0,0,0,0,-0.004061,0.000456,-0.000023,1,0,0,0,0,0,0
1.780000,-0.003906,0.007401,0.000021,1,0,0,0,0,0,0,-0.012082,0.013743,0.000164,1,0,0,0,0,0,0,-0.004768,0.000929,-0.000024,1,0,0,0,0,0,0
1.790000,-0.003676,0.006381,0.000022,1,0,0,0,0,0,0,-0.014227,0.014918,0.000134,1,0,0,0,0,0,0,-0.005294,0.001306,-0.000025,1,0,0,0,0,0,0
1.800000,-0.003431,0.005386,0.000024,1,0,0,0,0,0,0,-0.016356,0.016063,0.000102,1,0,0,0,0,0,0,-0.005628,0.001584,-0.000025,1,0,0,0,0,0,0
1.810000,-0.003175,0.004422,0.000025,1,0,0,0,0,0,0,-0.018453,0.017179,0.000068,1,0,0,0,0,0,0,-0.005764,0.001759,-0.000024,1,0,0,0,0,0,0
1.820000,-0.002909,0.003494,0.000026,1,0,0,0,0,0,0,-0.020489,0.018260,0.000034,1,0,0,0,0,0,0,-0.005703,0.001834,-0.000024,1,0,0,0,0,0,0
1.830000,-0.002636,0.002606,0.000027,1,0,0,0,0,0,0,-0.022433,0.019298,-0.000002,1,0,0,0,0,0,0,-0.005456,0.001815,-0.000022,1,0,0,0,0,0,0
1.840000,-0.002357,0.001759,0.000027,1,0,0,0,0,0,0,-0.024258,0.020283,-0.000038,1,0,0,0,0,0,0,-0.005040,0.001714,-0.000021,1,0,0,0,0,0,0
1.850000,-0.002076,0.000959,0.000027,1,0,0,0,0,0,0,-0.025952,0.021212,-0.000074,1,0,0,0,0,0,0,-0.004467,0.001536,-0.000019,1,0,0,0,0,0,0
1.860000,-0.001792,0.000208,0.000027,1,0,0,0,0,0,0,-0.027507,0.022083,-0.000110,1,0,0,0,0,0,0,-0.003749,0.001289,-0.000017,1,0,0,0,0,0,0
1.870000,-0.001509,-0.000491,0.000026,1,0,0,0,0,0,0,-0.028917,0.022888,-0.000144,1,0,0,0,0,0,0,-0.002910,0.000985,-0.000015,1,0,0,0,0,0,0
1.880000,-0.001227,-0.001135,0.000025,1,0,0,0,0,0,0,-0.030178,0.023621,-0.000177,1,0,0,0,0,0,0,-0.001976,0.000637,-0.000013,1,0,0,0,0,0,0
1.890000,-0.000947,-0.001725,0.000025,1,0,0,0,0,0,0,-0.031293,0.024282,-0.000208,1,0,0,0,0,0,0,-0.000970,0.000256,-0.000012,1,0,0,0,0,0,0
1.900000,-0.000672,-0.002258,0.000024,1,0,0,0,0,0,0,-0.032266,0.024874,-0.000238,1,0,0,0,0,0,0,0.000083,-0.000148,-0.000011,1,0,0,0,0,0,0
1.910000,-0.000401,-0.002737,0.000022,1,0,0,0,0,0,0,-0.033106,0.025411,-0.000265,1,0,0,0,0,0,0,0.001160,-0.000564,-0.000011,1,0,0,0,0,0,0
1.920000,-0.000136,-0.003162,0.000021,1,0,0,0,0,0,0,-0.033822,0.025899,-0.000291,1,0,0,0,0,0,0,0.002242,-0.000986,-0.000011,1,0,0,0,0,0,0
1.930000,0.000123,-0.003536,0.000020,1,0,0,0,0,0,0,-0.034423,0.026339,-0.000315,1,0,0,0,0,0,0,0.003315,-0.001406,-0.000011,1,0,0,0,0,0,0
1.940000,0.000376,-0.003860,0.000019,1,0,0,0,0,0,0,-0.034921,0.026726,-0.000337,1,0,0,0,0,0,0,0.004369,-0.001821,-0.000012,1,0,0,0,0,0,0
1.950000,0.000621,-0.004132,0.000017,1,0,0,0,0,0,0,-0.035329,0.027054,-0.000357,1,0,0,0,0,0,0,0.005402,-0.002230,-0.000014,1,0,0,0,0,0,0
1.960000,0.000859,-0.004345,0.000016,1,0,0,0,0,0,0,-0.035670,0.027315,-0.000374,1,0,0,0,0,0,0,0.006419,-0.002637,-0.000016,1,0,0,0,0,0,0
1.970000,0.001087,-0.004494,0.000015,1,0,0,0,0,0,0,-0.035955,0.027482,-0.000387,1,0,0,0,0,0,0,0.007410,-0.003038,-0.000018,1,0,0,0,0,0,0
1.980000,0.001306,-0.004574,0.000014,1,0,0,0,0,0,0,-0.036195,0.027525,-0.000395,1,0,0,0,0,0,0,0.008361,-0.003429,-0.000021,1,0,0,0,0,0,0
1.990000,0.001513,-0.004582,0.000013,1,0,0,0,0,0,0,-0.036388,0.027411,-0.000397,1,0,0,0,0,0,0,0.009261,-0.003808,-0.000024,1,0,0,0,0,0,0
2.000000,0.001709,-0.004518,0.000012,1,0,0,0,0,0,0,-0.036520,0.027120,-0.000393,1,0,0,0,0,0,0,0.010104,-0.004173,-0.000027,1,0,0,0,0,0,0
2.010000,0.001891,-0.004363,0.000011,1,0,0,0,0,0,0,-0.036554,0.026618,-0.000381,1,0,0,0,0,0,0,0.010884,-0.004526,-0.000030,1,0,0,0,0,0,0
2.020000,0.002050,-0.004045,0.000011,1,0,0,0,0,0,0,-0.036412,0.025821,-0.000358,1,0,0,0,0,0,0,0.011582,-0.004868,-0.000034,1,0,0,0,0,0,0
2.030000,0.002182,-0.003528,0.000011,1,0,0,0,0,0,0,-0.036069,0.024727,-0.000325,1,0,0,0,0,0,0,0.012200,-0.005202,-0.000037,1,0,0,0,0,0,0
2.040000,0.002288,-0.002807,0.000012,1,0,0,0,0,0,0,-0.035533,0.023361,-0.000283,1,0,0,0,0,0,0,0.012753,-0.005538,-0.000041,1,0,0,0,0,0,0
2.050000,0.002369,-0.001888,0.000013,1,0,0,0,0,0,0,-0.034820,0.021756,-0.000234,1,0,0,0,0,0,0,0.013257,-0.005884,-0.000045,1,0,0,0,0,0,0
2.060000,0.002426,-0.000792,0.000015,1,0,0,0,0,0,0,-0.033941,0.019951,-0.000180,1,0,0,0,0,0,0,0.013727,-0.006245,-0.000050,1,0,0,0,0,0,0
2.070000,0.002465,0.000450,0.000017,1,0,0,0,0,0,0,-0.032903,0.017993,-0.000124,1,0,0,0,0,0,0,0.014171,-0.006620,-0.000055,1,0,0,0,0,0,0
2.080000,0.002490,0.001806,0.000019,1,0,0,0,0,0,0,-0.031720,0.015916,-0.000066,1,0,0,0,0,0,0,0.014593,-0.007004,-0.000060,1,0,0,0,0,0,0
2.090000,0.002507,0.003245,0.000022,1,0,0,0,0,0,0,-0.030407,0.013746,-0.000010,1,0,0,0,0,0,0,0.014997,-0.007392,-0.000065,1,0,0,0,0,0,0
2.100000,0.002518,0.004739,0.000024,1,0,0,0,0,0,0,-0.028973,0.011515,0.000045,1,0,0,0,0,0,0,0.015386,-0.007782,-0.000070,1,0,0,0,0,0,0
2.110000,0.002527,0.006263,0.000027,1,0,0,0,0,0,0,-0.027434,0.009249,0.000097,1,0,0,0,0,0,0,0.015770,-0.008172,-0.000076,1,0,0,0,0,0,0
2.120000,0.002538,0.007803,0.000030,1,0,0,0,0,0,0,-0.025805,0.006966,0.000145,1,0,0,0,0,0,0,0.016162,-0.008568,-0.000081,1,0,0,0,0,0,0
2.130000,0.002549,0.009341,0.000033,1,0,0,0,0,0,0,-0.024103,0.004680,0.000188,1,0,0,0,0,0,0,0.016577,-0.008973,-0.000087,1,0,0,0,0,0,0
2.140000,0.002561,0.010868,0.000035,1,0,0,0,0,0,0,-0.022344,0.002399,0.000227,1,0,0,0,0,0,0,0.017021,-0.009385,-0.000093,1,0,0,0,0,0,0
2.150000,0.002570,0.012375,0.000038,1,0,0,0,0,0,0,-0.020545,0.000134,0.000261,1,0,0,0,0,0,0,0.017486,-0.009797,-0.000100,1,0,0,0,0,0,0
2.160000,0.002575,0.013855,0.000040,1,0,0,0,0,0,0,-0.018717,-0.002106,0.000290,1,0,0,0,0,0,0,0.017955,-0.010199,-0.000106,1,0,0,0,0,0,0
2.170000,0.002571,0.015304,0.000043,1,0,0,0,0,0,0,-0.016874,-0.004309,0.000313,1,0,0,0,0,0,0,0.018422,-0.010587,-0.000112,1,0,0,0,0,0,0
2.180000,0.002556,0.016715,0.000045,1,0,0,0,0,0,0,-0.015030,-0.006481,0.000332,1,0,0,0,0,0,0,0.018897,-0.010964,-0.000118,1,0,0,0,0,0,0
2.190000,0.002528,0.018078,0.000047,1,0,0,0,0,0,0,-0.013199,-0.008620,0.000345,1,0,0,0,0,0,0,0.019400,-0.011341,-0.000125,1,0,0,0,0,0,0
2.200000,0.002484,0.019384,0.000049,1,0,0,0,0,0,0,-0.011389,-0.010721,0.000354,1,0,0,0,0,0,0,0.019980,-0.011742,-0.000132,1,0,0,0,0,0,0
2.210000,0.002424,0.020623,0.000051,1,0,0,0,0,0,0,-0.009606,-0.012778,0.000358,1,0,0,0,0,0,0,0.020700,-0.012199,-0.000140,1,0,0,0,0,0,0
2.220000,0.002344,0.021813,0.000052,1,0,0,0,0,0,0,-0.007853,-0.014783,0.000358,1,0,0,0,0,0,0,0.021616,-0.012743,-0.000151,1,0,0,0,0,0,0
2.230000,0.002234,0.022994,0.000053,1,0,0,0,0,0,0,-0.006126,-0.016725,0.000354,1,0,0,0,0,0,0,0.022750,-0.013393,-0.000164,1,0,0,0,0,0,0
2.240000,0.002087,0.024192,0.000054,1,0,0,0,0,0,0,-0.004422,-0.018593,0.000346,1,0,0,0,0,0,0,0.024101,-0.014160,-0.000182,1,0,0,0,0,0,0
2.250000,0.001897,0.025417,0.000055,1,0,0,0,0,0,0,-0.002735,-0.020374,0.000334,1,0,0,0,0,0,0,0.025675,-0.015068,-0.000203,1,0,0,0,0,0,0
2.260000,0.001664,0.026664,0.000055,1,0,0,0,0,0,0,-0.001064,-0.022052,0.000319,1,0,0,0,0,0,0,0.027506,-0.016162,-0.000232,1,0,0,0,0,0,0
2.270000,0.001393,0.027925,0.000055,1,0,0,0,0,0,0,0.000585,-0.023607,0.000302,1,0,0,0,0,0,0,0.029649,-0.017513,-0.000270,1,0,0,0,0,0,0
2.280000,0.001088,0.029206,0.000055,1,0,0,0,0,0,0,0.002196,-0.025021,0.000281,1,0,0,0,0,0,0,0.032185,-0.019209,-0.000322,1,0,0,0,0,0,0
2.290000,0.000754,0.030516,0.000054,1,0,0,0,0,0,0,0.003749,-0.026282,0.000259,1,0,0,0,0,0,0,0.035235,-0.021349,-0.000393,1,0,0,0,0,0,0
2.300000,0.000401,0.031857,0.000052,1,0,0,0,0,0,0,0.005222,-0.027382,0.000236,1,0,0,0,0,0,0,0.038941,-0.024016,-0.000491,1,0,0,0,0,0,0
2.310000,0.000037,0.033226,0.000050,1,0,0,0,0,0,0,0.006597,-0.028318,0.000212,1,0,0,0,0,0,0,0.043384,-0.027221,-0.000621,1,0,0,0,0,0,0
2.320000,-0.000335,0.034638,0.000047,1,0,0,0,0,0,0,0.007864,-0.029092,0.000188,1,0,0,0,0,0,0,0.048506,-0.030863,-0.000786,1,0,0,0,0,0,0
2.330000,-0.000716,0.036141,0.000043,1,0,0,0,0,0,0,0.009028,-0.029718,0.000164,1,0,0,0,0,0,0,0.054168,-0.034789,-0.000985,1,0,0,0,0,0,0
2.340000,-0.001114,0.037807,0.000038,1,0,0,0,0,0,0,0.010102,-0.030210,0.000142,1,0,0,0,0,0,0,0.060255,-0.038883,-0.001217,1,0,0,0,0,0,0
2.350000,-0.001541,0.039719,0.000032,1,0,0,0,0,0,0,0.011086,-0.030574,0.000120,1,0,0,0,0,0,0,0.066620,-0.043043,-0.001478,1,0,0,0,0,0,0
2.360000,-0.002017,0.041965,0.000025,1,0,0,0,0,0,0,0.011966,-0.030809,0.000100,1,0,0,0,0,0,0,0.073025,-0.047152,-0.001762,1,0,0,0,0,0,0
2.370000,-0.002569,0.044660,0.000015,1,0,0,0,0,0,0,0.012737,-0.030922,0.000081,1,0,0,0,0,0,0,0.079362,-0.051178,-0.002066,1,0,0,0,0,0,0
2.380000,-0.003232,0.047940,0.000001,1,0,0,0,0,0,0,0.013401,-0.030922,0.000064,1,0,0,0,0,0,0,0.085765,-0.055196,-0.002396,1,0,0,0,0,0,0
2.390000,-0.004035,0.051928,-0.000018,1,0,0,0,0,0,0,0.013962,-0.030819,0.000049,1,0,0,0,0,0,0,0.092423,-0.059286,-0.002759,1,0,0,0,0,0,0
2.400000,-0.004989,0.056704,-0.000044,1,0,0,0,0,0,0,0.014422,-0.030628,0.000036,1,0,0,0,0,0,0,0.099267,-0.063387,-0.003151,1,0,0,0,0,0,0
2.410000,-0.006071,0.062292,-0.000081,1,0,0,0,0,0,0,0.014782,-0.030364,0.000024,1,0,0,0,0,0,0,0.105976,-0.067342,-0.003558,1,0,0,0,0,0,0
2.420000,-0.007233,0.068632,-0.000129,1,0,0,0,0,0,0,0.015046,-0.030053,0.000014,1,0,0,0,0,0,0,0.112184,-0.071022,-0.003961,1,0,0,0,0,0,0
2.430000,-0.008414,0.075584,-0.000190,1,0,0,0,0,0,0,0.015223,-0.029721,0.000004,1,0,0,0,0,0,0,0.117615,-0.074370,-0.004349,1,0,0,0,0,0,0
2.440000,-0.009554,0.082994,-0.000264,1,0,0,0,0,0,0,0.015320,-0.029401,-0.000005,1,0,0,0,0,0,0,0.122293,-0.077428,-0.004720,1,0,0,0,0,0,0
2.450000,-0.010589,0.090677,-0.000349,1,0,0,0,0,0,0,0.015335,-0.029124,-0.000014,1,0,0,0,0,0,0,0.126487,-0.080295,-0.005080,1,0,0,0,0,0,0
2.460000,-0.011454,0.098297,-0.000441,1,0,0,0,0,0,0,0.015252,-0.028926,-0.000024,1,0,0,0,0,0,0,0.130479,-0.083040,-0.005436,1,0,0,0,0,0,0
2.470000,-0.012129,0.105485,-0.000534,1,0,0,0,0,0,0,0.015029,-0.028847,-0.000035,1,0,0,0,0,0,0,0.134392,-0.085661,-0.005786,1,0,0,0,0,0,0
2.480000,-0.012649,0.112175,-0.000624,1,0,0,0,0,0,0,0.014590,-0.028945,-0.000048,1,0,0,0,0,0,0,0.138176,-0.088113,-0.006123,1,0,0,0,0,0,0
2.490000,-0.013056,0.118620,-0.000713,1,0,0,0,0,0,0,0.013834,-0.029286,-0.000063,1,0,0,0,0,0,0,0.141746,-0.090351,-0.006438,1,0,0,0,0,0,0
2.500000,-0.013370,0.125142,-0.000804,1,0,0,0,0,0,0,0.012645,-0.029958,-0.000081,1,0,0,0,0,0,0,0.145068,-0.092348,-0.006726,1,0,0,0,0,0,0
2.510000,-0.013567,0.131778,-0.000897,1,0,0,0,0,0,0,0.010910,-0.031070,-0.000101,1,0,0,0,0,0,0,0.148145,-0.094111,-0.006986,1,0,0,0,0,0,0
2.520000,-0.013549,0.138313,-0.000987,1,0,0,0,0,0,0,0.008577,-0.032703,-0.000123,1,0,0,0,0,0,0,0.151034,-0.095698,-0.007226,1,0,0,0,0,0,0
2.530000,-0.013203,0.144478,-0.001069,1,0,0,0,0,0,0,0.005700,-0.034820,-0.000140,1,0,0,0,0,0,0,0.153858,-0.097219,-0.007461,1,0,0,0,0,0,0
2.540000,-0.012514,0.150041,-0.001136,1,0,0,0,0,0,0,0.002340,-0.037324,-0.000150,1,0,0,0,0,0,0,0.156772,-0.098777,-0.007708,1,0,0,0,0,0,0
2.550000,-0.011567,0.154997,-0.001187,1,0,0,0,0,0,0,-0.001573,-0.040164,-0.000147,1,0,0,0,0,0,0,0.159852,-0.100408,-0.007973,1,0,0,0,0,0,0
2.560000,-0.010472,0.159488,-0.001223,1,0,0,0,0,0,0,-0.006182,-0.043240,-0.000127,1,0,0,0,0,0,0,0.163071,-0.102105,-0.008254,1,0,0,0,0,0,0
2.570000,-0.009314,0.163527,-0.001243,1,0,0,0,0,0,0,-0.011551,-0.046282,-0.000087,1,0,0,0,0,0,0,0.166415,-0.103899,-0.008559,1,0,0,0,0,0,0
2.580000,-0.008087,0.166983,-0.001248,1,0,0,0,0,0,0,-0.017668,-0.048972,-0.000030,1,0,0,0,0,0,0,0.169948,-0.105840,-0.008896,1,0,0,0,0,0,0
2.590000,-0.006766,0.169776,-0.001238,1,0,0,0,0,0,0,-0.024460,-0.051082,0.000038,1,0,0,0,0,0,0,0.173722,-0.107894,-0.009262,1,0,0,0,0,0,0
2.600000,-0.005406,0.171989,-0.001215,1,0,0,0,0,0,0,-0.031723,-0.052565,0.000110,1,0,0,0,0,0,0,0.177663,-0.109905,-0.009629,1,0,0,0,0,0,0
2.610000,-0.004098,0.173830,-0.001181,1,0,0,0,0,0,0,-0.039252,-0.053521,0.000183,1,0,0,0,0,0,0,0.181583,-0.111662,-0.009959,1,0,0,0,0,0,0
2.620000,-0.002901,0.175435,-0.001140,1,0,0,0,0,0,0,-0.047017,-0.054076,0.000254,1,0,0,0,0,0,0,0.185212,-0.112975,-0.010216,1,0,0,0,0,0,0
2.630000,-0.001785,0.176728,-0.001092,1,0,0,0,0,0,0,-0.054965,-0.054387,0.000326,1,0,0,0,0,0,0,0.188274,-0.113706,-0.010370,1,0,0,0,0,0,0
2.640000,-0.000685,0.177617,-0.001038,1,0,0,0,0,0,0,-0.062805,-0.054639,0.000407,1,0,0,0,0,0,0,0.190548,-0.113801,-0.010409,1,0,0,0,0,0,0
2.650000,0.000404,0.178187,-0.000981,1,0,0,0,0,0,0,-0.070214,-0.054921,0.000499,1,0,0,0,0,0,0,0.191940,-0.113323,-0.010342,1,0,0,0,0,0,0
2.660000,0.001395,0.178743,-0.000921,1,0,0,0,0,0,0,-0.077033,-0.055197,0.000601,1,0,0,0,0,0,0,0.192539,-0.112442,-0.010201,1,0,0,0,0,0,0
2.670000,0.002182,0.179589,-0.000857,1,0,0,0,0,0,0,-0.083280,-0.055372,0.000704,1,0,0,0,0,0,0,0.192508,-0.111345,-0.010023,1,0,0,0,0,0,0
2.680000,0.002741,0.180719,-0.000791,1,0,0,0,0,0,0,-0.089076,-0.055376,0.000797,1,0,0,0,0,0,0,0.191864,-0.110086,-0.009819,1,0,0,0,0,0,0
2.690000,0.003105,0.182002,-0.000724,1,0,0,0,0,0,0,-0.094561,-0.055201,0.000879,1,0,0,0,0,0,0,0.190388,-0.108573,-0.009570,1,0,0,0,0,0,0
2.700000,0.003317,0.183346,-0.000659,1,0,0,0,0,0,0,-0.099842,-0.054912,0.000953,1,0,0,0,0,0,0,0.187820,-0.106732,-0.009263,1,0,0,0,0,0,0
2.710000,0.003398,0.184722,-0.000594,1,0,0,0,0,0,0,-0.104933,-0.054615,0.001029,1,0,0,0,0,0,0,0.184157,-0.104639,-0.008915,1,0,0,0,0,0,0
2.720000,0.003383,0.186017,-0.000534,1,0,0,0,0,0,0,-0.109778,-0.054407,0.001115,1,0,0,0,0,0,0,0.179745,-0.102498,-0.008565,1,0,0,0,0,0,0
2.730000,0.003347,0.186956,-0.000477,1,0,0,0,0,0,0,-0.114300,-0.054331,0.001218,1,0,0,0,0,0,0,0.175067,-0.100490,-0.008245,1,0,0,0,0,0,0
2.740000,0.003369,0.187178,-0.000427,1,0,0,0,0,0,0,-0.118448,-0.054407,0.001340,1,0,0,0,0,0,0,0.170431,-0.098654,-0.007960,1,0,0,0,0,0,0
2.750000,0.003473,0.186400,-0.000383,1,0,0,0,0,0,0,-0.122176,-0.054641,0.001482,1,0,0,0,0,0,0,0.165798,-0.096886,-0.007690,1,0,0,0,0,0,0
2.760000,0.003595,0.184560,-0.000345,1,0,0,0,0,0,0,-0.125426,-0.055024,0.001642,1,0,0,0,0,0,0,0.160914,-0.095072,-0.007415,1,0,0,0,0,0,0
2.770000,0.003633,0.181804,-0.000313,1,0,0,0,0,0,0,-0.128161,-0.055543,0.001819,1,0,0,0,0,0,0,0.155569,-0.093173,-0.007129,1,0,0,0,0,0,0
2.780000,0.003520,0.178350,-0.000286,1,0,0,0,0,0,0,-0.130395,-0.056167,0.002007,1,0,0,0,0,0,0,0.149787,-0.091263,-0.006845,1,0,0,0,0,0,0
2.790000,0.003246,0.174414,-0.000262,1,0,0,0,0,0,0,-0.132200,-0.056849,0.002200,1,0,0,0,0,0,0,0.143825,-0.089477,-0.006584,1,0,0,0,0,0,0
2.800000,0.002829,0.170211,-0.000240,1,0,0,0,0,0,0,-0.133670,-0.057556,0.002391,1,0,0,0,0,0,0,0.137998,-0.087929,-0.006359,1,0,0,0,0,0,0
2.810000,0.002293,0.165907,-0.000221,1,0,0,0,0,0,0,-0.134862,-0.058267,0.002579,1,0,0,0,0,0,0,0.132475,-0.086632,-0.006169,1,0,0,0,0,0,0
2.820000,0.001666,0.161501,-0.000203,1,0,0,0,0,0,0,-0.135763,-0.058995,0.002763,1,0,0,0,0,0,0,0.127220,-0.085501,-0.006000,1,0,0,0,0,0,0
2.830000,0.000971,0.156819,-0.000187,1,0,0,0,0,0,0,-0.136322,-0.059786,0.002950,1,0,0,0,0,0,0,0.122112,-0.084423,-0.005835,1,0,0,0,0,0,0
2.840000,0.000203,0.151654,-0.000172,1,0,0,0,0,0,0,-0.136530,-0.060710,0.003149,1,0,0,0,0,0,0,0.117115,-0.083322,-0.005666,1,0,0,0,0,0,0
2.850000,-0.000686,0.145987,-0.000157,1,0,0,0,0,0,0,-0.136471,-0.061834,0.003368,1,0,0,0,0,0,0,0.112294,-0.082137,-0.005486,1,0,0,0,0,0,0
2.860000,-0.001766,0.140033,-0.000141,1,0,0,0,0,0,0,-0.136292,-0.063187,0.003610,1,0,0,0,0,0,0,0.107719,-0.080794,-0.005288,1,0,0,0,0,0,0
2.870000,-0.003084,0.134132,-0.000123,1,0,0,0,0,0,0,-0.136209,-0.064825,0.003882,1,0,0,0,0,0,0,0.103368,-0.079200,-0.005065,1,0,0,0,0,0,0
2.880000,-0.004620,0.128534,-0.000104,1,0,0,0,0,0,0,-0.136360,-0.066719,0.004180,1,0,0,0,0,0,0,0.099102,-0.077267,-0.004811,1,0,0,0,0,0,0
2.890000,-0.006294,0.123284,-0.000084,1,0,0,0,0,0,0,-0.136737,-0.068733,0.004486,1,0,0,0,0,0,0,0.094770,-0.074967,-0.004529,1,0,0,0,0,0,0
2.900000,-0.008004,0.118266,-0.000063,1,0,0,0,0,0,0,-0.137322,-0.070728,0.004780,1,0,0,0,0,0,0,0.090283,-0.072339,-0.004226,1,0,0,0,0,0,0
2.910000,-0.009672,0.113344,-0.000041,1,0,0,0,0,0,0,-0.138086,-0.072543,0.005042,1,0,0,0,0,0,0,0.085655,-0.069485,-0.003915,1,0,0,0,0,0,0
2.920000,-0.011268,0.108509,-0.000017,1,0,0,0,0,0,0,-0.139012,-0.074034,0.005253,1,0,0,0,0,0,0,0.080979,-0.066563,-0.003614,1,0,0,0,0,0,0
2.930000,-0.012791,0.103885,0.000005,1,0,0,0,0,0,0,-0.140058,-0.075099,0.005400,1,0,0,0,0,0,0,0.076376,-0.063761,-0.003336,1,0,0,0,0,0,0
2.940000,-0.014237,0.099602,0.000026,1,0,0,0,0,0,0,-0.141149,-0.075692,0.005479,1,0,0,0,0,0,0,0.071964,-0.061254,-0.003094,1,0,0,0,0,0,0
2.950000,-0.015588,0.095746,0.000041,1,0,0,0,0,0,0,-0.142270,-0.075794,0.005486,1,0,0,0,0,0,0,0.067831,-0.059149,-0.002892,1,0,0,0,0,0,0
2.960000,-0.016823,0.092343,0.000051,1,0,0,0,0,0,0,-0.143284,-0.075376,0.005421,1,0,0,0,0,0,0,0.063985,-0.057439,-0.002725,1,0,0,0,0,0,0
2.970000,-0.017922,0.089356,0.000055,1,0,0,0,0,0,0,-0.143967,-0.074419,0.005280,1,0,0,0,0,0,0,0.060364,-0.056055,-0.002585,1,0,0,0,0,0,0
2.980000,-0.018879,0.086697,0.000054,1,0,0,0,0,0,0,-0.144149,-0.072924,0.005065,1,0,0,0,0,0,0,0.056902,-0.054955,-0.002467,1,0,0,0,0,0,0
2.990000,-0.019699,0.084264,0.000049,1,0,0,0,0,0,0,-0.143756,-0.070963,0.004789,1,0,0,0,0,0,0,0.053586,-0.054142,-0.002367,1,0,0,0,0,0,0
3.000000,-0.020394,0.082038,0.000041,1,0,0,0,0,0,0,-0.142822,-0.068652,0.004471,1,0,0,0,0,0,0,0.050516,-0.053686,-0.002289,1,0,0,0,0,0,0
3.010000,-0.020969,0.080027,0.000030,1,0,0,0,0,0,0,-0.141443,-0.066104,0.004128,1,0,0,0,0,0,0,0.047863,-0.053644,-0.002231,1,0,0,0,0,0,0
3.020000,-0.021418,0.078159,0.000018,1,0,0,0,0,0,0,-0.139689,-0.063490,0.003787,1,0,0,0,0,0,0,0.045773,-0.054010,-0.002192,1,0,0,0,0,0,0
3.030000,-0.021715,0.076298,0.000006,1,0,0,0,0,0,0,-0.137514,-0.061033,0.003479,1,0,0,0,0,0,0,0.044282,-0.054710,-0.002166,1,0,0,0,0,0,0
3.040000,-0.021833,0.074289,-0.000000,1,0,0,0,0,0,0,-0.134818,-0.058847,0.003220,1,0,0,0,0,0,0,0.043305,-0.055641,-0.002150,1,0,0,0,0,0,0
3.050000,-0.021763,0.072009,0.000000,1,0,0,0,0,0,0,-0.131516,-0.056945,0.003008,1,0,0,0,0,0,0,0.042678,-0.056711,-0.002139,1,0,0,0,0,0,0
3.060000,-0.021542,0.069416,0.000009,1,0,0,0,0,0,0,-0.127587,-0.055260,0.002832,1,0,0,0,0,0,0,0.042243,-0.057860,-0.002132,1,0,0,0,0,0,0
3.070000,-0.021239,0.066589,0.000023,1,0,0,0,0,0,0,-0.123104,-0.053678,0.002674,1,0,0,0,0,0,0,0.041870,-0.059023,-0.002126,1,0,0,0,0,0,0
3.080000,-0.020938,0.063664,0.000040,1,0,0,0,0,0,0,-0.118206,-0.052127,0.002525,1,0,0,0,0,0,0,0.041578,-0.060194,-0.002121,1,0,0,0,0,0,0
3.090000,-0.020701,0.060774,0.000057,1,0,0,0,0,0,0,-0.113069,-0.050595,0.002383,1,0,0,0,0,0,0,0.041501,-0.061407,-0.002118,1,0,0,0,0,0,0
3.100000,-0.020553,0.057995,0.000073,1,0,0,0,0,0,0,-0.107898,-0.049096,0.002247,1,0,0,0,0,0,0,0.041769,-0.062673,-0.002120,1,0,0,0,0,0,0
3.110000,-0.020482,0.055364,0.000086,1,0,0,0,0,0,0,-0.102827,-0.047645,0.002120,1,0,0,0,0,0,0,0.042429,-0.063948,-0.002124,1,0,0,0,0,0,0
3.120000,-0.020493,0.052972,0.000095,1,0,0,0,0,0,0,-0.097874,-0.046265,0.002003,1,0,0,0,0,0,0,0.043445,-0.065153,-0.002129,1,0,0,0,0,0,0
3.130000,-0.020604,0.050958,0.000098,1,0,0,0,0,0,0,-0.093021,-0.044999,0.001899,1,0,0,0,0,0,0,0.044718,-0.066190,-0.002130,1,0,0,0,0,0,0
3.140000,-0.020826,0.049414,0.000092,1,0,0,0,0,0,0,-0.088234,-0.043868,0.001810,1,0,0,0,0,0,0,0.046109,-0.066964,-0.002124,1,0,0,0,0,0,0
3.150000,-0.021171,0.048363,0.000077,1,0,0,0,0,0,0,-0.083489,-0.042871,0.001734,1,0,0,0,0,0,0,0.047509,-0.067416,-0.002109,1,0,0,0,0,0,0
3.160000,-0.021640,0.047745,0.000054,1,0,0,0,0,0,0,-0.078778,-0.041988,0.001667,1,0,0,0,0,0,0,0.048825,-0.067526,-0.002081,1,0,0,0,0,0,0
3.170000,-0.022227,0.047438,0.000026,1,0,0,0,0,0,0,-0.074128,-0.041207,0.001609,1,0,0,0,0,0,0,0.050058,-0.067312,-0.002042,1,0,0,0,0,0,0
3.180000,-0.022933,0.047338,-0.000005,1,0,0,0,0,0,0,-0.069575,-0.040513,0.001556,1,0,0,0,0,0,0,0.051273,-0.066810,-0.001993,1,0,0,0,0,0,0
3.190000,-0.023743,0.047348,-0.000038,1,0,0,0,0,0,0,-0.065143,-0.039875,0.001506,1,0,0,0,0,0,0,0.052508,-0.066049,-0.001934,1,0,0,0,0,0,0
3.200000,-0.024655,0.047482,-0.000074,1,0,0,0,0,0,0,-0.060873,-0.039271,0.001457,1,0,0,0,0,0,0,0.053706,-0.065046,-0.001866,1,0,0,0,0,0,0
3.210000,-0.025686,0.047868,-0.000115,1,0,0,0,0,0,0,-0.056815,-0.038679,0.001409,1,0,0,0,0,0,0,0.054757,-0.063829,-0.001790,1,0,0,0,0,0,0
3.220000,-0.026866,0.048709,-0.000167,1,0,0,0,0,0,0,-0.053006,-0.038072,0.001358,1,0,0,0,0,0,0,0.055554,-0.062461,-0.001710,1,0,0,0,0,0,0
3.230000,-0.028181,0.050153,-0.000237,1,0,0,0,0,0,0,-0.049530,-0.037460,0.001307,1,0,0,0,0,0,0,0.056067,-0.061054,-0.001630,1,0,0,0,0,0,0
3.240000,-0.029539,0.052167,-0.000323,1,0,0,0,0,0,0,-0.046466,-0.036881,0.001258,1,0,0,0,0,0,0,0.056382,-0.059744,-0.001559,1,0,0,0,0,0,0
3.250000,-0.030838,0.054646,-0.000426,1,0,0,0,0,0,0,-0.043871,-0.036398,0.001213,1,0,0,0,0,0,0,0.056668,-0.058671,-0.001504,1,0,0,0,0,0,0
3.260000,-0.031993,0.057474,-0.000541,1,0,0,0,0,0,0,-0.041795,-0.036092,0.001175,1,0,0,0,0,0,0,0.057093,-0.057935,-0.001471,1,0,0,0,0,0,0
3.270000,-0.032961,0.060551,-0.000665,1,0,0,0,0,0,0,-0.040261,-0.036035,0.001148,1,0,0,0,0,0,0,0.057725,-0.057554,-0.001459,1,0,0,0,0,0,0
3.280000,-0.033742,0.063827,-0.000795,1,0,0,0,0,0,0,-0.039257,-0.036253,0.001132,1,0,0,0,0,0,0,0.058539,-0.057506,-0.001467,1,0,0,0,0,0,0
3.290000,-0.034362,0.067291,-0.000932,1,0,0,0,0,0,0,-0.038762,-0.036722,0.001125,1,0,0,0,0,0,0,0.059482,-0.057771,-0.001496,1,0,0,0,0,0,0
3.300000,-0.034845,0.070938,-0.001074,1,0,0,0,0,0,0,-0.038770,-0.037386,0.001126,1,0,0,0,0,0,0,0.060522,-0.058333,-0.001542,1,0,0,0,0,0,0
3.310000,-0.035201,0.074782,-0.001220,1,0,0,0,0,0,0,-0.039273,-0.038176,0.001132,1,0,0,0,0,0,0,0.061675,-0.059184,-0.001608,1,0,0,0,0,0,0
3.320000,-0.035421,0.078847,-0.001372,1,0,0,0,0,0,0,-0.040285,-0.039039,0.001143,1,0,0,0,0,0,0,0.062988,-0.060307,-0.001691,1,0,0,0,0,0,0
3.330000,-0.035500,0.083096,-0.001527,1,0,0,0,0,0,0,-0.041839,-0.039942,0.001158,1,0,0,0,0,0,0,0.064506,-0.061691,-0.001792,1,0,0,0,0,0,0
3.340000,-0.035443,0.087428,-0.001681,1,0,0,0,0,0,0,-0.043930,-0.040834,0.001176,1,0,0,0,0,0,0,0.066266,-0.063331,-0.001912,1,0,0,0,0,0,0
3.350000,-0.035271,0.091734,-0.001828,1,0,0,0,0,0,0,-0.046572,-0.041651,0.001195,1,0,0,0,0,0,0,0.068273,-0.065210,-0.002051,1,0,0,0,0,0,0
3.360000,-0.035020,0.095860,-0.001964,1,0,0,0,0,0,0,-0.049684,-0.042286,0.001210,1,0,0,0,0,0,0,0.070480,-0.067270,-0.002205,1,0,0,0,0,0,0
3.370000,-0.034722,0.099617,-0.002081,1,0,0,0,0,0,0,-0.053171,-0.042633,0.001217,1,0,0,0,0,0,0,0.072774,-0.069403,-0.002368,1,0,0,0,0,0,0
3.380000,-0.034409,0.102882,-0.002176,1,0,0,0,0,0,0,-0.056933,-0.042614,0.001208,1,0,0,0,0,0,0,0.074999,-0.071490,-0.002533,1,0,0,0,0,0,0
3.390000,-0.034116,0.105626,-0.002248,1,0,0,0,0,0,0,-0.060834,-0.042221,0.001183,1,0,0,0,0,0,0,0.076996,-0.073435,-0.002691,1,0,0,0,0,0,0
3.400000,-0.033886,0.107884,-0.002300,1,0,0,0,0,0,0,-0.064737,-0.041517,0.001142,1,0,0,0,0,0,0,0.078674,-0.075187,-0.002836,1,0,0,0,0,0,0
3.410000,-0.033765,0.109706,-0.002335,1,0,0,0,0,0,0,-0.068552,-0.040608,0.001090,1,0,0,0,0,0,0,0.080058,-0.076753,-0.002969,1,0,0,0,0,0,0
3.420000,-0.033796,0.111123,-0.002355,1,0,0,0,0,0,0,-0.072203,-0.039607,0.001035,1,0,0,0,0,0,0,0.081276,-0.078169,-0.003091,1,0,0,0,0,0,0
3.430000,-0.034022,0.112173,-0.002362,1,0,0,0,0,0,0,-0.075621,-0.038616,0.000982,1,0,0,0,0,0,0,0.082474,-0.079452,-0.003202,1,0,0,0,0,0,0
3.440000,-0.034495,0.112961,-0.002362,1,0,0,0,0,0,0,-0.078770,-0.037721,0.000939,1,0,0,0,0,0,0,0.083716,-0.080552,-0.003299,1,0,0,0,0,0,0
3.450000,-0.035258,0.113686,-0.002362,1,0,0,0,0,0,0,-0.081647,-0.037016,0.000913,1,0,0,0,0,0,0,0.084924,-0.081372,-0.003373,1,0,0,0,0,0,0
3.460000,-0.036340,0.114591,-0.002372,1,0,0,0,0,0,0,-0.084257,-0.036598,0.000912,1,0,0,0,0,0,0,0.085931,-0.081826,-0.003417,1,0,0,0,0,0,0
3.470000,-0.037705,0.115815,-0.002398,1,0,0,0,0,0,0,-0.086604,-0.036540,0.000944,1,0,0,0,0,0,0,0.086556,-0.081870,-0.003427,1,0,0,0,0,0,0
3.480000,-0.039247,0.117283,-0.002440,1,0,0,0,0,0,0,-0.088707,-0.036879,0.001011,1,0,0,0,0,0,0,0.086659,-0.081519,-0.003403,1,0,0,0,0,0,0
3.490000,-0.040871,0.118812,-0.002491,1,0,0,0,0,0,0,-0.090603,-0.037610,0.001115,1,0,0,0,0,0,0,0.086227,-0.080855,-0.003353,1,0,0,0,0,0,0
3.500000,-0.042512,0.120217,-0.002544,1,0,0,0,0,0,0,-0.092353,-0.038705,0.001251,1,0,0,0,0,0,0,0.085386,-0.080002,-0.003287,1,0,0,0,0,0,0
3.510000,-0.044141,0.121394,-0.002594,1,0,0,0,0,0,0,-0.094049,-0.040111,0.001416,1,0,0,0,0,0,0,0.084332,-0.079102,-0.003218,1,0,0,0,0,0,0
3.520000,-0.045762,0.122362,-0.002641,1,0,0,0,0,0,0,-0.095769,-0.041731,0.001601,1,0,0,0,0,0,0,0.083215,-0.078265,-0.003155,1,0,0,0,0,0,0
3.530000,-0.047390,0.123235,-0.002689,1,0,0,0,0,0,0,-0.097560,-0.043450,0.001793,1,0,0,0,0,0,0,0.082048,-0.077540,-0.003102,1,0,0,0,0,0,0
3.540000,-0.048983,0.124085,-0.002742,1,0,0,0,0,0,0,-0.099437,-0.045172,0.001986,1,0,0,0,0,0,0,0.080761,-0.076970,-0.003060,1,0,0,0,0,0,0
3.550000,-0.050453,0.124936,-0.002801,1,0,0,0,0,0,0,-0.101394,-0.046840,0.002172,1,0,0,0,0,0,0,0.079326,-0.076640,-0.003038,1,0,0,0,0,0,0
3.560000,-0.051709,0.125838,-0.002867,1,0,0,0,0,0,0,-0.103432,-0.048455,0.002352,1,0,0,0,0,0,0,0.077846,-0.076638,-0.003039,1,0,0,0,0,0,0
3.570000,-0.052671,0.126855,-0.002942,1,0,0,0,0,0,0,-0.105519,-0.050050,0.002530,1,0,0,0,0,0,0,0.076531,-0.077036,-0.003068,1,0,0,0,0,0,0
3.580000,-0.053296,0.128053,-0.003030,1,0,0,0,0,0,0,-0.107617,-0.051691,0.002715,1,0,0,0,0,0,0,0.075576,-0.077836,-0.003124,1,0,0,0,0,0,0
3.590000,-0.053573,0.129456,-0.003128,1,0,0,0,0,0,0,-0.109711,-0.053468,0.002914,1,0,0,0,0,0,0,0.075024,-0.078940,-0.003199,1,0,0,0,0,0,0
3.600000,-0.053494,0.130956,-0.003231,1,0,0,0,0,0,0,-0.111715,-0.055392,0.003131,1,0,0,0,0,0,0,0.074776,-0.080206,-0.003282,1,0,0,0,0,0,0
3.610000,-0.053056,0.132361,-0.003325,1,0,0,0,0,0,0,-0.113552,-0.057385,0.003356,1,0,0,0,0,0,0,0.074694,-0.081512,-0.003365,1,0,0,0,0,0,0
3.620000,-0.052283,0.133517,-0.003400,1,0,0,0,0,0,0,-0.115222,-0.059328,0.003576,1,0,0,0,0,0,0,0.074700,-0.082785,-0.003442,1,0,0,0,0,0,0
3.630000,-0.051246,0.134390,-0.003455,1,0,0,0,0,0,0,-0.116797,-0.061094,0.003775,1,0,0,0,0,0,0,0.074785,-0.083987,-0.003513,1,0,0,0,0,0,0
3.640000,-0.050033,0.135110,-0.003494,1,0,0,0,0,0,0,-0.118409,-0.062617,0.003944,1,0,0,0,0,0,0,0.074996,-0.085105,-0.003576,1,0,0,0,0,0,0
3.650000,-0.048713,0.135846,-0.003528,1,0,0,0,0,0,0,-0.120180,-0.063916,0.004088,1,0,0,0,0,0,0,0.075377,-0.086119,-0.003630,1,0,0,0,0,0,0
3.660000,-0.047314,0.136621,-0.003556,1,0,0,0,0,0,0,-0.122202,-0.065088,0.004217,1,0,0,0,0,0,0,0.075927,-0.086978,-0.003673,1,0,0,0,0,0,0
3.670000,-0.045831,0.137276,-0.003571,1,0,0,0,0,0,0,-0.124500,-0.066256,0.004348,1,0,0,0,0,0,0,0.076549,-0.087583,-0.003697,1,0,0,0,0,0,0
3.680000,-0.044264,0.137590,-0.003563,1,0,0,0,0,0,0,-0.126996,-0.067480,0.004490,1,0,0,0,0,0,0,0.077077,-0.087812,-0.003694,1,0,0,0,0,0,0
3.690000,-0.042645,0.137378,-0.003526,1,0,0,0,0,0,0,-0.129576,-0.068724,0.004638,1,0,0,0,0,0,0,0.077348,-0.087576,-0.003656,1,0,0,0,0,0,0
3.700000,-0.041042,0.136575,-0.003459,1,0,0,0,0,0,0,-0.132155,-0.069875,0.004778,1,0,0,0,0,0,0,0.077298,-0.086869,-0.003584,1,0,0,0,0,0,0
3.710000,-0.039532,0.135234,-0.003368,1,0,0,0,0,0,0,-0.134693,-0.070781,0.004890,1,0,0,0,0,0,0,0.077022,-0.085759,-0.003483,1,0,0,0,0,0,0
3.720000,-0.038184,0.133481,-0.003259,1,0,0,0,0,0,0,-0.137183,-0.071308,0.004954,1,0,0,0,0,0,0,0.076701,-0.084332,-0.003361,1,0,0,0,0,0,0
3.730000,-0.037045,0.131452,-0.003141,1,0,0,0,0,0,0,-0.139602,-0.071366,0.004958,1,0,0,0,0,0,0,0.076473,-0.082645,-0.003222,1,0,0,0,0,0,0
3.740000,-0.036139,0.129270,-0.003018,1,0,0,0,0,0,0,-0.141905,-0.070929,0.004896,1,0,0,0,0,0,0,0.076328,-0.080715,-0.003068,1,0,0,0,0,0,0
3.750000,-0.035475,0.127033,-0.002896,1,0,0,0,0,0,0,-0.144055,-0.070003,0.004768,1,0,0,0,0,0,0,0.076146,-0.078554,-0.002902,1,0,0,0,0,0,0
3.760000,-0.035061,0.124828,-0.002778,1,0,0,0,0,0,0,-0.145967,-0.068612,0.004578,1,0,0,0,0,0,0,0.075779,-0.076200,-0.002725,1,0,0,0,0,0,0
3.770000,-0.034888,0.122712,-0.002667,1,0,0,0,0,0,0,-0.147498,-0.066794,0.004330,1,0,0,0,0,0,0,0.075113,-0.073714,-0.002544,1,0,0,0,0,0,0
3.780000,-0.034946,0.120733,-0.002564,1,0,0,0,0,0,0,-0.148496,-0.064604,0.004035,1,0,0,0,0,0,0,0.074093,-0.071177,-0.002365,1,0,0,0,0,0,0
3.790000,-0.035208,0.118927,-0.002471,1,0,0,0,0,0,0,-0.148838,-0.062128,0.003705,1,0,0,0,0,0,0,0.072734,-0.068705,-0.002197,1,0,0,0,0,0,0
3.800000,-0.035614,0.117280,-0.002388,1,0,0,0,0,0,0,-0.148472,-0.059476,0.003357,1,0,0,0,0,0,0,0.071130,-0.066455,-0.002052,1,0,0,0,0,0,0
3.810000,-0.036069,0.115712,-0.002311,1,0,0,0,0,0,0,-0.147433,-0.056773,0.003013,1,0,0,0,0,0,0,0.069454,-0.064595,-0.001938,1,0,0,0,0,0,0
3.820000,-0.036481,0.114103,-0.002236,1,0,0,0,0,0,0,-0.145800,-0.054154,0.002693,1,0,0,0,0,0,0,0.067912,-0.063257,-0.001864,1,0,0,0,0,0,0
3.830000,-0.036794,0.112365,-0.002161,1,0,0,0,0,0,0,-0.143655,-0.051753,0.002415,1,0,0,0,0,0,0,0.066627,-0.062439,-0.001826,1,0,0,0,0,0,0
3.840000,-0.037006,0.110501,-0.002084,1,0,0,0,0,0,0,-0.141062,-0.049672,0.002192,1,0,0,0,0,0,0,0.065586,-0.062058,-0.001817,1,0,0,0,0,0,0
3.850000,-0.037141,0.108594,-0.002009,1,0,0,0,0,0,0,-0.138059,-0.047967,0.002031,1,0,0,0,0,0,0,0.064707,-0.062052,-0.001831,1,0,0,0,0,0,0
3.860000,-0.037211,0.106783,-0.001940,1,0,0,0,0,0,0,-0.134681,-0.046648,0.001927,1,0,0,0,0,0,0,0.063926,-0.062390,-0.001864,1,0,0,0,0,0,0
3.870000,-0.037187,0.105204,-0.001882,1,0,0,0,0,0,0,-0.130993,-0.045680,0.001871,1,0,0,0,0,0,0,0.063282,-0.063061,-0.001916,1,0,0,0,0,0,0
3.880000,-0.037011,0.103981,-0.001840,1,0,0,0,0,0,0,-0.127095,-0.045008,0.001854,1,0,0,0,0,0,0,0.062904,-0.064031,-0.001984,1,0,0,0,0,0,0
3.890000,-0.036619,0.103167,-0.001814,1,0,0,0,0,0,0,-0.123097,-0.044547,0.001860,1,0,0,0,0,0,0,0.062900,-0.065203,-0.002061,1,0,0,0,0,0,0
3.900000,-0.035982,0.102734,-0.001803,1,0,0,0,0,0,0,-0.119085,-0.044215,0.001876,1,0,0,0,0,0,0,0.063263,-0.066438,-0.002140,1,0,0,0,0,0,0
3.910000,-0.035109,0.102605,-0.001801,1,0,0,0,0,0,0,-0.115150,-0.043998,0.001900,1,0,0,0,0,0,0,0.063865,-0.067604,-0.002214,1,0,0,0,0,0,0
3.920000,-0.034031,0.102642,-0.001804,1,0,0,0,0,0,0,-0.111332,-0.043870,0.001928,1,0,0,0,0,0,0,0.064535,-0.068614,-0.002276,1,0,0,0,0,0,0
3.930000,-0.032797,0.102706,-0.001804,1,0,0,0,0,0,0,-0.107627,-0.043791,0.001954,1,0,0,0,0,0,0,0.065155,-0.069424,-0.002326,1,0,0,0,0,0,0
3.940000,-0.031464,0.102708,-0.001799,1,0,0,0,0,0,0,-0.104024,-0.043718,0.001974,1,0,0,0,0,0,0,0.065712,-0.070023,-0.002362,1,0,0,0,0,0,0
3.950000,-0.030096,0.102654,-0.001788,1,0,0,0,0,0,0,-0.100528,-0.043608,0.001985,1,0,0,0,0,0,0,0.066274,-0.070407,-0.002384,1,0,0,0,0,0,0
3.960000,-0.028750,0.102627,-0.001775,1,0,0,0,0,0,0,-0.097188,-0.043443,0.001984,1,0,0,0,0,0,0,0.066936,-0.070573,-0.002392,1,0,0,0,0,0,0
3.970000,-0.027455,0.102679,-0.001760,1,0,0,0,0,0,0,-0.094029,-0.043221,0.001974,1,0,0,0,0,0,0,0.067727,-0.070487,-0.002384,1,0,0,0,0,0,0
3.980000,-0.026206,0.102781,-0.001744,1,0,0,0,0,0,0,-0.091109,-0.042979,0.001957,1,0,0,0,0,0,0,0.068569,-0.070087,-0.002356,1,0,0,0,0,0,0
3.990000,-0.024977,0.102851,-0.001723,1,0,0,0,0,0,0,-0.088431,-0.042769,0.001940,1,0,0,0,0,0,0,0.069347,-0.069314,-0.002304,1,0,0,0,0,0,0
4.000000,-0.023749,0.102790,-0.001697,1,0,0,0,0,0,0,-0.085930,-0.042630,0.001927,1,0,0,0,0,0,0,0.069992,-0.068162,-0.002228,1,0,0,0,0,0,0
4.010000,-0.022553,0.102631,-0.001666,1,0,0,0,0,0,0,-0.083614,-0.042613,0.001922,1,0,0,0,0,0,0,0.070593,-0.066748,-0.002136,1,0,0,0,0,0,0
4.020000,-0.021473,0.102607,-0.001636,1,0,0,0,0,0,0,-0.081633,-0.042798,0.001930,1,0,0,0,0,0,0,0.071456,-0.065343,-0.002048,1,0,0,0,0,0,0
4.030000,-0.020538,0.102743,-0.001608,1,0,0,0,0,0,0,-0.080028,-0.043167,0.001951,1,0,0,0,0,0,0,0.072761,-0.064073,-0.001971,1,0,0,0,0,0,0
4.040000,-0.019742,0.102975,-0.001580,1,0,0,0,0,0,0,-0.078794,-0.043656,0.001978,1,0,0,0,0,0,0,0.074567,-0.062972,-0.001910,1,0,0,0,0,0,0
4.050000,-0.019068,0.103268,-0.001552,1,0,0,0,0,0,0,-0.077913,-0.044204,0.002006,1,0,0,0,0,0,0,0.076796,-0.062028,-0.001862,1,0,0,0,0,0,0
4.060000,-0.018504,0.103687,-0.001527,1,0,0,0,0,0,0,-0.077382,-0.044776,0.002035,1,0,0,0,0,0,0,0.079260,-0.061216,-0.001827,1,0,0,0,0,0,0
4.070000,-0.018051,0.104376,-0.001505,1,0,0,0,0,0,0,-0.077191,-0.045350,0.002062,1,0,0,0,0,0,0,0.081761,-0.060532,-0.001806,1,0,0,0,0,0,0
4.080000,-0.017710,0.105490,-0.001491,1,0,0,0,0,0,0,-0.077283,-0.045899,0.002086,1,0,0,0,0,0,0,0.084187,-0.060023,-0.001801,1,0,0,0,0,0,0
4.090000,-0.017457,0.107069,-0.001486,1,0,0,0,0,0,0,-0.077592,-0.046399,0.002107,1,0,0,0,0,0,0,0.086538,-0.059771,-0.001822,1,0,0,0,0,0,0
4.100000,-0.017237,0.108989,-0.001486,1,0,0,0,0,0,0,-0.078049,-0.046830,0.002122,1,0,0,0,0,0,0,0.088899,-0.059863,-0.001874,1,0,0,0,0,0,0
4.110000,-0.016989,0.111029,-0.001488,1,0,0,0,0,0,0,-0.078589,-0.047174,0.002131,1,0,0,0,0,0,0,0.091399,-0.060370,-0.001967,1,0,0,0,0,0,0
4.120000,-0.016674,0.113023,-0.001489,1,0,0,0,0,0,0,-0.079157,-0.047421,0.002134,1,0,0,0,0,0,0,0.094142,-0.061319,-0.002102,1,0,0,0,0,0,0
4.130000,-0.016283,0.114895,-0.001487,1,0,0,0,0,0,0,-0.079732,-0.047566,0.002129,1,0,0,0,0,0,0,0.097152,-0.062678,-0.002280,1,0,0,0,0,0,0
4.140000,-0.015828,0.116619,-0.001482,1,0,0,0,0,0,0,-0.080288,-0.047607,0.002118,1,0,0,0,0,0,0,0.100368,-0.064355,-0.002493,1,0,0,0,0,0,0
4.150000,-0.015327,0.118197,-0.001473,1,0,0,0,0,0,0,-0.080759,-0.047530,0.002099,1,0,0,0,0,0,0,0.103663,-0.066223,-0.002730,1,0,0,0,0,0,0
4.160000,-0.014788,0.119657,-0.001462,1,0,0,0,0,0,0,-0.081052,-0.047317,0.002070,1,0,0,0,0,0,0,0.106890,-0.068151,-0.002977,1,0,0,0,0,0,0
4.170000,-0.014209,0.121007,-0.001447,1,0,0,0,0,0,0,-0.081109,-0.046953,0.002030,1,0,0,0,0,0,0,0.109938,-0.070040,-0.003225,1,0,0,0,0,0,0
4.180000,-0.013582,0.122199,-0.001429,1,0,0,0,0,0,0,-0.080922,-0.046424,0.001979,1,0,0,0,0,0,0,0.112744,-0.071837,-0.003465,1,0,0,0,0,0,0
4.190000,-0.012907,0.123175,-0.001406,1,0,0,0,0,0,0,-0.080494,-0.045706,0.001914,1,0,0,0,0,0,0,0.115268,-0.073497,-0.003692,1,0,0,0,0,0,0
4.200000,-0.012197,0.123927,-0.001379,1,0,0,0,0,0,0,-0.079804,-0.044776,0.001834,1,0,0,0,0,0,0,0.117486,-0.074979,-0.003900,1,0,0,0,0,0,0
4.210000,-0.011475,0.124515,-0.001349,1,0,0,0,0,0,0,-0.078832,-0.043626,0.001739,1,0,0,0,0,0,0,0.119396,-0.076254,-0.004084,1,0,0,0,0,0,0
4.220000,-0.010772,0.125015,-0.001317,1,0,0,0,0,0,0,-0.077579,-0.042257,0.001629,1,0,0,0,0,0,0,0.121013,-0.077303,-0.004241,1,0,0,0,0,0,0
4.230000,-0.010110,0.125518,-0.001284,1,0,0,0,0,0,0,-0.076056,-0.040676,0.001507,1,0,0,0,0,0,0,0.122334,-0.078101,-0.004367,1,0,0,0,0,0,0
4.240000,-0.009499,0.126057,-0.001251,1,0,0,0,0,0,0,-0.074282,-0.038905,0.001375,1,0,0,0,0,0,0,0.123317,-0.078612,-0.004456,1,0,0,0,0,0,0
4.250000,-0.008930,0.126611,-0.001217,1,0,0,0,0,0,0,-0.072276,-0.036979,0.001237,1,0,0,0,0,0,0,0.123891,-0.078794,-0.004504,1,0,0,0,0,0,0
4.260000,-0.008387,0.127114,-0.001182,1,0,0,0,0,0,0,-0.070055,-0.034926,0.001095,1,0,0,0,0,0,0,0.123993,-0.078625,-0.004507,1,0,0,0,0,0,0
4.270000,-0.007851,0.127454,-0.001146,1,0,0,0,0,0,0,-0.067633,-0.032778,0.000954,1,0,0,0,0,0,0,0.123594,-0.078105,-0.004465,1,0,0,0,0,0,0
4.280000,-0.007312,0.127502,-0.001107,1,0,0,0,0,0,0,-0.065021,-0.030567,0.000815,1,0,0,0,0,0,0,0.122718,-0.077255,-0.004382,1,0,0,0,0,0,0
4.290000,-0.006779,0.127235,-0.001067,1,0,0,0,0,0,0,-0.062230,-0.028320,0.000681,1,0,0,0,0,0,0,0.121426,-0.076109,-0.004263,1,0,0,0,0,0,0
4.300000,-0.006280,0.126689,-0.001025,1,0,0,0,0,0,0,-0.059263,-0.026066,0.000555,1,0,0,0,0,0,0,0.119804,-0.074700,-0.004114,1,0,0,0,0,0,0
4.310000,-0.005845,0.125856,-0.000982,1,0,0,0,0,0,0,-0.056124,-0.023835,0.000439,1,0,0,0,0,0,0,0.117935,-0.073046,-0.003938,1,0,0,0,0,0,0
4.320000,-0.005505,0.124742,-0.000938,1,0,0,0,0,0,0,-0.052813,-0.021657,0.000333,1,0,0,0,0,0,0,0.115876,-0.071153,-0.003738,1,0,0,0,0,0,0
4.330000,-0.005281,0.123362,-0.000894,1,0,0,0,0,0,0,-0.049327,-0.019560,0.000239,1,0,0,0,0,0,0,0.113646,-0.069020,-0.003514,1,0,0,0,0,0,0
